Crazyflie name,QTM packet timestamp (s),QTM_x (m),QTM_y (m),QTM_z (m),cf_yaw (°),QTM_vx (m/s),QTM_vy (m/s),QTM_vz (m/s),x_g (m),y_g (m),z_g (m),yaw_g (°),roll_c (°),pitch_c (°),yaw_rate_c (°/s),thrust_c (PWM)
Cible,5150.46,0.03539068984985352,-0.019778856277465822,0.010005571365356446,None,None,None,None,None,None,None,None,None,None,None,None
Cible,5157.599999999999,0.035378902435302735,-0.019789264678955077,0.009986321449279785,None,None,None,None,None,None,None,None,None,None,None,None
Cible,5157.62,0.035382617950439454,-0.019785409927368165,0.00999239444732666,None,None,None,None,None,None,None,None,None,None,None,None
Cible,5157.639999999999,0.03538037109375,-0.019767709732055664,0.010010565757751465,None,None,None,None,None,None,None,None,None,None,None,None
Cible,5157.66,0.03538780212402344,-0.019783740997314454,0.009991146087646485,None,None,None,None,None,None,None,None,None,None,None,None
Cible,5157.679999999999,0.03537944030761719,-0.01979420280456543,0.00998874282836914,None,None,None,None,None,None,None,None,None,None,None,None
Cible,5157.7,0.035381542205810544,-0.019788040161132812,0.009993672370910645,None,None,None,None,None,None,None,None,None,None,None,None
Cible,5157.719999999999,0.035380519866943363,-0.01979177474975586,0.009997346878051759,None,None,None,None,None,None,None,None,None,None,None,None
Cible,5157.74,0.035391361236572265,-0.01980608367919922,0.009990710258483887,None,None,None,None,None,None,None,None,None,None,None,None
Cible,5157.76,0.03539639282226562,-0.019789438247680664,0.010007956504821778,None,None,None,None,None,None,None,None,None,None,None,None
Cible,5157.78,0.03539021682739258,-0.019800870895385743,0.009998051643371583,None,None,None,None,None,None,None,None,None,None,None,None
Cible,5157.8,0.0354007568359375,-0.019811609268188476,0.009975645065307617,None,None,None,None,None,None,None,None,None,None,None,None
Cible,5157.82,0.03538378524780274,-0.019795379638671874,0.009997207641601563,None,None,None,None,None,None,None,None,None,None,None,None
Cible,5157.84,0.03539451599121094,-0.019794700622558593,0.009983738899230958,None,None,None,None,None,None,None,None,None,None,None,None
Cible,5157.86,0.03538000869750977,-0.01978705024719238,0.009998475074768066,None,None,None,None,None,None,None,None,None,None,None,None
Cible,5157.88,0.035393611907958984,-0.019789157867431642,0.010020484924316406,None,None,None,None,None,None,None,None,None,None,None,None
Cible,5157.9,0.03537981414794922,-0.01979276466369629,0.010005802154541017,None,None,None,None,None,None,None,None,None,None,None,None
Cible,5157.92,0.03538168716430664,-0.01979372787475586,0.009996726036071777,None,None,None,None,None,None,None,None,None,None,None,None
Cible,5157.94,0.03536947631835938,-0.019790225982666016,0.010004183769226075,None,None,None,None,None,None,None,None,None,None,None,None
Cible,5157.96,0.03538569259643555,-0.01977945899963379,0.009996160507202149,None,None,None,None,None,None,None,None,None,None,None,None
Cible,5157.98,0.035384597778320315,-0.019787397384643555,0.009992667198181152,None,None,None,None,None,None,None,None,None,None,None,None
Cible,5158.0,0.03538470077514649,-0.019786272048950195,0.009999150276184083,None,None,None,None,None,None,None,None,None,None,None,None
Cible,5158.0199999999995,0.03538195037841797,-0.01979304313659668,0.010024026870727539,None,None,None,None,None,None,None,None,None,None,None,None
Cible,5158.04,0.03538751983642578,-0.019781017303466798,0.00999453067779541,None,None,None,None,None,None,None,None,None,None,None,None
Cible,5158.0599999999995,0.03537460708618164,-0.01978675651550293,0.009996663093566895,None,None,None,None,None,None,None,None,None,None,None,None
Cible,5158.08,0.03539606857299805,-0.01978727912902832,0.010007798194885254,None,None,None,None,None,None,None,None,None,None,None,None
Cible,5158.099999999999,0.03539017868041992,-0.01978670883178711,0.00999574661254883,None,None,None,None,None,None,None,None,None,None,None,None
Cible,5158.12,0.03539803314208984,-0.01978741455078125,0.010002838134765626,None,None,None,None,None,None,None,None,None,None,None,None
Cible,5158.139999999999,0.035398262023925785,-0.019783533096313477,0.010005002021789552,None,None,None,None,None,None,None,None,None,None,None,None
Cible,5158.16,0.035403255462646485,-0.019782014846801758,0.009995841979980468,None,None,None,None,None,None,None,None,None,None,None,None
Cible,5158.179999999999,0.03538628005981445,-0.019785871505737306,0.009991366386413575,None,None,None,None,None,None,None,None,None,None,None,None
Cible,5158.2,0.0353752555847168,-0.019789808273315432,0.010003438949584961,None,None,None,None,None,None,None,None,None,None,None,None
Cible,5158.219999999999,0.035384693145751954,-0.01978354072570801,0.00999909782409668,None,None,None,None,None,None,None,None,None,None,None,None
Cible,5158.24,0.03540579605102539,-0.01979458808898926,0.00999686622619629,None,None,None,None,None,None,None,None,None,None,None,None
Cible,5158.26,0.03539701461791992,-0.01979117774963379,0.010012992858886719,None,None,None,None,None,None,None,None,None,None,None,None
Cible,5158.28,0.03537831115722656,-0.019771350860595702,0.009999335289001465,None,None,None,None,None,None,None,None,None,None,None,None
Cible,5158.3,0.035388545989990236,-0.01978441047668457,0.009988668441772462,None,None,None,None,None,None,None,None,None,None,None,None
Cible,5158.32,0.03539690780639648,-0.019787839889526367,0.0100020809173584,None,None,None,None,None,None,None,None,None,None,None,None
Cible,5158.34,0.03538047027587891,-0.019787878036499024,0.009995871543884278,None,None,None,None,None,None,None,None,None,None,None,None
Cible,5158.36,0.03538075637817383,-0.019789236068725586,0.010003999710083008,None,None,None,None,None,None,None,None,None,None,None,None
Cible,5158.38,0.03538241195678711,-0.019789684295654298,0.009984724998474121,None,None,None,None,None,None,None,None,None,None,None,None
Cible,5158.4,0.03538375091552735,-0.019786170959472656,0.009984039306640624,None,None,None,None,None,None,None,None,None,None,None,None
Cible,5158.42,0.035395580291748045,-0.019784137725830077,0.010005579948425294,None,None,None,None,None,None,None,None,None,None,None,None
Cible,5158.44,0.03538314056396485,-0.019785924911499025,0.009995018005371094,None,None,None,None,None,None,None,None,None,None,None,None
Cible,5158.46,0.03536791229248047,-0.019783836364746094,0.010002835273742676,None,None,None,None,None,None,None,None,None,None,None,None
Cible,5158.48,0.035395977020263675,-0.019780555725097657,0.010005348205566407,None,None,None,None,None,None,None,None,None,None,None,None
Cible,5158.5,0.0353830680847168,-0.019789627075195312,0.009996307373046876,None,None,None,None,None,None,None,None,None,None,None,None
Cible,5158.5199999999995,0.03539402770996094,-0.019784055709838867,0.010000494956970215,None,None,None,None,None,None,None,None,None,None,None,None
Cible,5158.54,0.035384716033935545,-0.01978688049316406,0.00999995231628418,None,None,None,None,None,None,None,None,None,None,None,None
Cible,5158.5599999999995,0.035395027160644535,-0.019784961700439453,0.010004724502563477,None,None,None,None,None,None,None,None,None,None,None,None
Cible,5158.58,0.03537958526611328,-0.019765518188476563,0.009981300354003906,None,None,None,None,None,None,None,None,None,None,None,None
Cible,5158.599999999999,0.03538821411132813,-0.01977281188964844,0.010011255264282226,None,None,None,None,None,None,None,None,None,None,None,None
Cible,5158.62,0.035374507904052735,-0.0197904052734375,0.01000778865814209,None,None,None,None,None,None,None,None,None,None,None,None
Cible,5158.639999999999,0.03537845993041992,-0.019789087295532228,0.010002161979675293,None,None,None,None,None,None,None,None,None,None,None,None
Cible,5158.66,0.03538962936401367,-0.019789148330688476,0.010009673118591309,None,None,None,None,None,None,None,None,None,None,None,None
Cible,5158.679999999999,0.03539327621459961,-0.019784046173095704,0.010008437156677246,None,None,None,None,None,None,None,None,None,None,None,None
Cible,5158.7,0.035396598815917966,-0.01976458549499512,0.010000731468200684,None,None,None,None,None,None,None,None,None,None,None,None
Cible,5158.719999999999,0.035378551483154295,-0.019781185150146485,0.010030714988708497,None,None,None,None,None,None,None,None,None,None,None,None
Cible,5158.74,0.03538603210449219,-0.01978246307373047,0.009982272148132324,None,None,None,None,None,None,None,None,None,None,None,None
Cible,5158.76,0.035397899627685546,-0.01977875328063965,0.010000686645507812,None,None,None,None,None,None,None,None,None,None,None,None
Cible,5158.78,0.03539643096923828,-0.01978903388977051,0.010011387825012208,None,None,None,None,None,None,None,None,None,None,None,None
Cible,5158.8,0.03538292694091797,-0.01979071807861328,0.009998966217041015,None,None,None,None,None,None,None,None,None,None,None,None
Cible,5158.82,0.03540561676025391,-0.01978265190124512,0.009997274398803711,None,None,None,None,None,None,None,None,None,None,None,None
Cible,5158.84,0.03539593887329102,-0.019784187316894533,0.010007904052734376,None,None,None,None,None,None,None,None,None,None,None,None
Cible,5158.86,0.035386756896972654,-0.0197840690612793,0.009993776321411133,None,None,None,None,None,None,None,None,None,None,None,None
Cible,5158.88,0.03539496231079101,-0.019785758972167968,0.010009475708007812,None,None,None,None,None,None,None,None,None,None,None,None
Cible,5158.9,0.035387832641601565,-0.019785306930541993,0.009990406036376954,None,None,None,None,None,None,None,None,None,None,None,None
Cible,5158.92,0.035385662078857426,-0.019771625518798828,0.009991355895996094,None,None,None,None,None,None,None,None,None,None,None,None
Cible,5158.94,0.03539448547363281,-0.01976545333862305,0.010002019882202149,None,None,None,None,None,None,None,None,None,None,None,None
Cible,5158.96,0.03539311218261719,-0.019787588119506837,0.010013769149780274,None,None,None,None,None,None,None,None,None,None,None,None
Cible,5158.98,0.03539045333862305,-0.0197792911529541,0.009996514320373535,None,None,None,None,None,None,None,None,None,None,None,None
Cible,5159.0,0.03539300918579102,-0.019782936096191406,0.010014762878417969,None,None,None,None,None,None,None,None,None,None,None,None
Cible,5159.0199999999995,0.03538405227661133,-0.0197885684967041,0.009998191833496093,None,None,None,None,None,None,None,None,None,None,None,None
Cible,5159.04,0.035388160705566406,-0.019784820556640624,0.009986814498901368,None,None,None,None,None,None,None,None,None,None,None,None
Cible,5159.0599999999995,0.035400630950927735,-0.01978434181213379,0.009988862037658692,None,None,None,None,None,None,None,None,None,None,None,None
Cible,5159.08,0.03538116073608399,-0.019789525985717774,0.01000464916229248,None,None,None,None,None,None,None,None,None,None,None,None
Cible,5159.099999999999,0.035389705657958986,-0.019779094696044924,0.009979297637939453,None,None,None,None,None,None,None,None,None,None,None,None
Cible,5159.12,0.035401405334472655,-0.019784934997558595,0.010001543045043946,None,None,None,None,None,None,None,None,None,None,None,None
Cible,5159.139999999999,0.03539384841918945,-0.019786806106567384,0.010008821487426758,None,None,None,None,None,None,None,None,None,None,None,None
Cible,5159.16,0.03540118789672852,-0.01978506088256836,0.010009533882141113,None,None,None,None,None,None,None,None,None,None,None,None
Cible,5159.179999999999,0.03539467239379883,-0.01976568031311035,0.00999977970123291,None,None,None,None,None,None,None,None,None,None,None,None
Cible,5159.2,0.03539685440063477,-0.01978131675720215,0.010019206047058105,None,None,None,None,None,None,None,None,None,None,None,None
Cible,5159.219999999999,0.035385971069335935,-0.019789003372192384,0.009998666763305665,None,None,None,None,None,None,None,None,None,None,None,None
Cible,5159.24,0.035395790100097656,-0.01976420783996582,0.009985523223876953,None,None,None,None,None,None,None,None,None,None,None,None
Cible,5159.26,0.03538530349731445,-0.019788537979125977,0.009996065139770508,None,None,None,None,None,None,None,None,None,None,None,None
Cible,5159.28,0.035385135650634766,-0.019785505294799804,0.009982185363769531,None,None,None,None,None,None,None,None,None,None,None,None
Cible,5159.3,0.03537225341796875,-0.01979075813293457,0.009981767654418945,None,None,None,None,None,None,None,None,None,None,None,None
Cible,5159.32,0.035385665893554685,-0.019781238555908204,0.00998276710510254,None,None,None,None,None,None,None,None,None,None,None,None
Cible,5159.34,0.035379276275634766,-0.01979308319091797,0.009999203681945802,None,None,None,None,None,None,None,None,None,None,None,None
Cible,5159.36,0.03538038635253906,-0.01979194450378418,0.009997278213500977,None,None,None,None,None,None,None,None,None,None,None,None
Cible,5159.38,0.0353901481628418,-0.01980801773071289,0.010024092674255372,None,None,None,None,None,None,None,None,None,None,None,None
Cible,5159.4,0.035397476196289065,-0.01978934669494629,0.01001072883605957,None,None,None,None,None,None,None,None,None,None,None,None
Cible,5159.42,0.035391757965087894,-0.019781497955322264,0.010009634971618652,None,None,None,None,None,None,None,None,None,None,None,None
Cible,5159.44,0.035398170471191405,-0.01977787971496582,0.010006715774536133,None,None,None,None,None,None,None,None,None,None,None,None
Cible,5159.46,0.035393142700195314,-0.019790225982666016,0.010013074874877929,None,None,None,None,None,None,None,None,None,None,None,None
Cible,5159.48,0.0353895378112793,-0.019790182113647463,0.010014742851257325,None,None,None,None,None,None,None,None,None,None,None,None
Cible,5159.5,0.03539398956298828,-0.019791479110717772,0.010024140357971192,None,None,None,None,None,None,None,None,None,None,None,None
Cible,5159.5199999999995,0.03539507293701172,-0.019787569046020508,0.010012145042419434,None,None,None,None,None,None,None,None,None,None,None,None
Cible,5159.54,0.035387809753417966,-0.019786399841308595,0.009982394218444825,None,None,None,None,None,None,None,None,None,None,None,None
Cible,5159.5599999999995,0.03539086151123047,-0.019794471740722658,0.0100152587890625,None,None,None,None,None,None,None,None,None,None,None,None
Cible,5159.58,0.03538058090209961,-0.019783210754394532,0.009998494148254395,None,None,None,None,None,None,None,None,None,None,None,None
Cible,5159.599999999999,0.03539250183105469,-0.01978719139099121,0.010010664939880372,None,None,None,None,None,None,None,None,None,None,None,None
Cible,5159.62,0.035393325805664066,-0.019771486282348632,0.010009771347045898,None,None,None,None,None,None,None,None,None,None,None,None
Cible,5159.639999999999,0.03539328002929688,-0.019786733627319336,0.010016197204589844,None,None,None,None,None,None,None,None,None,None,None,None
Cible,5159.66,0.03539876174926758,-0.019787721633911133,0.010004382133483886,None,None,None,None,None,None,None,None,None,None,None,None
Cible,5159.679999999999,0.03538677215576172,-0.019784765243530275,0.00999225902557373,None,None,None,None,None,None,None,None,None,None,None,None
Cible,5159.7,0.0353768196105957,-0.01979405975341797,0.010004256248474121,None,None,None,None,None,None,None,None,None,None,None,None
Cible,5159.719999999999,0.03538386917114258,-0.019787256240844726,0.009991153717041016,None,None,None,None,None,None,None,None,None,None,None,None
Cible,5159.74,0.03540099716186523,-0.019782690048217772,0.009999736785888672,None,None,None,None,None,None,None,None,None,None,None,None
Cible,5159.76,0.03538345336914062,-0.019789989471435548,0.00999087905883789,None,None,None,None,None,None,None,None,None,None,None,None
Cible,5159.78,0.03539598083496094,-0.019784217834472657,0.010006422996520997,None,None,None,None,None,None,None,None,None,None,None,None
Cible,5159.8,0.03538744354248047,-0.019787965774536134,0.009992931365966797,None,None,None,None,None,None,None,None,None,None,None,None
Cible,5159.82,0.0353935546875,-0.01978400421142578,0.010001507759094239,None,None,None,None,None,None,None,None,None,None,None,None
Cible,5159.84,0.035381141662597655,-0.01979054832458496,0.009995299339294434,None,None,None,None,None,None,None,None,None,None,None,None
Cible,5159.86,0.035389122009277345,-0.01978199577331543,0.009993154525756836,None,None,None,None,None,None,None,None,None,None,None,None
Cible,5159.88,0.035392135620117185,-0.01978684616088867,0.010012051582336427,None,None,None,None,None,None,None,None,None,None,None,None
Cible,5159.9,0.035393211364746095,-0.01978453254699707,0.01000963306427002,None,None,None,None,None,None,None,None,None,None,None,None
Cible,5159.92,0.03538733291625976,-0.019764514923095704,0.010010273933410644,None,None,None,None,None,None,None,None,None,None,None,None
Cible,5159.94,0.035388206481933596,-0.019781774520874023,0.009990047454833985,None,None,None,None,None,None,None,None,None,None,None,None
Cible,5159.96,0.0353911247253418,-0.019781835556030275,0.009979812622070313,None,None,None,None,None,None,None,None,None,None,None,None
Cible,5159.98,0.035384246826171875,-0.019786211013793947,0.009993523597717286,None,None,None,None,None,None,None,None,None,None,None,None
Cible,5160.0,0.035388561248779295,-0.019793413162231446,0.01000486946105957,None,None,None,None,None,None,None,None,None,None,None,None
Cible,5160.0199999999995,0.03537372970581055,-0.019787309646606445,0.00999481201171875,None,None,None,None,None,None,None,None,None,None,None,None
Cible,5160.04,0.03539218902587891,-0.01978975296020508,0.010008655548095702,None,None,None,None,None,None,None,None,None,None,None,None
Cible,5160.0599999999995,0.03538119506835938,-0.019789539337158202,0.009997175216674805,None,None,None,None,None,None,None,None,None,None,None,None
Cible,5160.08,0.035390434265136717,-0.019788000106811525,0.009990131378173828,None,None,None,None,None,None,None,None,None,None,None,None
Cible,5160.099999999999,0.0353944091796875,-0.01978546142578125,0.010010629653930665,None,None,None,None,None,None,None,None,None,None,None,None
Cible,5160.12,0.03539346694946289,-0.019782184600830078,0.010018230438232422,None,None,None,None,None,None,None,None,None,None,None,None
Cible,5160.139999999999,0.03537913131713867,-0.01977868461608887,0.010003974914550781,None,None,None,None,None,None,None,None,None,None,None,None
Cible,5160.16,0.03539176559448242,-0.01979121208190918,0.010013546943664551,None,None,None,None,None,None,None,None,None,None,None,None
Cible,5160.179999999999,0.03538629531860352,-0.01979067611694336,0.010003934860229493,None,None,None,None,None,None,None,None,None,None,None,None
Cible,5160.2,0.03539133834838867,-0.01978998565673828,0.010017196655273437,None,None,None,None,None,None,None,None,None,None,None,None
Cible,5160.219999999999,0.035375911712646486,-0.0197928409576416,0.009993192672729492,None,None,None,None,None,None,None,None,None,None,None,None
Cible,5160.24,0.03538967514038086,-0.01977140426635742,0.01000810432434082,None,None,None,None,None,None,None,None,None,None,None,None
Cible,5160.26,0.035384727478027345,-0.019759977340698242,0.01000431251525879,None,None,None,None,None,None,None,None,None,None,None,None
Cible,5160.28,0.03538050079345703,-0.019783143997192384,0.00998867702484131,None,None,None,None,None,None,None,None,None,None,None,None
Cible,5160.3,0.03539521026611328,-0.019783832550048827,0.010002908706665039,None,None,None,None,None,None,None,None,None,None,None,None
Cible,5160.32,0.03537715148925781,-0.019784481048583984,0.010005311012268066,None,None,None,None,None,None,None,None,None,None,None,None
Cible,5160.34,0.03539650344848633,-0.019789493560791016,0.010001080513000488,None,None,None,None,None,None,None,None,None,None,None,None
Cible,5160.36,0.03538217926025391,-0.019789648056030274,0.009995429992675782,None,None,None,None,None,None,None,None,None,None,None,None
Cible,5160.38,0.03537538909912109,-0.019792165756225586,0.00999036979675293,None,None,None,None,None,None,None,None,None,None,None,None
Cible,5160.4,0.03538029098510742,-0.019782489776611328,0.00999645709991455,None,None,None,None,None,None,None,None,None,None,None,None
Cible,5160.42,0.035380813598632814,-0.01978564453125,0.009997079849243164,None,None,None,None,None,None,None,None,None,None,None,None
Cible,5160.44,0.03539044189453125,-0.01978495216369629,0.009986415863037109,None,None,None,None,None,None,None,None,None,None,None,None
Cible,5160.46,0.035384471893310544,-0.019787282943725587,0.00997854995727539,None,None,None,None,None,None,None,None,None,None,None,None
Cible,5160.48,0.035394756317138676,-0.019783796310424807,0.010003649711608886,None,None,None,None,None,None,None,None,None,None,None,None
Cible,5160.5,0.03538294982910156,-0.01979182243347168,0.009996128082275391,None,None,None,None,None,None,None,None,None,None,None,None
Cible,5160.5199999999995,0.03539310073852539,-0.01978746223449707,0.00998721694946289,None,None,None,None,None,None,None,None,None,None,None,None
Cible,5160.54,0.03537370300292969,-0.0197956600189209,0.010006131172180176,None,None,None,None,None,None,None,None,None,None,None,None
Cible,5160.5599999999995,0.035385288238525395,-0.01978208923339844,0.01000786018371582,None,None,None,None,None,None,None,None,None,None,None,None
Cible,5160.58,0.035393974304199216,-0.01978386116027832,0.01000309658050537,None,None,None,None,None,None,None,None,None,None,None,None
Cible,5160.599999999999,0.035388816833496095,-0.019807044982910155,0.00999601936340332,None,None,None,None,None,None,None,None,None,None,None,None
Cible,5160.62,0.03539962387084961,-0.01978338432312012,0.00999926471710205,None,None,None,None,None,None,None,None,None,None,None,None
Cible,5160.639999999999,0.035397266387939455,-0.01976824951171875,0.010002187728881836,None,None,None,None,None,None,None,None,None,None,None,None
Cible,5160.66,0.03539380264282227,-0.01976441955566406,0.01001054859161377,None,None,None,None,None,None,None,None,None,None,None,None
Cible,5160.679999999999,0.03538612747192383,-0.019783361434936524,0.009993942260742187,None,None,None,None,None,None,None,None,None,None,None,None
Cible,5160.7,0.03538105392456055,-0.019775650024414063,0.009992069244384765,None,None,None,None,None,None,None,None,None,None,None,None
Cible,5160.719999999999,0.03539127349853516,-0.019788610458374024,0.00998750400543213,None,None,None,None,None,None,None,None,None,None,None,None
Cible,5160.74,0.03538190460205078,-0.019789415359497072,0.00999659824371338,None,None,None,None,None,None,None,None,None,None,None,None
Cible,5160.76,0.035398330688476566,-0.019782382965087893,0.010000629425048828,None,None,None,None,None,None,None,None,None,None,None,None
Cible,5160.78,0.035381572723388675,-0.019793800354003906,0.010001626014709473,None,None,None,None,None,None,None,None,None,None,None,None
Cible,5160.8,0.03537760925292969,-0.019791236877441408,0.010007172584533692,None,None,None,None,None,None,None,None,None,None,None,None
Cible,5160.82,0.03539663314819336,-0.019780261993408203,0.010004879951477051,None,None,None,None,None,None,None,None,None,None,None,None
Cible,5160.84,0.03539191818237305,-0.01978369903564453,0.010018146514892579,None,None,None,None,None,None,None,None,None,None,None,None
Cible,5160.86,0.035396526336669926,-0.019789758682250976,0.009996455192565918,None,None,None,None,None,None,None,None,None,None,None,None
Cible,5160.88,0.035390186309814456,-0.01978294372558594,0.009987272262573243,None,None,None,None,None,None,None,None,None,None,None,None
Cible,5160.9,0.03538323593139649,-0.019782260894775392,0.009990330696105958,None,None,None,None,None,None,None,None,None,None,None,None
Cible,5160.92,0.03539645385742188,-0.01978316879272461,0.009996928215026856,None,None,None,None,None,None,None,None,None,None,None,None
Cible,5160.94,0.035398334503173826,-0.01978977394104004,0.010006190299987793,None,None,None,None,None,None,None,None,None,None,None,None
Cible,5160.96,0.03539503479003906,-0.019765565872192383,0.010000968933105469,None,None,None,None,None,None,None,None,None,None,None,None
Cible,5160.98,0.03539566421508789,-0.01977920150756836,0.010008885383605956,None,None,None,None,None,None,None,None,None,None,None,None
Cible,5161.0,0.03537503051757813,-0.019780628204345705,0.01000424575805664,None,None,None,None,None,None,None,None,None,None,None,None
Cible,5161.0199999999995,0.03538578414916992,-0.01978764343261719,0.009992550849914551,None,None,None,None,None,None,None,None,None,None,None,None
Cible,5161.04,0.035391536712646485,-0.019789117813110352,0.01001134490966797,None,None,None,None,None,None,None,None,None,None,None,None
Cible,5161.0599999999995,0.03538434600830078,-0.01976811981201172,0.009989622116088868,None,None,None,None,None,None,None,None,None,None,None,None
Cible,5161.08,0.03538311767578125,-0.01978883171081543,0.009994410514831542,None,None,None,None,None,None,None,None,None,None,None,None
Cible,5161.099999999999,0.035396221160888676,-0.019766117095947267,0.010000255584716797,None,None,None,None,None,None,None,None,None,None,None,None
Cible,5161.12,0.035383285522460936,-0.019789314270019533,0.009983087539672851,None,None,None,None,None,None,None,None,None,None,None,None
Cible,5161.139999999999,0.03538869094848633,-0.019786420822143554,0.009975725173950196,None,None,None,None,None,None,None,None,None,None,None,None
Cible,5161.16,0.03538436889648438,-0.019790740966796876,0.009992119789123535,None,None,None,None,None,None,None,None,None,None,None,None
Cible,5161.179999999999,0.03538701629638672,-0.019789676666259765,0.010014978408813477,None,None,None,None,None,None,None,None,None,None,None,None
Cible,5161.2,0.03538916397094727,-0.019785303115844727,0.010018035888671875,None,None,None,None,None,None,None,None,None,None,None,None
Cible,5161.219999999999,0.03539590454101563,-0.019786022186279298,0.010008474349975587,None,None,None,None,None,None,None,None,None,None,None,None
Cible,5161.24,0.03539085006713867,-0.019770477294921877,0.010013480186462403,None,None,None,None,None,None,None,None,None,None,None,None
Cible,5161.26,0.035390670776367185,-0.019789377212524415,0.010002350807189942,None,None,None,None,None,None,None,None,None,None,None,None
Cible,5161.28,0.03539225769042969,-0.01978705024719238,0.010015559196472169,None,None,None,None,None,None,None,None,None,None,None,None
Cible,5161.3,0.035389698028564454,-0.01978122138977051,0.010010775566101075,None,None,None,None,None,None,None,None,None,None,None,None
Cible,5161.32,0.035376289367675784,-0.019788759231567383,0.010006988525390625,None,None,None,None,None,None,None,None,None,None,None,None
Cible,5161.34,0.03538142013549805,-0.01978923225402832,0.009986500740051269,None,None,None,None,None,None,None,None,None,None,None,None
Cible,5161.36,0.03538246154785157,-0.019790424346923827,0.009993408203125,None,None,None,None,None,None,None,None,None,None,None,None
Cible,5161.38,0.03539123916625977,-0.01978807067871094,0.01001215648651123,None,None,None,None,None,None,None,None,None,None,None,None
Cible,5161.4,0.035382041931152346,-0.019789972305297852,0.010004122734069825,None,None,None,None,None,None,None,None,None,None,None,None
Cible,5161.42,0.035384693145751954,-0.019791213989257813,0.009998393058776856,None,None,None,None,None,None,None,None,None,None,None,None
Cible,5161.44,0.03537854385375977,-0.019792451858520507,0.010002069473266602,None,None,None,None,None,None,None,None,None,None,None,None
Cible,5161.46,0.035389007568359374,-0.019783740997314454,0.010013988494873047,None,None,None,None,None,None,None,None,None,None,None,None
Cible,5161.48,0.035395030975341794,-0.01978534698486328,0.01000659465789795,None,None,None,None,None,None,None,None,None,None,None,None
Cible,5161.5,0.03538401031494141,-0.019785249710083008,0.009990527153015136,None,None,None,None,None,None,None,None,None,None,None,None
Cible,5161.5199999999995,0.03538216400146484,-0.01979409408569336,0.009989675521850587,None,None,None,None,None,None,None,None,None,None,None,None
Cible,5161.54,0.03537670516967774,-0.019788928985595703,0.01000070095062256,None,None,None,None,None,None,None,None,None,None,None,None
Cible,5161.5599999999995,0.03538771820068359,-0.01978581428527832,0.010011868476867676,None,None,None,None,None,None,None,None,None,None,None,None
Cible,5161.58,0.035396774291992186,-0.019785797119140625,0.010001893043518067,None,None,None,None,None,None,None,None,None,None,None,None
Cible,5161.599999999999,0.03537993621826172,-0.019792867660522462,0.009998851776123047,None,None,None,None,None,None,None,None,None,None,None,None
Cible,5161.62,0.035384925842285156,-0.019789304733276367,0.00999213695526123,None,None,None,None,None,None,None,None,None,None,None,None
Cible,5161.639999999999,0.035394653320312504,-0.019783010482788087,0.010006105422973633,None,None,None,None,None,None,None,None,None,None,None,None
Cible,5161.66,0.03539572906494141,-0.019787158966064453,0.010008768081665039,None,None,None,None,None,None,None,None,None,None,None,None
Cible,5161.679999999999,0.03539209365844727,-0.019780906677246093,0.010008190155029297,None,None,None,None,None,None,None,None,None,None,None,None
Cible,5161.7,0.0353815803527832,-0.01977907752990723,0.0100024471282959,None,None,None,None,None,None,None,None,None,None,None,None
Cible,5161.719999999999,0.035381458282470704,-0.019788997650146484,0.009997736930847169,None,None,None,None,None,None,None,None,None,None,None,None
Cible,5161.74,0.035390480041503906,-0.019768917083740234,0.010006821632385254,None,None,None,None,None,None,None,None,None,None,None,None
Cible,5161.76,0.03538423919677734,-0.019783632278442383,0.009992414474487305,None,None,None,None,None,None,None,None,None,None,None,None
Cible,5161.78,0.035403160095214846,-0.019789384841918944,0.010002322196960449,None,None,None,None,None,None,None,None,None,None,None,None
Cible,5161.8,0.03539564514160156,-0.019764997482299804,0.010001022338867188,None,None,None,None,None,None,None,None,None,None,None,None
Cible,5161.82,0.035393035888671875,-0.019767108917236327,0.010010358810424804,None,None,None,None,None,None,None,None,None,None,None,None
Cible,5161.84,0.03538410949707031,-0.01978366470336914,0.010017416000366212,None,None,None,None,None,None,None,None,None,None,None,None
Cible,5161.86,0.035376953125,-0.0197918701171875,0.009993023872375488,None,None,None,None,None,None,None,None,None,None,None,None
Cible,5161.88,0.035395931243896485,-0.019785688400268554,0.010005033493041993,None,None,None,None,None,None,None,None,None,None,None,None
Cible,5161.9,0.03538431930541992,-0.01979112434387207,0.009997931480407715,None,None,None,None,None,None,None,None,None,None,None,None
Cible,5161.92,0.03539703750610352,-0.019787607192993165,0.010005026817321778,None,None,None,None,None,None,None,None,None,None,None,None
Cible,5161.94,0.03539426040649414,-0.01978351402282715,0.01000653076171875,None,None,None,None,None,None,None,None,None,None,None,None
Cible,5161.96,0.0353980712890625,-0.01978820037841797,0.009997139930725098,None,None,None,None,None,None,None,None,None,None,None,None
Cible,5161.98,0.03538534164428711,-0.019788934707641603,0.009993676185607911,None,None,None,None,None,None,None,None,None,None,None,None
Cible,5162.0,0.035391792297363285,-0.01979135322570801,0.01001322841644287,None,None,None,None,None,None,None,None,None,None,None,None
Cible,5162.0199999999995,0.035398193359375,-0.019782955169677735,0.010001255035400392,None,None,None,None,None,None,None,None,None,None,None,None
Cible,5162.04,0.03539529418945313,-0.019794824600219727,0.010004536628723144,None,None,None,None,None,None,None,None,None,None,None,None
Cible,5162.0599999999995,0.03538718414306641,-0.01978982925415039,0.01001350212097168,None,None,None,None,None,None,None,None,None,None,None,None
Cible,5162.08,0.035385631561279295,-0.0197889461517334,0.009990198135375977,None,None,None,None,None,None,None,None,None,None,None,None
Cible,5162.099999999999,0.035384597778320315,-0.019785179138183593,0.00999138069152832,None,None,None,None,None,None,None,None,None,None,None,None
Cible,5162.12,0.035381973266601564,-0.019786165237426757,0.009986357688903809,None,None,None,None,None,None,None,None,None,None,None,None
Cible,5162.139999999999,0.03537520599365235,-0.01979036903381348,0.010030844688415528,None,None,None,None,None,None,None,None,None,None,None,None
Cible,5162.16,0.03539056777954102,-0.01976910400390625,0.01000759506225586,None,None,None,None,None,None,None,None,None,None,None,None
Cible,5162.179999999999,0.03538352584838867,-0.01978375244140625,0.00999757957458496,None,None,None,None,None,None,None,None,None,None,None,None
Cible,5162.2,0.03539456939697266,-0.019784944534301758,0.009996919631958008,None,None,None,None,None,None,None,None,None,None,None,None
Cible,5162.219999999999,0.0353791389465332,-0.019793382644653322,0.010002717971801758,None,None,None,None,None,None,None,None,None,None,None,None
Cible,5162.24,0.03538048934936523,-0.01979339599609375,0.009989822387695312,None,None,None,None,None,None,None,None,None,None,None,None
Cible,5162.26,0.035387725830078126,-0.019768156051635743,0.010004642486572266,None,None,None,None,None,None,None,None,None,None,None,None
Cible,5162.28,0.03537358474731445,-0.019793540954589843,0.009988642692565919,None,None,None,None,None,None,None,None,None,None,None,None
Cible,5162.3,0.035391853332519534,-0.019764459609985352,0.010000192642211914,None,None,None,None,None,None,None,None,None,None,None,None
Cible,5162.32,0.035379371643066405,-0.019795047760009767,0.009996857643127442,None,None,None,None,None,None,None,None,None,None,None,None
Cible,5162.34,0.03539575958251953,-0.019791492462158205,0.010007837295532227,None,None,None,None,None,None,None,None,None,None,None,None
Cible,5162.36,0.035385322570800785,-0.01978664779663086,0.009980707168579102,None,None,None,None,None,None,None,None,None,None,None,None
Cible,5162.38,0.035387306213378905,-0.019794866561889647,0.010014910697937012,None,None,None,None,None,None,None,None,None,None,None,None
Cible,5162.4,0.035391830444335935,-0.019789939880371095,0.010012548446655273,None,None,None,None,None,None,None,None,None,None,None,None
Cible,5162.42,0.03537615203857422,-0.01979780960083008,0.00999496078491211,None,None,None,None,None,None,None,None,None,None,None,None
Cible,5162.44,0.035383216857910155,-0.01979384231567383,0.01001818084716797,None,None,None,None,None,None,None,None,None,None,None,None
Cible,5162.46,0.03539008712768555,-0.01979404067993164,0.01000518035888672,None,None,None,None,None,None,None,None,None,None,None,None
Cible,5162.48,0.03538512420654297,-0.01978823471069336,0.009987565040588378,None,None,None,None,None,None,None,None,None,None,None,None
Cible,5162.5,0.035393962860107424,-0.01979190254211426,0.009987390518188477,None,None,None,None,None,None,None,None,None,None,None,None
Cible,5162.5199999999995,0.03538523483276367,-0.01978778839111328,0.009986271858215332,None,None,None,None,None,None,None,None,None,None,None,None
Cible,5162.54,0.0353924560546875,-0.019790979385375978,0.010011942863464355,None,None,None,None,None,None,None,None,None,None,None,None
Cible,5162.5599999999995,0.035384574890136716,-0.019768226623535157,0.009988866806030273,None,None,None,None,None,None,None,None,None,None,None,None
Cible,5162.58,0.03538492202758789,-0.019786344528198243,0.009993165016174317,None,None,None,None,None,None,None,None,None,None,None,None
Cible,5162.599999999999,0.035396236419677735,-0.019781333923339844,0.01000204849243164,None,None,None,None,None,None,None,None,None,None,None,None
Cible,5162.62,0.03538418579101563,-0.019786787033081055,0.00998952865600586,None,None,None,None,None,None,None,None,None,None,None,None
Cible,5162.639999999999,0.03538467025756836,-0.019792253494262696,0.009980422973632812,None,None,None,None,None,None,None,None,None,None,None,None
Cible,5162.66,0.03540027236938477,-0.019783573150634767,0.010001304626464844,None,None,None,None,None,None,None,None,None,None,None,None
Cible,5162.679999999999,0.03538106155395508,-0.019788122177124026,0.009993247032165527,None,None,None,None,None,None,None,None,None,None,None,None
Cible,5162.7,0.035384326934814456,-0.019788272857666017,0.009988567352294923,None,None,None,None,None,None,None,None,None,None,None,None
Cible,5162.719999999999,0.03539554214477539,-0.01978505325317383,0.010005800247192383,None,None,None,None,None,None,None,None,None,None,None,None
Cible,5162.74,0.03538791275024414,-0.019783353805541994,0.009993136405944824,None,None,None,None,None,None,None,None,None,None,None,None
Cible,5162.76,0.035381198883056644,-0.019790273666381836,0.01000150203704834,None,None,None,None,None,None,None,None,None,None,None,None
Cible,5162.78,0.03538451385498047,-0.0197855281829834,0.009989093780517579,None,None,None,None,None,None,None,None,None,None,None,None
Cible,5162.8,0.035396484375,-0.01978506660461426,0.010003714561462403,None,None,None,None,None,None,None,None,None,None,None,None
Cible,5162.82,0.03539630126953125,-0.019786449432373048,0.010004667282104493,None,None,None,None,None,None,None,None,None,None,None,None
Cible,5162.84,0.03537477111816406,-0.019792741775512695,0.010003315925598145,None,None,None,None,None,None,None,None,None,None,None,None
Cible,5162.86,0.0353909912109375,-0.019787004470825195,0.010008442878723144,None,None,None,None,None,None,None,None,None,None,None,None
Cible,5162.88,0.035385791778564456,-0.01976534080505371,0.00998361587524414,None,None,None,None,None,None,None,None,None,None,None,None
Cible,5162.9,0.035389896392822265,-0.019788578033447267,0.010012360572814941,None,None,None,None,None,None,None,None,None,None,None,None
Cible,5162.92,0.035382511138916016,-0.019806610107421876,0.00999715232849121,None,None,None,None,None,None,None,None,None,None,None,None
Cible,5162.94,0.03537923431396484,-0.019791255950927737,0.009995999336242676,None,None,None,None,None,None,None,None,None,None,None,None
Cible,5162.96,0.035380611419677736,-0.019793382644653322,0.00999033546447754,None,None,None,None,None,None,None,None,None,None,None,None
Cible,5162.98,0.03538238525390625,-0.01978921318054199,0.009991568565368652,None,None,None,None,None,None,None,None,None,None,None,None
Cible,5163.0,0.03539099884033203,-0.0197922306060791,0.010000774383544922,None,None,None,None,None,None,None,None,None,None,None,None
Cible,5163.0199999999995,0.035387001037597655,-0.01978737258911133,0.010021108627319336,None,None,None,None,None,None,None,None,None,None,None,None
Cible,5163.04,0.03538618469238281,-0.019763593673706056,0.009982428550720216,None,None,None,None,None,None,None,None,None,None,None,None
Cible,5163.0599999999995,0.03538021087646485,-0.019807790756225588,0.0099995174407959,None,None,None,None,None,None,None,None,None,None,None,None
Cible,5163.08,0.03537397384643555,-0.019788408279418947,0.01000222110748291,None,None,None,None,None,None,None,None,None,None,None,None
Cible,5163.099999999999,0.03539127349853516,-0.019789794921875,0.010010735511779785,None,None,None,None,None,None,None,None,None,None,None,None
Cible,5163.12,0.03540087127685547,-0.019780370712280275,0.010000181198120118,None,None,None,None,None,None,None,None,None,None,None,None
Cible,5163.139999999999,0.03538516998291016,-0.019787059783935548,0.009991866111755371,None,None,None,None,None,None,None,None,None,None,None,None
Cible,5163.16,0.03537696075439453,-0.019783929824829103,0.009986005783081054,None,None,None,None,None,None,None,None,None,None,None,None
Cible,5163.179999999999,0.03538939666748047,-0.019791555404663087,0.01001381778717041,None,None,None,None,None,None,None,None,None,None,None,None
Cible,5163.2,0.035381198883056644,-0.019791027069091797,0.009998603820800782,None,None,None,None,None,None,None,None,None,None,None,None
Cible,5163.219999999999,0.03537475967407227,-0.019790040969848634,0.010003701210021972,None,None,None,None,None,None,None,None,None,None,None,None
Cible,5163.24,0.03538800048828125,-0.019790201187133788,0.009991764068603515,None,None,None,None,None,None,None,None,None,None,None,None
Cible,5163.26,0.03539687728881836,-0.019763675689697266,0.009994361877441406,None,None,None,None,None,None,None,None,None,None,None,None
Cible,5163.28,0.035382568359375,-0.01977944564819336,0.009993875503540039,None,None,None,None,None,None,None,None,None,None,None,None
Cible,5163.3,0.03538531494140625,-0.019763544082641603,0.009981646537780761,None,None,None,None,None,None,None,None,None,None,None,None
Cible,5163.32,0.035395027160644535,-0.0197839412689209,0.010005135536193848,None,None,None,None,None,None,None,None,None,None,None,None
Cible,5163.34,0.035396881103515625,-0.019781572341918945,0.010002970695495605,None,None,None,None,None,None,None,None,None,None,None,None
Cible,5163.36,0.03537355041503906,-0.019785802841186525,0.01001728343963623,None,None,None,None,None,None,None,None,None,None,None,None
Cible,5163.38,0.03539667510986328,-0.01978675079345703,0.009984204292297363,None,None,None,None,None,None,None,None,None,None,None,None
Cible,5163.4,0.035397384643554686,-0.01976458740234375,0.009996627807617188,None,None,None,None,None,None,None,None,None,None,None,None
Cible,5163.42,0.03539881896972656,-0.019776811599731447,0.010000971794128418,None,None,None,None,None,None,None,None,None,None,None,None
Cible,5163.44,0.03539275360107422,-0.019755569458007813,0.010013992309570313,None,None,None,None,None,None,None,None,None,None,None,None
Cible,5163.46,0.03539286422729492,-0.0197877197265625,0.009989482879638672,None,None,None,None,None,None,None,None,None,None,None,None
Cible,5163.48,0.03538483810424805,-0.019783329010009766,0.009998555183410645,None,None,None,None,None,None,None,None,None,None,None,None
Cible,5163.5,0.035381690979003906,-0.019788482666015624,0.00999260139465332,None,None,None,None,None,None,None,None,None,None,None,None
Cible,5163.5199999999995,0.03538063430786133,-0.019795631408691408,0.00999022102355957,None,None,None,None,None,None,None,None,None,None,None,None
Cible,5163.54,0.03538700866699219,-0.019787792205810548,0.0099905424118042,None,None,None,None,None,None,None,None,None,None,None,None
Cible,5163.5599999999995,0.03538565063476563,-0.01978581428527832,0.009989032745361328,None,None,None,None,None,None,None,None,None,None,None,None
Cible,5163.58,0.035398460388183596,-0.019783153533935546,0.00998966121673584,None,None,None,None,None,None,None,None,None,None,None,None
Cible,5163.599999999999,0.03540169143676758,-0.019756772994995116,0.00998631763458252,None,None,None,None,None,None,None,None,None,None,None,None
Cible,5163.62,0.03539224243164062,-0.019784860610961914,0.010005048751831055,None,None,None,None,None,None,None,None,None,None,None,None
Cible,5163.639999999999,0.03538071060180664,-0.019770360946655272,0.009993800163269043,None,None,None,None,None,None,None,None,None,None,None,None
Cible,5163.66,0.03538145446777344,-0.01978753662109375,0.009995234489440919,None,None,None,None,None,None,None,None,None,None,None,None
Cible,5163.679999999999,0.03538542556762695,-0.019783002853393555,0.009990732192993164,None,None,None,None,None,None,None,None,None,None,None,None
Cible,5163.7,0.03539223098754883,-0.01978778266906738,0.010005849838256836,None,None,None,None,None,None,None,None,None,None,None,None
Cible,5163.719999999999,0.035392120361328126,-0.01978840446472168,0.010010441780090333,None,None,None,None,None,None,None,None,None,None,None,None
Cible,5163.74,0.035396526336669926,-0.019783546447753906,0.010011171340942383,None,None,None,None,None,None,None,None,None,None,None,None
Cible,5163.76,0.03538393402099609,-0.019788864135742188,0.010001961708068849,None,None,None,None,None,None,None,None,None,None,None,None
Cible,5163.78,0.035380226135253906,-0.019786266326904296,0.009999073028564454,None,None,None,None,None,None,None,None,None,None,None,None
Cible,5163.8,0.03538314437866211,-0.019787281036376954,0.009995744705200196,None,None,None,None,None,None,None,None,None,None,None,None
Cible,5163.82,0.03538652801513672,-0.019798404693603517,0.00999897861480713,None,None,None,None,None,None,None,None,None,None,None,None
Cible,5163.84,0.03538047027587891,-0.019791257858276366,0.009988702774047852,None,None,None,None,None,None,None,None,None,None,None,None
Cible,5163.86,0.035385021209716795,-0.019782787322998048,0.009992918014526368,None,None,None,None,None,None,None,None,None,None,None,None
Cible,5163.88,0.03539554977416992,-0.019781400680541992,0.009991119384765625,None,None,None,None,None,None,None,None,None,None,None,None
Cible,5163.9,0.03538399124145508,-0.01978924369812012,0.009994746208190918,None,None,None,None,None,None,None,None,None,None,None,None
Cible,5163.92,0.03538494873046875,-0.019787750244140624,0.009991621971130371,None,None,None,None,None,None,None,None,None,None,None,None
Cible,5163.94,0.035393436431884764,-0.019767616271972658,0.00999996280670166,None,None,None,None,None,None,None,None,None,None,None,None
Cible,5163.96,0.03539432907104492,-0.019767244338989257,0.009993188858032227,None,None,None,None,None,None,None,None,None,None,None,None
Cible,5163.98,0.03538992309570312,-0.01977317428588867,0.010008700370788574,None,None,None,None,None,None,None,None,None,None,None,None
Cible,5164.0,0.03539326858520508,-0.019784212112426758,0.010013907432556153,None,None,None,None,None,None,None,None,None,None,None,None
Cible,5164.0199999999995,0.03539165878295898,-0.01978758430480957,0.010013651847839356,None,None,None,None,None,None,None,None,None,None,None,None
Cible,5164.04,0.03538776016235352,-0.019786718368530274,0.009991624832153321,None,None,None,None,None,None,None,None,None,None,None,None
Cible,5164.0599999999995,0.03539854049682617,-0.01975925064086914,0.009997613906860351,None,None,None,None,None,None,None,None,None,None,None,None
Cible,5164.08,0.035392391204833985,-0.019778640747070312,0.010013371467590333,None,None,None,None,None,None,None,None,None,None,None,None
Cible,5164.099999999999,0.035380672454833985,-0.019787553787231446,0.01000483798980713,None,None,None,None,None,None,None,None,None,None,None,None
Cible,5164.12,0.035376651763916016,-0.019779266357421877,0.009999125480651856,None,None,None,None,None,None,None,None,None,None,None,None
Cible,5164.139999999999,0.035380989074707034,-0.019793125152587892,0.010002959251403808,None,None,None,None,None,None,None,None,None,None,None,None
Cible,5164.16,0.035384231567382816,-0.01978369903564453,0.009990553855895996,None,None,None,None,None,None,None,None,None,None,None,None
Cible,5164.179999999999,0.035377696990966795,-0.01978253173828125,0.009996240615844728,None,None,None,None,None,None,None,None,None,None,None,None
Cible,5164.2,0.03538360595703125,-0.019789749145507813,0.010013001441955566,None,None,None,None,None,None,None,None,None,None,None,None
Cible,5164.219999999999,0.03538888931274414,-0.019790639877319337,0.010002227783203125,None,None,None,None,None,None,None,None,None,None,None,None
Cible,5164.24,0.03539128112792969,-0.01979318618774414,0.009990796089172364,None,None,None,None,None,None,None,None,None,None,None,None
Cible,5164.26,0.0353809928894043,-0.019813089370727538,0.010007020950317382,None,None,None,None,None,None,None,None,None,None,None,None
Cible,5164.28,0.03539448165893555,-0.01978821563720703,0.00999594497680664,None,None,None,None,None,None,None,None,None,None,None,None
Cible,5164.3,0.03538462448120117,-0.019786539077758788,0.00998505973815918,None,None,None,None,None,None,None,None,None,None,None,None
Cible,5164.32,0.03539464569091797,-0.01978437423706055,0.010001283645629883,None,None,None,None,None,None,None,None,None,None,None,None
Cible,5164.34,0.035382522583007815,-0.019788434982299805,0.00999538803100586,None,None,None,None,None,None,None,None,None,None,None,None
Cible,5164.36,0.03537425231933594,-0.019782323837280274,0.009993254661560058,None,None,None,None,None,None,None,None,None,None,None,None
Cible,5164.38,0.03538446426391602,-0.019787446975708008,0.009991297721862793,None,None,None,None,None,None,None,None,None,None,None,None
Cible,5164.4,0.035382713317871094,-0.019787796020507814,0.009990675926208496,None,None,None,None,None,None,None,None,None,None,None,None
Cible,5164.42,0.035381385803222656,-0.019767059326171874,0.009990852355957031,None,None,None,None,None,None,None,None,None,None,None,None
Cible,5164.44,0.035384258270263674,-0.019806013107299805,0.009997126579284667,None,None,None,None,None,None,None,None,None,None,None,None
Cible,5164.46,0.03538378524780274,-0.019785776138305664,0.009995984077453614,None,None,None,None,None,None,None,None,None,None,None,None
Cible,5164.48,0.035395286560058595,-0.01978200149536133,0.01000745677947998,None,None,None,None,None,None,None,None,None,None,None,None
Cible,5164.5,0.035383670806884766,-0.019783624649047853,0.009993873596191406,None,None,None,None,None,None,None,None,None,None,None,None
Cible,5164.5199999999995,0.035381843566894534,-0.01979123878479004,0.009997493743896484,None,None,None,None,None,None,None,None,None,None,None,None
Cible,5164.54,0.03538259506225586,-0.019790237426757812,0.00999470615386963,None,None,None,None,None,None,None,None,None,None,None,None
Cible,5164.5599999999995,0.0353861198425293,-0.019792345046997072,0.009987598419189453,None,None,None,None,None,None,None,None,None,None,None,None
Cible,5164.58,0.03537725448608398,-0.019791996002197266,0.010006049156188966,None,None,None,None,None,None,None,None,None,None,None,None
Cible,5164.599999999999,0.03539328765869141,-0.019786994934082033,0.010008601188659668,None,None,None,None,None,None,None,None,None,None,None,None
Cible,5164.62,0.035379089355468754,-0.019788789749145507,0.00999673080444336,None,None,None,None,None,None,None,None,None,None,None,None
Cible,5164.639999999999,0.03539133834838867,-0.01979203987121582,0.00998818302154541,None,None,None,None,None,None,None,None,None,None,None,None
Cible,5164.66,0.03538398361206055,-0.019789562225341797,0.010005298614501954,None,None,None,None,None,None,None,None,None,None,None,None
Cible,5164.679999999999,0.03539609146118164,-0.019784200668334962,0.010009000778198242,None,None,None,None,None,None,None,None,None,None,None,None
Cible,5164.7,0.03539062881469727,-0.019788537979125977,0.010012349128723145,None,None,None,None,None,None,None,None,None,None,None,None
Cible,5164.719999999999,0.035388557434082035,-0.01978872299194336,0.009991727828979492,None,None,None,None,None,None,None,None,None,None,None,None
Cible,5164.74,0.035396610260009766,-0.019795997619628906,0.01000931167602539,None,None,None,None,None,None,None,None,None,None,None,None
Cible,5164.76,0.035394783020019534,-0.01978963661193848,0.01000864315032959,None,None,None,None,None,None,None,None,None,None,None,None
Cible,5164.78,0.03537879180908203,-0.01979226303100586,0.010000200271606445,None,None,None,None,None,None,None,None,None,None,None,None
Cible,5164.8,0.03538231658935547,-0.01978646469116211,0.009991437911987306,None,None,None,None,None,None,None,None,None,None,None,None
Cible,5164.82,0.03537936019897461,-0.01979643249511719,0.009991710662841798,None,None,None,None,None,None,None,None,None,None,None,None
Cible,5164.84,0.03536612319946289,-0.01979294013977051,0.009982765197753906,None,None,None,None,None,None,None,None,None,None,None,None
Cible,5164.86,0.03539151382446289,-0.019790197372436525,0.010009539604187013,None,None,None,None,None,None,None,None,None,None,None,None
Cible,5164.88,0.03539218521118164,-0.019787897109985353,0.010007241249084474,None,None,None,None,None,None,None,None,None,None,None,None
Cible,5164.9,0.03537937545776367,-0.019792480468750002,0.010004188537597656,None,None,None,None,None,None,None,None,None,None,None,None
Cible,5164.92,0.03539352035522461,-0.019784002304077147,0.010005270004272461,None,None,None,None,None,None,None,None,None,None,None,None
Cible,5164.94,0.035374835968017576,-0.019787513732910156,0.01000647258758545,None,None,None,None,None,None,None,None,None,None,None,None
Cible,5164.96,0.03538091278076172,-0.01978794288635254,0.009994280815124513,None,None,None,None,None,None,None,None,None,None,None,None
Cible,5164.98,0.03539496612548828,-0.01978555679321289,0.010005731582641602,None,None,None,None,None,None,None,None,None,None,None,None
Cible,5165.0,0.03538896560668946,-0.019786035537719727,0.009990015983581544,None,None,None,None,None,None,None,None,None,None,None,None
Cible,5165.0199999999995,0.03538638687133789,-0.019790956497192383,0.010014318466186523,None,None,None,None,None,None,None,None,None,None,None,None
Cible,5165.04,0.0353970947265625,-0.019804441452026367,0.010001782417297364,None,None,None,None,None,None,None,None,None,None,None,None
Cible,5165.0599999999995,0.035381267547607426,-0.019794954299926757,0.009999773025512696,None,None,None,None,None,None,None,None,None,None,None,None
Cible,5165.08,0.035383682250976566,-0.019789125442504885,0.009998089790344238,None,None,None,None,None,None,None,None,None,None,None,None
Cible,5165.099999999999,0.03538648986816406,-0.01978681755065918,0.0099782075881958,None,None,None,None,None,None,None,None,None,None,None,None
Cible,5165.12,0.035388442993164064,-0.01979926300048828,0.009984651565551759,None,None,None,None,None,None,None,None,None,None,None,None
Cible,5165.139999999999,0.03538596343994141,-0.01976974678039551,0.009973005294799804,None,None,None,None,None,None,None,None,None,None,None,None
Cible,5165.16,0.03539228439331055,-0.01978864097595215,0.01000797176361084,None,None,None,None,None,None,None,None,None,None,None,None
Cible,5165.179999999999,0.03537691497802734,-0.01976555061340332,0.009987299919128419,None,None,None,None,None,None,None,None,None,None,None,None
Cible,5165.2,0.03539775085449219,-0.01978737449645996,0.009997894287109375,None,None,None,None,None,None,None,None,None,None,None,None
Cible,5165.219999999999,0.03539593887329102,-0.019785297393798827,0.010003344535827637,None,None,None,None,None,None,None,None,None,None,None,None
Cible,5165.24,0.035403888702392576,-0.019780889511108398,0.009993443489074707,None,None,None,None,None,None,None,None,None,None,None,None
Cible,5165.26,0.03538108825683594,-0.019789249420166015,0.009993361473083497,None,None,None,None,None,None,None,None,None,None,None,None
Cible,5165.28,0.03538156890869141,-0.019786548614501954,0.00999076747894287,None,None,None,None,None,None,None,None,None,None,None,None
Cible,5165.3,0.03537776184082031,-0.019790714263916015,0.009994306564331056,None,None,None,None,None,None,None,None,None,None,None,None
Cible,5165.32,0.03539143371582031,-0.01979107666015625,0.010012725830078124,None,None,None,None,None,None,None,None,None,None,None,None
Cible,5165.34,0.03539819717407227,-0.019786228179931642,0.010000473976135254,None,None,None,None,None,None,None,None,None,None,None,None
Cible,5165.36,0.035380496978759765,-0.019791330337524414,0.010003670692443848,None,None,None,None,None,None,None,None,None,None,None,None
Cible,5165.38,0.03538154983520508,-0.019780622482299805,0.009989473342895508,None,None,None,None,None,None,None,None,None,None,None,None
Cible,5165.4,0.035393115997314456,-0.019791719436645507,0.010000290870666504,None,None,None,None,None,None,None,None,None,None,None,None
Cible,5165.42,0.03537797164916992,-0.019791259765625,0.00999844741821289,None,None,None,None,None,None,None,None,None,None,None,None
Cible,5165.44,0.03537599945068359,-0.019788814544677735,0.009999123573303223,None,None,None,None,None,None,None,None,None,None,None,None
Cible,5165.46,0.03538301086425781,-0.01978747367858887,0.009984036445617676,None,None,None,None,None,None,None,None,None,None,None,None
Cible,5165.48,0.03539948654174805,-0.019784879684448243,0.009988225936889649,None,None,None,None,None,None,None,None,None,None,None,None
Cible,5165.5,0.03538327026367188,-0.019784446716308593,0.009998668670654296,None,None,None,None,None,None,None,None,None,None,None,None
Cible,5165.5199999999995,0.035383438110351564,-0.019788822174072265,0.009992647171020509,None,None,None,None,None,None,None,None,None,None,None,None
Cible,5165.54,0.03539311218261719,-0.0197889404296875,0.010007156372070313,None,None,None,None,None,None,None,None,None,None,None,None
Cible,5165.5599999999995,0.03539741516113281,-0.0197868709564209,0.010003732681274415,None,None,None,None,None,None,None,None,None,None,None,None
Cible,5165.58,0.035396976470947264,-0.0197843074798584,0.01001297378540039,None,None,None,None,None,None,None,None,None,None,None,None
Cible,5165.599999999999,0.035379173278808594,-0.01976576805114746,0.009987723350524903,None,None,None,None,None,None,None,None,None,None,None,None
Cible,5165.62,0.035397960662841794,-0.019785564422607423,0.010002275466918946,None,None,None,None,None,None,None,None,None,None,None,None
Cible,5165.639999999999,0.03538524627685547,-0.01978828811645508,0.009993454933166505,None,None,None,None,None,None,None,None,None,None,None,None
Cible,5165.66,0.03538625335693359,-0.019786890029907227,0.009989026069641114,None,None,None,None,None,None,None,None,None,None,None,None
Cible,5165.679999999999,0.03539651870727539,-0.01976636505126953,0.00998622989654541,None,None,None,None,None,None,None,None,None,None,None,None
Cible,5165.7,0.03539078140258789,-0.019791786193847655,0.010004590034484864,None,None,None,None,None,None,None,None,None,None,None,None
Cible,5165.719999999999,0.035389415740966795,-0.019784629821777346,0.009987311363220215,None,None,None,None,None,None,None,None,None,None,None,None
Cible,5165.74,0.0353924560546875,-0.019785112380981445,0.01001204490661621,None,None,None,None,None,None,None,None,None,None,None,None
Cible,5165.76,0.03538526153564453,-0.01978866195678711,0.010014533042907715,None,None,None,None,None,None,None,None,None,None,None,None
Cible,5165.78,0.03538183975219727,-0.01979330825805664,0.010002553939819336,None,None,None,None,None,None,None,None,None,None,None,None
Cible,5165.8,0.03538251495361328,-0.019790449142456056,0.009984114646911622,None,None,None,None,None,None,None,None,None,None,None,None
Cible,5165.82,0.035385032653808594,-0.01978671646118164,0.009978045463562011,None,None,None,None,None,None,None,None,None,None,None,None
Cible,5165.84,0.03538375473022461,-0.019791694641113283,0.009986481666564942,None,None,None,None,None,None,None,None,None,None,None,None
Cible,5165.86,0.0353930549621582,-0.01978689193725586,0.010009905815124513,None,None,None,None,None,None,None,None,None,None,None,None
Cible,5165.88,0.03538166427612305,-0.019770917892456056,0.00999175262451172,None,None,None,None,None,None,None,None,None,None,None,None
Cible,5165.9,0.03538121795654297,-0.019790218353271483,0.00999771785736084,None,None,None,None,None,None,None,None,None,None,None,None
Cible,5165.92,0.03539355850219727,-0.01979098892211914,0.010010712623596192,None,None,None,None,None,None,None,None,None,None,None,None
Cible,5165.94,0.03539699172973633,-0.019781314849853515,0.010005268096923828,None,None,None,None,None,None,None,None,None,None,None,None
Cible,5165.96,0.03539510726928711,-0.019788984298706055,0.010010661125183106,None,None,None,None,None,None,None,None,None,None,None,None
Cible,5165.98,0.0353896484375,-0.019795251846313477,0.009996148109436035,None,None,None,None,None,None,None,None,None,None,None,None
Cible,5166.0,0.035382427215576176,-0.019792686462402346,0.009999493598937988,None,None,None,None,None,None,None,None,None,None,None,None
Cible,5166.0199999999995,0.03538428497314453,-0.019789512634277345,0.009994047164916992,None,None,None,None,None,None,None,None,None,None,None,None
Cible,5166.04,0.03538191604614258,-0.019787815093994143,0.009994127273559571,None,None,None,None,None,None,None,None,None,None,None,None
Cible,5166.0599999999995,0.03537031936645508,-0.019791826248168946,0.010008286476135254,None,None,None,None,None,None,None,None,None,None,None,None
Cible,5166.08,0.035390892028808595,-0.019790170669555664,0.01001342487335205,None,None,None,None,None,None,None,None,None,None,None,None
Cible,5166.099999999999,0.03538397216796875,-0.019788509368896486,0.009981754302978516,None,None,None,None,None,None,None,None,None,None,None,None
Cible,5166.12,0.035386497497558594,-0.019786821365356446,0.009985315322875978,None,None,None,None,None,None,None,None,None,None,None,None
Cible,5166.139999999999,0.03538200378417969,-0.019782155990600587,0.009998035430908204,None,None,None,None,None,None,None,None,None,None,None,None
Cible,5166.16,0.03539249420166016,-0.019784133911132814,0.010009790420532226,None,None,None,None,None,None,None,None,None,None,None,None
