Crazyflie name,QTM packet timestamp (s),QTM_x (m),QTM_y (m),QTM_z (m),cf_yaw (°),QTM_vx (m/s),QTM_vy (m/s),QTM_vz (m/s),x_g (m),y_g (m),z_g (m),yaw_g (°),PID_zp,PID_zd,PID_zi,roll_c (°),pitch_c (°),yaw_rate_c (°/s),thrust_c (PWM)
Crazyflie,2069.58,1.005417236328125,1.0097428588867188,0.023118257522583008,0.05771435424685478,-0.0004913330078131245,0.00010070800781090405,0.0022074699401874614,1.0054270629882813,1.0097408447265626,0.4,0.05771435424685478,0,0,0,0,0,0,0
Crazyflie,2069.6,1.0054586791992188,1.0097069091796875,0.02312724494934082,0.05734115466475487,0.0020721435546896512,-0.0017974853515639571,0.0004493713378909893,1.0054270629882813,1.0097408447265626,0.4,0.05771435424685478,0,0,0,0,0,0,0
Crazyflie,2069.62,1.0054476318359375,1.0097208251953125,0.023128332138061525,0.05734115466475487,-0.0005523681640645123,0.0006958007812480571,5.4359436035351406e-05,1.0054270629882813,1.0097408447265626,0.4,0.05771435424685478,0,0,0,0,0,0,0
Crazyflie,2069.639999,1.0053995361328125,1.0097302246093751,0.023119855880737304,0.05772576108574867,-0.0024049054015097097,0.0004699942028397663,-0.00042383405791188215,1.0054270629882813,1.0097408447265626,0.4,0.05771435424685478,0,0,0,0,0,0,0
Crazyflie,2069.659999,1.0054597778320313,1.0097113647460938,0.023180973052978514,0.05772576108574867,0.0030120849609432594,-0.0009429931640667327,0.0030558586120632944,1.0054270629882813,1.0097408447265626,0.4,0.05771435424685478,0,0,0,0,0,0,0
Crazyflie,2069.679999,1.0054209594726562,1.009752197265625,0.023278141021728517,0.08964027464389801,-0.0019409179687586043,0.0020416259765584062,0.004858398437504545,1.0054270629882813,1.0097408447265626,0.4,0.05771435424685478,0,0,0,0,0,0,0
Crazyflie,2069.699999,1.005402099609375,1.0097274780273438,0.023389408111572266,0.08964027464389801,-0.0009429931640556305,-0.0012359619140600714,0.005563354492192496,1.0054270629882813,1.0097408447265626,0.4,0.05771435424685478,0,0,0,0,0,0,0
Crazyflie,2069.719999,1.0053824462890626,1.0097305908203125,0.023708372116088866,0.08964027464389801,-0.000982666015626249,0.00015563964843604282,0.015948200225844523,1.0054270629882813,1.0097408447265626,0.4,0.05771435424685478,0,0,0,0,0,0,0
Crazyflie,2069.739999,1.0053225708007814,1.01017724609375,0.02512758255004883,0.26005950570106506,-0.002993774414064512,0.02233276367189318,0.07096052169806265,1.0054270629882813,1.0097408447265626,0.4,0.05771435424685478,0,0,0,0,0,0,0
Crazyflie,2069.7599999999998,1.0048140869140625,1.0098543701171876,0.027104921340942383,0.26005950570106506,-0.0254229231899548,-0.01614299167864111,0.0988619964455198,1.0054270629882813,1.0097408447265626,0.4,0.05771435424685478,0,0,0,0,0,0,0
Crazyflie,2069.7799999999997,1.0043245239257812,1.0099962158203126,0.03088174819946289,1.3696494102478027,-0.024478149414086717,0.007092285156258049,0.18884134292619717,1.0054270629882813,1.0097408447265626,0.4,0.05771435424685478,0,0,0,0,0,0,0
Crazyflie,2069.7999999999997,1.0037576293945312,1.01014794921875,0.03594966888427734,1.3696494102478027,-0.0283447265625272,0.007586669921873196,0.253396034240953,1.0054270629882813,1.0097408447265626,0.4,0.05771435424685478,0,0,0,0,0,0,0
Crazyflie,2069.8199999999997,1.0030834350585938,1.0107377319335937,0.0429821891784668,1.3696494102478027,-0.03370971679690095,0.02948913574221574,0.3516260147097927,1.0054270629882813,1.0097408447265626,0.4,0.05771435424685478,0,0,0,0,0,0,0
Crazyflie,2069.8399999999997,1.0017926635742187,1.0104481811523438,0.05094291687011719,2.9892706871032715,-0.0645385742188119,-0.014477539062509436,0.39803638458288154,1.0054270629882813,1.0097408447265626,0.4,0.05771435424685478,0,0,0,0,0,0,0
Crazyflie,2069.86,1.0004580688476563,1.0107318725585939,0.06043352127075195,2.9892706871032715,-0.06672973632666283,0.014184570312193579,0.47453022002138007,1.0054270629882813,1.0097408447265626,0.4,0.05771435424685478,0,0,0,0,0,0,0
Crazyflie,2069.88,0.9990000610351563,1.0109752807617187,0.07092697906494141,4.389222145080566,-0.07290039062506884,0.012170410156253609,0.5246728897099503,1.0054270629882813,1.0097408447265626,0.4,0.05771435424685478,0,0,0,0,0,0,0
Crazyflie,2069.9,0.9973307495117187,1.0113389282226564,0.08253496551513673,4.389222145080566,-0.08346557617195202,0.01818237304689873,0.5803993225102935,1.0054270629882813,1.0097408447265626,0.4,0.05771435424685478,0,0,0,0,0,0,0
Crazyflie,2069.92,0.9955858764648438,1.0113542480468751,0.09454395294189454,4.389222145080566,-0.08724365234382855,0.0007659912109388184,0.6004493713384366,1.0054270629882813,1.0097408447265626,0.4,0.05771435424685478,0,0,0,0,0,0,0
Crazyflie,2069.94,0.9937232055664063,1.0116593627929689,0.10731116485595703,5.334392070770264,-0.0931335449219598,0.015255737304700753,0.6383605957037052,1.0054270629882813,1.0097408447265626,0.4,0.05771435424685478,0,0,0,0,0,0,0
Crazyflie,2069.96,0.9919029541015625,1.0120350952148438,0.1206207504272461,5.334392070770264,-0.09101257324227126,0.018786621093764156,0.6654792785650587,1.0054270629882813,1.0097408447265626,0.4,0.05771435424685478,0,0,0,0,0,0,0
Crazyflie,2069.98,0.9900850219726562,1.012331298828125,0.13402044677734376,6.0439252853393555,-0.09089660644539473,0.014810180664073394,0.6699848175054924,1.0054270629882813,1.0097408447265626,0.4,0.05771435424685478,0,0,0,0,0,0,0
Crazyflie,2070.0,0.9882986450195312,1.0125551147460938,0.14740480041503906,6.0439252853393555,-0.08931884765633133,0.011190795898451586,0.6692176818853737,1.0054270629882813,1.0097408447265626,0.4,0.05771435424685478,0,0,0,0,0,0,0
Crazyflie,2070.02,0.9865284423828126,1.0128084716796875,0.1608441619873047,6.0439252853393555,-0.08851013183601432,0.012667846679692982,0.6719680786138928,1.0054270629882813,1.0097408447265626,0.4,0.05771435424685478,0,0,0,0,0,0,0
Crazyflie,2070.04,0.9849834594726563,1.0129969482421874,0.17394374084472658,6.63381290435791,-0.07724914550788307,0.009423828125007772,0.6549789428716899,1.0054270629882813,1.0097408447265626,0.4,0.05771435424685478,0,0,0,0,0,0,0
Crazyflie,2070.06,0.98344873046875,1.0130890502929688,0.18663514709472656,6.63381290435791,-0.07673645019538362,0.004605102539072284,0.6345703125005762,1.0054270629882813,1.0097408447265626,0.4,0.05771435424685478,0,0,0,0,0,0,0
Crazyflie,2070.08,0.9820980834960937,1.013232421875,0.19920042419433595,6.9846110343933105,-0.06753234863287641,0.007168579101563957,0.6282638549810409,1.0054270629882813,1.0097408447265626,0.4,0.05771435424685478,0,0,0,0,0,0,0
Crazyflie,2070.1,0.9807750854492188,1.013275634765625,0.21116902160644532,6.9846110343933105,-0.06614990234380856,0.0021606445312591593,0.5984298706060128,1.0054270629882813,1.0097408447265626,0.4,0.05771435424685478,0,0,0,0,0,0,0
Crazyflie,2070.12,0.979638427734375,1.0133837890625,0.2225539093017578,6.9846110343933105,-0.056832885742237944,0.005407714843746391,0.5692443847661419,1.0054270629882813,1.0097408447265626,0.4,0.05771435424685478,0,0,0,0,0,0,0
Crazyflie,2070.139999,0.9786063232421875,1.013302001953125,0.2333632049560547,7.130690097808838,-0.05160780499937159,-0.004089559946727737,0.5404918073025606,1.0054270629882813,1.0097408447265626,0.4,0.05771435424685478,0,0,0,0,0,0,0
Crazyflie,2070.159999,0.977972412109375,1.0135013427734376,0.24408261108398438,7.130690097808838,-0.03169555664065511,0.009967041015644013,0.5359703063969715,1.0054270629882813,1.0097408447265626,0.4,0.05771435424685478,0,0,0,0,0,0,0
Crazyflie,2070.179999,0.9772858276367188,1.0133084106445314,0.2535804138183594,7.12894344329834,-0.0343292236328431,-0.009646606445321452,0.4748901367191822,1.0054270629882813,1.0097408447265626,0.4,0.05771435424685478,0,0,0,0,0,0,0
Crazyflie,2070.199999,0.976724853515625,1.01311865234375,0.2625985412597656,7.12894344329834,-0.028048706054715187,-0.009487915039072283,0.4509063720707217,1.0054270629882813,1.0097408447265626,0.4,0.05771435424685478,0,0,0,0,0,0,0
Crazyflie,2070.219999,0.9763120727539063,1.0129078369140625,0.27102102661132815,7.12894344329834,-0.02063903808595325,-0.010540771484389293,0.42112426757850985,1.0054270629882813,1.0097408447265626,0.4,0.05771435424685478,0,0,0,0,0,0,0
Crazyflie,2070.239999,0.9760648193359375,1.0126029052734375,0.27879913330078127,7.008023262023926,-0.012362670898452697,-0.01524658203126138,0.38890533447300935,1.0054270629882813,1.0097408447265626,0.4,0.05771435424685478,0,0,0,0,0,0,0
Crazyflie,2070.2599999999998,0.9759644165039063,1.0121911010742188,0.28591156005859375,7.008023262023926,-0.005019890607061662,-0.020589180502048894,0.35560355771512814,1.0054270629882813,1.0097408447265626,0.4,0.05771435424685478,0,0,0,0,0,0,0
Crazyflie,2070.2799999999997,0.975859619140625,1.0118411254882813,0.2923921203613281,6.847824573516846,-0.005239868164068953,-0.01749877929689207,0.3240280151370128,1.0054270629882813,1.0097408447265626,0.4,0.05771435424685478,0,0,0,0,0,0,0
Crazyflie,2070.2999999999997,0.9760835571289063,1.011404296875,0.2985260009765625,6.847824573516846,0.011196899414072283,-0.021841430664080057,0.3066940307619989,1.0054270629882813,1.0097408447265626,0.4,0.05771435424685478,0,0,0,0,0,0,0
Crazyflie,2070.3199999999997,0.9763223266601563,1.0109866943359376,0.3039910583496094,6.847824573516846,0.011938476562511657,-0.02088012695314568,0.27325286865259185,1.0054270629882813,1.0097408447265626,0.4,0.05771435424685478,0,0,0,0,0,0,0
Crazyflie,2070.3399999999997,0.97673388671875,1.0105679321289063,0.3088564453125,6.703770160675049,0.020578002929707413,-0.020938110351583942,0.24326934814475262,1.0054270629882813,1.0097408447265626,0.4,0.05771435424685478,0,0,0,0,0,0,0
Crazyflie,2070.36,0.9772761230468751,1.0100960693359375,0.31340316772460936,6.703770160675049,0.02711181640565825,-0.023593139647921802,0.22733612060050523,1.0054270629882813,1.0097408447265626,0.4,0.05771435424685478,0,0,0,0,0,0,0
Crazyflie,2070.38,0.9778988647460938,1.009550048828125,0.3175006713867188,6.598126411437988,0.031137084960964352,-0.027301025390649564,0.20487518310565758,1.0054270629882813,1.0097408447265626,0.4,0.05771435424685478,0,0,0,0,0,0,0
Crazyflie,2070.4,0.9786111450195313,1.008996337890625,0.3213111572265625,6.598126411437988,0.03561401367190761,-0.027685546875025537,0.1905242919923595,1.0054270629882813,1.0097408447265626,0.4,0.05771435424685478,0,0,0,0,0,0,0
Crazyflie,2070.42,0.979354248046875,1.0085401000976564,0.32492315673828126,6.598126411437988,0.03715515136721907,-0.022811889648453806,0.18059997558610202,1.0054270629882813,1.0097408447265626,0.4,0.05771435424685478,0,0,0,0,0,0,0
Crazyflie,2070.44,0.9802496948242188,1.0079362792968751,0.32799874877929686,6.53350305557251,0.04477233886722906,-0.030191040039090046,0.15377960205091964,1.0054270629882813,1.0097408447265626,0.4,0.05771435424685478,0,0,0,0,0,0,0
Crazyflie,2070.46,0.9812208251953125,1.0074174194335939,0.33093609619140624,6.53350305557251,0.04855651855473184,-0.025942993164086717,0.14686737060560265,1.0054270629882813,1.0097408447265626,0.4,0.05771435424685478,0,0,0,0,0,0,0
Crazyflie,2070.48,0.982127197265625,1.0069351196289062,0.33365472412109376,6.499777317047119,0.04531860351566733,-0.024114990234402618,0.13593139648449976,1.0054270629882813,1.0097408447265626,0.4,0.05771435424685478,0,0,0,0,0,0,0
Crazyflie,2070.5,0.9831519165039063,1.0064212036132814,0.3361123352050781,6.499777317047119,0.051235961914111144,-0.02569580078126804,0.12288055419932904,1.0054270629882813,1.0097408447265626,0.4,0.05771435424685478,0,0,0,0,0,0,0
Crazyflie,2070.52,0.9841524658203126,1.005942626953125,0.3385160827636719,6.499777317047119,0.05002746582035809,-0.02392883300783533,0.12018737792979901,1.0054270629882813,1.0097408447265626,0.4,0.05771435424685478,0,0,0,0,0,0,0
Crazyflie,2070.54,0.9851571655273438,1.005593017578125,0.34084075927734375,6.486004829406738,0.05023498535160614,-0.017480468750024424,0.11623382568369836,1.0054270629882813,1.0097408447265626,0.4,0.05771435424685478,0,0,0,0,0,0,0
Crazyflie,2070.56,0.9862005004882812,1.00511474609375,0.34288418579101565,6.486004829406738,0.05216674804691983,-0.023913574218769707,0.10217132568368781,1.0054270629882813,1.0097408447265626,0.4,0.05771435424685478,0,0,0,0,0,0,0
Crazyflie,2070.58,0.9871949462890626,1.004775146484375,0.3450428466796875,6.4907307624816895,0.04972229003911225,-0.016979980468760824,0.10793304443369003,1.0054270629882813,1.0097408447265626,0.4,0.05771435424685478,0,0,0,0,0,0,0
Crazyflie,2070.6,0.9881965942382813,1.0043977661132812,0.34701980590820314,6.4907307624816895,0.050082397460983225,-0.018869018554707413,0.09884796142587246,1.0054270629882813,1.0097408447265626,0.4,0.05771435424685478,0,0,0,0,0,0,0
Crazyflie,2070.62,0.9891513671875001,1.00412744140625,0.348966796875,6.4907307624816895,0.047738647460981005,-0.013516235351575059,0.09734954833993087,1.0054270629882813,1.0097408447265626,0.4,0.05771435424685478,0,0,0,0,0,0,0
Crazyflie,2070.639999,0.9900839233398437,1.003831298828125,0.35098855590820316,6.505820274353027,0.04663013912391098,-0.01480786929963921,0.10109300630997875,1.0054270629882813,1.0097408447265626,0.4,0.05771435424685478,0,0,0,0,0,0,0
Crazyflie,2070.659999,0.9908863525390625,1.0036416625976563,0.3530175476074219,6.505820274353027,0.04012145996097657,-0.009481811523446034,0.1014495849610282,1.0054270629882813,1.0097408447265626,0.4,0.05771435424685478,0,0,0,0,0,0,0
Crazyflie,2070.679999,0.9936663208007813,1.0036893310546875,0.3574284362792969,6.53319787979126,0.1389984130860654,0.0023834228515617365,0.22054443359395068,0.9908863525390625,1.0036416625976563,0.4,6.505820274353027,0,0,0,0,0,0,0
Crazyflie,2070.699999,0.994598876953125,1.0036300659179687,0.35964581298828124,6.53319787979126,0.046627807617225736,-0.0029632568359443693,0.11086883544931905,0.9908863525390625,1.0036416625976563,0.4,6.505820274353027,0,0,0,0,0,0,0
Crazyflie,2070.719999,0.9953143920898437,1.0034696655273438,0.3617395324707031,6.53319787979126,0.0357757568359699,-0.008020019531248057,0.10468597412118892,0.9908863525390625,1.0036416625976563,0.4,6.505820274353027,0,0,0,0,0,0,0
Crazyflie,2070.739999,0.9960381469726562,1.0034326782226564,0.36368847656250003,6.768432140350342,0.036187744140658444,-0.0018493652343759715,0.0974472045899342,0.9908863525390625,1.0036416625976563,0.4,6.505820274353027,0,0,0,0,0,0,0
Crazyflie,2070.7599999999998,0.996552490234375,1.0033339233398437,0.36568417358398436,6.768432140350342,0.025715877292244723,-0.00493749726580164,0.09977986208178308,0.9908863525390625,1.0036416625976563,0.4,6.505820274353027,0,0,0,0,0,0,0
Crazyflie,2070.7799999999997,0.9970073852539063,1.0033134765625,0.3676873474121094,7.760590076446533,0.02274475097658727,-0.0010223388671857653,0.10015869140634298,0.9908863525390625,1.0036416625976563,0.4,6.505820274353027,0,0,0,0,0,0,0
Crazyflie,2070.7999999999997,0.9973675537109375,1.0032625122070313,0.3696058959960938,7.760590076446533,0.01800842285157839,-0.002548217773437153,0.09592742919930629,0.9908863525390625,1.0036416625976563,0.4,6.505820274353027,0,0,0,0,0,0,0
Crazyflie,2070.8199999999997,0.9977084350585937,1.0033103637695313,0.3717615966796875,7.760590076446533,0.017044067382825337,0.0023925781250011104,0.10778503417978402,0.9908863525390625,1.0036416625976563,0.4,6.505820274353027,0,0,0,0,0,0,0
Crazyflie,2070.8399999999997,0.9978419799804688,1.00327734375,0.3735909729003906,8.862482070922852,0.006677246093756384,-0.0016510009765672879,0.091468811035239,0.9908863525390625,1.0036416625976563,0.4,6.505820274353027,0,0,0,0,0,0,0
Crazyflie,2070.86,0.9979541015625,1.003276123046875,0.3757052001953125,8.862482070922852,0.00560607910143871,-6.103515625e-05,0.10571136474378698,0.9908863525390625,1.0036416625976563,0.4,6.505820274353027,0,0,0,0,0,0,0
Crazyflie,2070.88,0.9979110107421875,1.0033200073242188,0.377403076171875,9.818071365356445,-0.002154541015627359,0.002194213867192427,0.08489379882820286,0.9908863525390625,1.0036416625976563,0.4,6.505820274353027,0,0,0,0,0,0,0
Crazyflie,2070.9,0.9978624267578126,1.0033452758789063,0.3795522766113281,9.818071365356445,-0.002429199218747502,0.0012634277343781918,0.10746002197275288,0.9908863525390625,1.0036416625976563,0.4,6.505820274353027,0,0,0,0,0,0,0
Crazyflie,2070.92,0.9976510620117188,1.0032620849609375,0.3813699035644531,9.818071365356445,-0.010568237304696313,-0.004159545898444925,0.09088134765633188,0.9908863525390625,1.0036416625976563,0.4,6.505820274353027,0,0,0,0,0,0,0
Crazyflie,2070.94,0.9973786010742187,1.0033543701171874,0.38328970336914064,10.551834106445312,-0.013623046875017763,0.004614257812500555,0.09598999023446424,0.9908863525390625,1.0036416625976563,0.4,6.505820274353027,0,0,0,0,0,0,0
Crazyflie,2070.96,0.9969708251953125,1.0031974487304687,0.3850173645019531,10.551834106445312,-0.020388793945327003,-0.00784606933594437,0.0863830566407023,0.9908863525390625,1.0036416625976563,0.4,6.505820274353027,0,0,0,0,0,0,0
Crazyflie,2070.98,0.9965390014648438,1.0032047729492188,0.38681649780273436,10.551834106445312,-0.021591186523459358,0.00036621093750832667,0.08995666503914389,0.9908863525390625,1.0036416625976563,0.4,6.505820274353027,0,0,0,0,0,0,0
Crazyflie,2071.0,0.9958980102539062,1.0030374755859375,0.38851983642578125,11.113286972045898,-0.032049560546905394,-0.008364868164075615,0.08516693115242199,0.9908863525390625,1.0036416625976563,0.4,6.505820274353027,0,0,0,0,0,0,0
Crazyflie,2071.02,0.9953148803710937,1.0029666748046875,0.39009393310546875,11.113286972045898,-0.029156494140651783,-0.0035400390625027756,0.07870483398444647,0.9908863525390625,1.0036416625976563,0.4,6.505820274353027,0,0,0,0,0,0,0
Crazyflie,2071.04,0.9947109985351563,1.00275146484375,0.3917489013671875,11.113286972045898,-0.03019409179689762,-0.010760498046878748,0.0827484130860121,0.9908863525390625,1.0036416625976563,0.4,6.505820274353027,0,0,0,0,0,0,0
Crazyflie,2071.06,0.99407861328125,1.0025932006835938,0.39326809692382814,11.52733039855957,-0.03161926269534365,-0.007913208007822007,0.07595977783210164,0.9908863525390625,1.0036416625976563,0.4,6.505820274353027,0,0,0,0,0,0,0
Crazyflie,2071.08,0.9932340698242188,1.0023067016601563,0.39450555419921873,11.983663558959961,-0.042227172851599486,-0.014324951171886518,0.0618728637695861,0.9908863525390625,1.0036416625976563,0.4,6.505820274353027,0,0,0,0,0,0,0
Crazyflie,2071.1,0.9924740600585937,1.0021015625,0.3959853820800781,12.068968772888184,-0.038000488281288027,-0.010256958007824227,0.07399139404303602,0.9908863525390625,1.0036416625976563,0.4,6.505820274353027,0,0,0,0,0,0,0
Crazyflie,2071.12,0.9917193603515625,1.0018108520507814,0.39703939819335937,12.068968772888184,-0.037734985351596154,-0.0145355224609477,0.052700805664111144,0.9908863525390625,1.0036416625976563,0.4,6.505820274353027,0,0,0,0,0,0,0
Crazyflie,2071.139999,0.990824462890625,1.0015606689453125,0.3983877563476563,12.068968772888184,-0.0447471104021766,-0.012509780762420349,0.06742127877845361,0.9908863525390625,1.0036416625976563,0.4,6.505820274353027,0,0,0,0,0,0,0
Crazyflie,2071.159999,0.989960693359375,1.001225341796875,0.3991608276367188,12.068968772888184,-0.043188476562539414,-0.016766357421886518,0.03865356445316066,0.9908863525390625,1.0036416625976563,0.4,6.505820274353027,0,0,0,0,0,0,0
Crazyflie,2071.179999,0.9891783447265625,1.0009191284179688,0.40046990966796875,12.068968772888184,-0.039117431640658444,-0.015310668945325892,0.06545410156255774,0.9908863525390625,1.0036416625976563,0.4,6.505820274353027,0,0,0,0,0,0,0
Crazyflie,2071.199999,0.9882031860351562,1.0005699462890625,0.40121456909179687,12.068968772888184,-0.0487579345703592,-0.017459106445332554,0.03723297119143987,0.9908863525390625,1.0036416625976563,0.4,6.505820274353027,0,0,0,0,0,0,0
Crazyflie,2071.219999,0.9873434448242188,1.0001610717773437,0.40205227661132814,12.071669578552246,-0.04298706054691205,-0.02044372558595769,0.041885375976601705,0.9908863525390625,1.0036416625976563,0.4,6.505820274353027,0,0,0,0,0,0,0
Crazyflie,2071.239999,0.9864318237304688,0.999739990234375,0.40288247680664063,12.071669578552246,-0.04558105468754052,-0.021054077148454916,0.04151000976566233,0.9908863525390625,1.0036416625976563,0.4,6.505820274353027,0,0,0,0,0,0,0
Crazyflie,2071.2599999999998,0.9856323852539063,0.9994270629882813,0.40366973876953127,12.071669578552246,-0.039969925332126864,-0.015645580025787042,0.039361130088292076,0.9908863525390625,1.0036416625976563,0.4,6.505820274353027,0,0,0,0,0,0,0
Crazyflie,2071.2799999999997,0.9847562255859376,0.9989517822265626,0.40447555541992186,12.009015083312988,-0.04380798339847601,-0.023764038085959914,0.04029083251956612,0.9908863525390625,1.0036416625976563,0.4,6.505820274353027,0,0,0,0,0,0,0
Crazyflie,2071.2999999999997,0.9840082397460937,0.9985251464843751,0.4053725891113281,12.009015083312988,-0.03739929199222462,-0.021331787109393735,0.04485168457035365,0.9908863525390625,1.0036416625976563,0.4,6.505820274353027,0,0,0,0,0,0,0
Crazyflie,2071.3199999999997,0.983199462890625,0.9981310424804688,0.40605673217773436,12.009015083312988,-0.0404388427734749,-0.019705200195331445,0.0342071533203431,0.9908863525390625,1.0036416625976563,0.4,6.505820274353027,0,0,0,0,0,0,0
Crazyflie,2071.3399999999997,0.9824867553710938,0.9976928100585938,0.40694824218750003,11.898543357849121,-0.035635375976593935,-0.021911621093770817,0.04457550048832417,0.9908863525390625,1.0036416625976563,0.4,6.505820274353027,0,0,0,0,0,0,0
Crazyflie,2071.36,0.9818975830078125,0.9972368774414063,0.40775091552734377,11.898543357849121,-0.029458618163420235,-0.0227966308588754,0.040133666991310976,0.9908863525390625,1.0036416625976563,0.4,6.505820274353027,0,0,0,0,0,0,0
Crazyflie,2071.38,0.9812177734375,0.9968125,0.40854275512695315,11.777180671691895,-0.03399047851565289,-0.021218872070335883,0.039591979980504934,0.9908863525390625,1.0036416625976563,0.4,6.505820274353027,0,0,0,0,0,0,0
Crazyflie,2071.4,0.9806556396484375,0.9963123168945313,0.409233154296875,11.777180671691895,-0.02810668945315345,-0.025009155273459358,0.03451995849612453,0.9908863525390625,1.0036416625976563,0.4,6.505820274353027,0,0,0,0,0,0,0
Crazyflie,2071.42,0.9801015625,0.9959083862304687,0.4099933166503906,11.777180671691895,-0.02770385742189873,-0.020196533203144566,0.03800811767581529,0.5,0.0,0.5,0.0,2925.2172088623047,-617.6319122319984,14.626086044298221,19.774715554436845,-14.714083061481166,118,40322
Crazyflie,2071.44,0.9796696166992188,0.9954742431640625,0.41073233032226564,11.641550064086914,-0.021597290039080057,-0.02170715332033033,0.03695068359378414,0.49990000333328904,0.009999333346657447,0.5,0.0,2901.1992645263667,-600.4486083989923,29.132082366916862,19.514678239049328,-14.741616008479856,116,40330
Crazyflie,2071.46,0.9793390502929687,0.994930908203125,0.4115004577636719,11.641550064086914,-0.01652832031251832,-0.027166748046899843,0.03840637207034754,0.4996000533304897,0.019994667093298904,0.5,0.0,2876.2351226806636,-624.1035461431476,43.5132579803071,19.13226680879414,-14.780724933653067,116,40296
Crazyflie,2071.48,0.9788446655273437,0.9941226196289062,0.4124269409179688,11.364051818847656,-0.024719238281273592,-0.040414428710975454,0.04632415771488646,0.4991002699676037,0.029982003239695063,0.5,0.0,2846.1244201660147,-752.767562866905,57.74388008112423,18.700364806337106,-14.395392426686964,114,40151
Crazyflie,2071.5,0.9782957763671876,0.99271923828125,0.41314862060546875,11.364051818847656,-0.027444458007833107,-0.07016906738287752,0.036083984375031644,0.4984008531513126,0.03995734698455008,0.5,0.0,2822.6698303222656,-586.3647460942642,71.85722923272272,17.787766321098392,-14.151788501711021,114,40308
Crazyflie,2071.52,0.9774360961914063,0.990885498046875,0.4139508056640625,11.364051818847656,-0.04298400878910448,-0.09168701171883299,0.04010925292972407,0.4975020826390174,0.04991670832336883,0.5,0.0,2796.5988159179688,-651.7753601080161,85.84022331229984,17.109298649738275,-13.653080128748634,114,40231
Crazyflie,2071.54,0.9764801025390625,0.9884424438476562,0.41464434814453127,9.61094856262207,-0.04779968261723239,-0.12215270996104872,0.0346771240234699,0.4964043179269397,0.0598561036444055,0.5,0.0,2774.0586853027335,-563.503265381386,99.71051673880089,16.56863449662668,-12.853703219402659,96,40310
Crazyflie,2071.56,0.9752219848632813,0.9853716430664062,0.41537380981445315,9.61094856262207,-0.06290588378911781,-0.15354003906263933,0.0364730834961273,0.4951079981063275,0.0697715573220552,0.5,0.0,2750.3511810302725,-592.6876068120687,113.46227264393974,15.623596708480672,-12.343427140115791,96,40271
Crazyflie,2071.58,0.9736378173828125,0.9816234130859375,0.41608428955078125,6.343703269958496,-0.07920837402350932,-0.18741149902360812,0.03552398681643709,0.49361364168782507,0.07965910330705116,0.5,0.0,2727.2605895996094,-577.2647857671027,127.09857559192538,15.261085266013525,-10.939237383459865,63,40277
Crazyflie,2071.6,0.9717999267578126,0.977103271484375,0.41660049438476565,6.343703269958496,-0.09189453125008104,-0.22600708007832776,0.025810241699243557,0.4919218463940754,0.08951478671283156,0.5,0.0,2710.4839324951163,-419.4164276127078,140.65099525438865,14.086998638256016,-10.512805063321032,63,40432
Crazyflie,2071.62,0.969521728515625,0.9715855712890625,0.41703656005859374,6.343703269958496,-0.11390991210948144,-0.27588500976587604,0.021803283691424327,0.4900332889206389,0.09933466539744147,0.5,0.0,2696.3117980957036,-354.30335998564533,154.1325542448549,12.658257186564454,-9.837318637194576,63,40496
Crazyflie,2071.639999,0.966905517578125,0.9653365478515625,0.4172596130371094,3.54606294631958,-0.130817087728744,-0.3124667952132293,0.011153206586057578,0.4879487246653246,0.10911481154033703,0.5,0.0,2689.0625762939444,-181.23960702343564,167.57719486074646,11.94459066104743,-8.734281528381873,35,40675
Crazyflie,2071.659999,0.963720703125,0.9580416870117188,0.4175089721679688,3.54606294631958,-0.15924072265639572,-0.36474304199251995,0.012467956542980512,0.4856691062770973,0.11885082754447088,0.5,0.0,2680.9584045410147,-202.60429382343332,180.98198688343933,10.400803752337598,-7.965156947534309,35,40659
Crazyflie,2071.679999,0.9602058715820313,0.9496533203125,0.41739956665039063,0.9196559786796572,-0.17574157714859592,-0.4194183349613174,-0.0054702758789126685,0.48319511760730643,0.1285397927509661,0.5,0.0,2684.5140838623047,88.89198303233086,194.40455730273865,9.094168940611771,-7.051453727882016,9,40968
Crazyflie,2071.699999,0.9560170288085937,0.9404573974609375,0.41718704223632813,0.9196559786796572,-0.2094421386720686,-0.45979614257854645,-0.010626220703134575,0.48052785733298864,0.1381773437542021,0.5,0.0,2691.421127319336,172.67608642593686,207.86166293932308,7.750277480006003,-6.222544963938616,9,41072
Crazyflie,2071.719999,0.9515735473632813,0.9305189208984376,0.41686712646484375,0.9196559786796572,-0.22217407226582608,-0.49692382812544744,-0.015995788574233564,0.47766839232269065,0.14775962566227652,0.5,0.0,2701.818389892578,259.9315643312954,221.3707548887737,6.457424088932924,-5.873651883939084,9,41183
Crazyflie,2071.739999,0.9444657592773438,0.9191365966796875,0.41362368774414066,-2.303942203521734,-0.3553894042971974,-0.5691162109380212,-0.16217193603530228,0.4746178663242909,0.15728280569018824,0.5,0.0,2807.230148315429,2635.293960573662,235.40690563033806,4.519103087392986,-2.443500189408879,-23,43678
Crazyflie,2071.7599999999998,0.9390656127929687,0.9077034912109375,0.41298745727539066,-2.303942203521734,-0.2699938245293396,-0.5716266921067351,-0.03180993294106665,0.4713774995075157,0.1667430746929001,0.5,0.0,2827.907638549804,516.911410292333,249.5471507999017,4.059847335012471,-4.371144786533031,-23,41594
Crazyflie,2071.7799999999997,0.933267333984375,0.8956492919921876,0.41231741333007815,-4.827320098876975,-0.28991394042995056,-0.6027099609380456,-0.03350219726565567,0.4679484118390251,0.17613711663739176,0.5,0.0,2849.68406677246,544.4107055669047,263.795571133751,3.0057079953101113,-3.780456617701996,-48,41658
Crazyflie,2071.7999999999997,0.9272489013671875,0.8828592529296875,0.41175823974609377,-4.827320098876975,-0.30092163085964796,-0.6395019531255862,-0.027958679199244666,0.46433231778831924,0.18546023470633086,0.5,0.0,2867.8572082519527,454.32853698772584,278.13485717499776,1.6346269198959325,-3.5878186435007424,-48,41600
Crazyflie,2071.8199999999997,0.9209011840820313,0.8696199340820313,0.41118841552734375,-4.827320098876975,-0.3173858642581018,-0.6619659423834104,-0.028491210937526646,0.4605304970015134,0.1947091711541577,0.5,0.0,2886.376495361328,462.982177734808,292.5667396517913,0.5713879649797113,-3.2403808780330277,-48,41642
Crazyflie,2071.8399999999997,0.9141352539062501,0.85569775390625,0.41064666748046874,-6.1680016517639285,-0.3382965087893676,-0.6961090087896974,-0.02708740234377526,0.456544470156232,0.2038802265296107,0.5,0.0,2903.983306884766,440.17028808634797,307.08665618620194,-0.7154550129324523,-2.827261496881163,-62,41651
Crazyflie,2071.86,0.907023193359375,0.841378173828125,0.41023724365234376,-6.1680016517639285,-0.35560302733599175,-0.7159790038906247,-0.020471191405802024,0.45237583161006695,0.21296973253281878,0.5,0.0,2917.2895812988277,332.6568603442829,321.67310409301444,-1.7514608237677998,-2.472425686779646,-62,41572
Crazyflie,2071.88,0.89956787109375,0.8266909790039063,0.4097250366210938,-7.020027160644525,-0.37276611328158665,-0.7343597412116005,-0.02561035156252276,0.44802624876275454,0.22197405348277618,0.5,0.0,2933.936309814452,416.1682128909949,336.34278564207335,-2.728271432739396,-2.154995779590977,-70,41686
Crazyflie,2071.9,0.8920420532226563,0.8118795166015625,0.40970892333984377,-7.020027160644525,-0.37629089355502937,-0.7405731201178619,-0.0008056640625011102,0.4434974613896379,0.2308895877707495,0.5,0.0,2934.4599914550777,13.09204101564304,351.0150855993354,-3.4275778520810385,-2.090510091833938,-70,41299
Crazyflie,2071.92,0.88419873046875,0.7968641357421875,0.409490966796875,-7.020027160644525,-0.39216613769567227,-0.7507690429694347,-0.010897827148447146,0.4387912809451864,0.2397127693021015,0.5,0.0,2941.5435791015616,177.08969116226612,365.72280349482986,-4.254996939949867,-1.7533750305999,-70,41484
Crazyflie,2071.94,0.8761047973632813,0.7815091552734376,0.4089703369140625,-7.010754108428977,-0.40469665527380244,-0.7677490234381955,-0.026031494140650674,0.4339095898388295,0.24844006892186046,0.5,0.0,2958.464050292969,423.0117797855734,380.51512374628123,-5.233359522611024,-1.5094503095127576,-70,41762
Crazyflie,2071.96,0.8679420776367188,0.7664710693359376,0.40914727783203125,-7.010754108428977,-0.4081359863284943,-0.7519042968756839,0.00884704589844659,0.4288543406819214,0.25706799582654094,0.5,0.0,2952.7134704589844,-143.76449584975708,395.2786910985627,-5.429583417598683,-1.382409046518894,-70,41204
Crazyflie,2071.98,0.8595353393554688,0.75118798828125,0.40912066650390627,-6.150019168853738,-0.4203369140628847,-0.7641540527350732,-0.0013305664062502776,0.42362755550672254,0.2655930989604186,0.5,0.0,2953.578338623046,21.621704101567012,410.0465827916645,-6.30913298984181,-1.0387468319660647,-62,41385
Crazyflie,2072.0,0.8510093383789062,0.7360086669921875,0.40910809326171876,-6.150019168853738,-0.4263000488285143,-0.7589660644538162,-0.0006286621093759715,0.4182313249576134,0.27401196839590636,0.5,0.0,2953.98696899414,10.215759277359536,424.81651763662177,-6.750961140601143,-0.8767544684283551,-62,41389
Crazyflie,2072.02,0.8429699096679688,0.72246435546875,0.40884985351562503,-4.722497940063456,-0.40197143554723735,-0.6772155761724905,-0.012911987304698534,0.4126678074548648,0.28232123669748016,0.5,0.0,2962.3797607421866,209.81979370135116,439.62841644031926,-5.361399149822399,-1.0944095855690175,-47,41612
Crazyflie,2072.04,0.834119140625,0.7076057739257813,0.40873275756835936,-4.722497940063456,-0.4425384521488413,-0.742929077149111,-0.00585479736328864,0.4069392283312987,0.29051758026860813,0.5,0.0,2966.1853790283208,95.1404571534404,454.4593433354474,-7.471350491857287,-0.2640196339104685,-47,41516
Crazyflie,2072.06,0.8252997436523438,0.6930955200195312,0.4091925048828125,-4.722497940063456,-0.4409698486332117,-0.7255126953131622,0.022987365722677934,0.4010478789421843,0.298597720681145,0.5,0.0,2951.2435913085938,-373.54469299351643,469.21556129197694,-7.592092643547273,-0.24273188450155636,-47,41047
Crazyflie,2072.08,0.816423828125,0.6787374267578126,0.4095123291015625,-2.8136336803436146,-0.4437957763675932,-0.7179046630865861,0.015991210937513878,0.3949961157487272,0.3065584259866594,0.5,0.0,2940.849304199219,-259.8571777346005,483.9198078129597,-7.9390607915351765,0.12307849202630611,-28,41165
Crazyflie,2072.1,0.8074917602539062,0.6647350463867188,0.40969189453125,-2.8136336803436146,-0.446603393555096,-0.7001190185553269,0.008978271484383188,0.3887863593755154,0.3143965120091706,0.5,0.0,2935.0134277343755,-145.8969116212268,498.5948749516182,-8.038099611517028,0.24510065960525843,-28,41288
Crazyflie,2072.12,0.7985423583984376,0.6511096801757813,0.40997058105468753,-2.8136336803436146,-0.44747009277384014,-0.6812683105474927,0.01393432617188985,0.3824210936423028,0.32210884361877595,0.5,0.0,2925.9561157226553,-226.43280029321005,513.2246555302181,-8.098910701886924,0.32129477251088767,-28,41213
Crazyflie,2072.139999,0.78959765625,0.6380060424804688,0.4105008850097656,-0.7983846068382031,-0.44725747029320095,-0.65521464549469,0.026516523579953134,0.3759028645705135,0.3296923359856614,0.5,0.0,2908.7212371826176,-430.89350817423843,527.7675345358932,-7.960330064009956,0.6583446946325546,-8,41006
Crazyflie,2072.159999,0.7805784912109375,0.6251577758789063,0.41075308227539065,-0.7983846068382031,-0.4509582519535365,-0.6424133300787075,0.012609863281263045,0.36923461650859957,0.33714358657958693,0.5,0.0,2900.524826049804,-204.91027832052447,542.2701586661291,-8.134092077751292,0.7946314440341138,-8,41238
Crazyflie,2072.179999,0.7716972045898438,0.6129613647460938,0.41134490966796877,1.0759363174438474,-0.44406433105508714,-0.6098205566411825,0.029591369628933207,0.3624183498310354,0.3444603601370545,0.5,0.0,2881.2904357910147,-480.8597564701646,556.6766108450711,-7.8061188103972565,0.9439704382331372,11,40957
Crazyflie,2072.199999,0.7626943359375,0.6010657958984376,0.41154888916015625,1.0759363174438474,-0.45014343261759876,-0.5947784423833504,0.010198974609383188,0.3554571206457192,0.35163935414321107,0.5,0.0,2874.661102294922,-165.7333374024768,571.0499163565327,-7.895024675651777,1.1317866600794126,11,41280
Crazyflie,2072.219999,0.7537788696289063,0.5897520751953125,0.41197088623046874,1.0759363174438474,-0.4457733154300927,-0.5656860351567687,0.021099853515643457,0.34835371335151016,0.3586776970961728,0.5,0.0,2860.946197509766,-342.87261962920616,585.3546473440684,-7.650018390799079,1.0685485232436647,11,41103
Crazyflie,2072.239999,0.7449254760742188,0.5789390258789062,0.41246710205078124,1.0759363174438474,-0.4426696777347779,-0.5406524658208044,0.0248107910156479,0.341110969216615,0.3655725737526019,0.5,0.0,2844.81918334961,-403.17535400427835,599.5787432608035,-7.48279911987391,1.0311852002927386,11,41041
Crazyflie,2072.2599999999998,0.7360601806640625,0.5686494750976563,0.41283837890625,2.6557064056396484,-0.4432426083803715,-0.5144518164751302,0.018562914627832494,0.33373178524211905,0.3723212262537662,0.5,0.0,2832.752685546874,-301.64736270227803,613.7432148766142,-7.239577792021587,1.274493737534311,27,41145
Crazyflie,2072.2799999999997,0.7274537963867188,0.5591062622070313,0.41323974609375,3.7056958675384526,-0.43031921386757765,-0.4771606445316833,0.02006835937501832,0.32621873408214996,0.3789212814475317,0.5,0.0,2819.708251953124,-326.1108398440477,627.8417561363669,-6.74886972634791,1.1050597723714959,37,41121
Crazyflie,2072.2999999999997,0.7187696533203125,0.5500556640625001,0.41385113525390627,3.7056958675384526,-0.43420715332071,-0.4525299072269736,0.03056945800783977,0.3185755720994233,0.3853694394493745,0.5,0.0,2799.8381042480464,-496.7536926273963,641.8409466575945,-6.532716778188177,1.2042594249800733,37,40945
Crazyflie,2072.3199999999997,0.710069580078125,0.5412976684570313,0.4140494384765625,3.7056958675384526,-0.435003662109769,-0.43789978027383575,0.009915161132820895,0.3108049841354747,0.39166345481362863,0.5,0.0,2793.3932495117188,-161.12136840833955,655.8079129051404,-6.53980881158915,1.2443585032627598,37,41288
Crazyflie,2072.3399999999997,0.7013958740234375,0.5332091674804688,0.41432962036132814,4.280323028564453,-0.43368530273477124,-0.4044250488284954,0.014009094238294746,0.3029100783218834,0.39780081001806733,0.5,0.0,2784.2873382568355,-227.64778137228964,669.7293495964119,-6.088001944619867,1.2646262452906452,43,41226
Crazyflie,2072.36,0.6928357543945313,0.5255598754882813,0.4147382507324219,4.280323028564453,-0.4280059814359694,-0.3824645996010239,0.020431518554240635,0.2948940125157107,0.40377905020243915,0.5,0.0,2771.006851196289,-332.0121765064103,683.5843838526957,-5.906342285634849,1.1330090829541213,43,41123
Crazyflie,2072.38,0.6843709106445313,0.51852734375,0.4153440856933594,4.381946086883545,-0.4232421875003852,-0.3516265869143865,0.030291748046903728,0.2867599930362134,0.40959578415050957,0.5,0.0,2751.3172149658194,-492.24090576218555,697.3409699275123,-5.501019276457468,1.010684358062811,44,40956
Crazyflie,2072.4,0.6759118041992188,0.5119136962890625,0.41553320312500003,4.381946086883545,-0.42295532226600707,-0.3306823730471763,0.009455871582040028,0.2785112733831011,0.4152486852459903,0.5,0.0,2745.170898437499,-153.65791320815046,711.0668244196874,-5.302857099481951,0.9937415233298127,44,41303
Crazyflie,2072.42,0.6674910278320313,0.5060004577636719,0.4157588500976563,4.381946086883545,-0.421038818359759,-0.29566192626979926,0.011282348632823116,0.2701511529340699,0.42073549240394825,0.5,0.0,2737.8373718261705,-183.33816528337564,724.7560112788058,-4.766349505050966,0.9099719679891135,44,41279
Crazyflie,2072.44,0.6591598510742188,0.5003610534667969,0.4160421752929688,3.929215908050537,-0.4165588378910026,-0.28197021484400286,0.014166259765637351,0.26168297562583254,0.4260540109746767,0.5,0.0,2728.6293029785147,-230.20172119160696,738.399157793686,-4.718135110423851,0.7624240278057824,39,41237
Crazyflie,2072.46,0.6508868408203126,0.4951678771972656,0.41623477172851564,3.929215908050537,-0.4136505126956889,-0.25965881347680153,0.009629821777352042,0.25311012861640486,0.43120211362166,0.5,0.0,2722.3699188232417,-156.48460388197068,752.0110073877897,-4.449483218297205,0.6702726608594208,39,41318
Crazyflie,2072.48,0.6426231079101563,0.49034695434570313,0.41638418579101566,3.0598819255828857,-0.4131866455081884,-0.24104614257834386,0.007470703125007772,0.2444360409302876,0.4361777411724798,0.5,0.0,2717.5139617919913,-121.39892578137629,765.5985771967373,-4.258447513338952,0.5718947338247382,31,41362
Crazyflie,2072.5,0.6344390258789062,0.4859212036132813,0.4165892333984375,3.0598819255828857,-0.4092041015628769,-0.22128753662129383,0.010252380371101764,0.2356641820869021,0.4409789034424566,0.5,0.0,2710.849914550781,-166.60118103040367,779.1528267694789,-4.023014209850459,0.45441586390877975,31,41323
Crazyflie,2072.52,0.6263319091796875,0.4819026794433594,0.4167715759277344,3.0598819255828857,-0.40535583496130406,-0.20092620849627663,0.009117126464852597,0.2267980607128292,0.44560368003069706,0.5,0.0,2704.9237823486324,-148.1533050538547,792.6774456812097,-3.76047609188067,0.3346400306564656,31,41349
Crazyflie,2072.54,0.6182262573242188,0.478291015625,0.41697586059570313,1.9329837560653687,-0.40528259277380574,-0.18058319091813538,0.010214233398446034,0.2178412231384052,0.45005022108822873,0.5,0.0,2698.2845306396484,-165.98129272474807,806.1688683343957,-3.4856577485978284,0.22994771191269786,19,41338
Crazyflie,2072.56,0.6101787109375,0.47497796630859374,0.41719464111328125,1.9329837560653687,-0.4023773193363052,-0.165652465820463,0.010939025878915999,0.2087972519792369,0.45431674805791505,0.5,0.0,2691.1741638183594,-177.75917053238499,819.6247391534753,-3.3202938923842367,0.13489547683453257,19,41333
Crazyflie,2072.58,0.6022296752929688,0.47212786865234374,0.41746038818359377,0.6819801330566406,-0.39745178222692146,-0.14250488281262935,0.013287353515637906,0.19966976470320327,0.4584015543858544,0.5,0.0,2682.5373840332027,-215.91949462911597,833.037426073629,-2.9525717428693925,-0.08193244502116613,7,41300
Crazyflie,2072.6,0.5942589111328125,0.46952008056640626,0.417630126953125,0.6819801330566406,-0.3985382080081773,-0.13038940429699256,0.008486938476570064,0.19046241218351656,0.462303006203979,0.5,0.0,2677.020874023437,-137.91275024426355,846.4225304437341,-2.8241362820954325,-0.08690297525637904,7,41386
Crazyflie,2072.62,0.5863699340820313,0.4671614990234375,0.4178149108886719,0.6819801330566406,-0.3944488525394176,-0.11792907714854485,0.009239196777352597,0.18117887723842155,0.4660195429835802,0.5,0.0,2671.015396118163,-150.1369476319797,859.7776074243128,-2.679304374173491,-0.21431790172298223,7,41381
Crazyflie,2072.639999,0.578494384765625,0.46516552734375,0.4181183776855469,-0.5295794606208619,-0.39379715567617013,-0.09980357416259467,0.015174098548602306,0.17182287315811745,0.4695496781594994,0.5,0.0,2661.152725219726,-246.5791014147875,873.0827057622953,-2.3849776123860154,-0.3171158574319329,-5,41288
Crazyflie,2072.659999,0.5706094360351562,0.4633036193847656,0.41838296508789063,-0.5295794606208619,-0.39424743652379574,-0.09309539794930406,0.013229370117199643,0.16239861511135492,0.47289183732637424,0.5,0.0,2652.5536346435542,-214.9772644044942,886.345473935501,-2.3502767562402767,-0.34175487174737895,-5,41324
Crazyflie,2072.679999,0.5627183227539062,0.46177899169921877,0.41870071411132814,-1.5526541471481494,-0.39455566406286025,-0.07623138427741144,0.01588745117188985,0.15290893023429625,0.4760450178865473,0.5,0.0,2642.2267913818355,-258.17108154321005,899.5566078923981,-2.063814030298086,-0.40565894503867206,-16,41284
Crazyflie,2072.699999,0.5548201904296876,0.460373046875,0.41892959594726564,-1.5526541471481494,-0.39490661621129186,-0.07029724121100099,0.011444091796885408,0.14335808382390253,0.4790077867867483,0.5,0.0,2634.7881317138667,-185.9664916993879,912.7305485509555,-2.0271418294115677,-0.43451006814423376,-16,41362
Crazyflie,2072.719999,0.5469815063476563,0.4592603759765625,0.41923989868164063,-1.5526541471481494,-0.3919342041019192,-0.05563354492192704,0.0155151367187636,0.133749896091395,0.4817789589589203,0.5,0.0,2624.7032928466792,-252.12097167990848,925.854065015177,-1.7772318379792902,-0.5364527369118113,-16,41298
Crazyflie,2072.739999,0.5391489257812501,0.4582586059570313,0.4196102294921875,-2.296260118484496,-0.3916290283206678,-0.0500885009766067,0.018516540527360924,0.12408821018375918,0.48435742597114295,0.5,0.0,2612.667541503906,-300.89378356961504,938.9174027226846,-1.7231663552180216,-0.6065431301432634,-23,41251
Crazyflie,2072.7599999999998,0.5312720947265626,0.4574715576171875,0.4198224182128906,-2.296260118484496,-0.39382186164393956,-0.03935044946997977,0.010608905589947313,0.11437689064653735,0.48674215647099034,0.5,0.0,2605.7714080810547,-172.39471583664385,951.9469112058543,-1.5502284551216858,-0.5913892742041877,-23,41385
Crazyflie,2072.7799999999997,0.5234584350585938,0.4567772521972656,0.42009939575195315,-2.698318004608141,-0.39068298339879354,-0.03471527099612563,0.013848876953139017,0.10461933294586977,0.4889323012176238,0.5,0.0,2596.7696380615225,-225.04425048850902,964.9307593961502,-1.5004772032613403,-0.7167235255523519,-27,41337
Crazyflie,2072.7999999999997,0.51560302734375,0.45617919921875,0.42037493896484374,-2.698318004608141,-0.3927703857425488,-0.02990264892580807,0.013777160644541693,0.09482041564908684,0.4909267651861471,0.5,0.0,2587.8144836425786,-223.87886047380252,977.8698318143513,-1.4498078057748407,-0.7110340685707538,-27,41342
Crazyflie,2072.8199999999997,0.507850830078125,0.45568829345703127,0.4206705017089844,-2.698318004608141,-0.3876098632815989,-0.0245452880859588,0.014778137207046689,0.08498357145029972,0.49272486499419915,0.5,0.0,2578.208694458007,-240.1447296145087,990.7608752866296,-1.3717472333267768,-0.8735864811337538,-27,41329
Crazyflie,2072.8399999999997,0.5000268859863282,0.4553444519042969,0.42095169067382815,-2.782062768936183,-0.3911972045901995,-0.01719207763673412,0.014059448242200198,0.07511273495603171,0.4943258814258312,0.5,0.0,2569.070053100585,-228.46603393575322,1003.6062255521208,-1.2483782740883789,-0.834311459506738,-28,41344
Crazyflie,2072.86,0.49221966552734375,0.4549727478027344,0.4211859130859375,-2.782062768936183,-0.39036102294069974,-0.01858520507771977,0.011711120605212011,0.06521185436927113,0.4957291740958171,0.5,0.0,2561.4578247070312,-190.30570983469516,1016.4135146759355,-1.3176416349598357,-0.9049035291275516,-28,41388
Crazyflie,2072.88,0.4843555603027344,0.45469970703125,0.42147576904296874,-2.567791461944562,-0.39320526123082467,-0.013652038574231345,0.014492797851575059,0.0552848899100167,0.49693418170582443,0.5,0.0,2552.037506103516,-235.5079650880947,1029.1737022064415,-1.2427128502372502,-0.8785320469043517,-26,41346
Crazyflie,2072.9,0.47647512817382814,0.4544249572753906,0.421724365234375,-2.567791461944562,-0.39402160644567175,-0.013737487792982176,0.012429809570324782,0.04533581223214577,0.49794042226882085,0.5,0.0,2543.958129882812,-201.9844055177777,1041.893492855844,-1.2727120652222979,-0.9086068614495296,-26,41384
Crazyflie,2072.92,0.46854257202148436,0.45420947265625,0.42202020263671874,-2.567791461944562,-0.3966278076175499,-0.010774230957040583,0.014791870117200198,0.03536860083385145,0.4987474933020272,0.5,0.0,2534.3434143066406,-240.36788940450322,1054.5652099273657,-1.2288659775767528,-0.893528486948034,-26,41349
Crazyflie,2072.94,0.46061392211914065,0.4539586791992188,0.42242645263671874,-2.0915930271148504,-0.396432495117546,-0.012539672851572283,0.02031250000001832,0.02538724246679868,0.49935507198779105,0.5,0.0,2521.140289306641,-330.0781250002977,1067.1709113738875,-1.2944627353495022,-0.9369655683653613,-21,41258
Crazyflie,2072.96,0.4526809997558594,0.4537193298339844,0.4227535400390625,-2.0915930271148504,-0.39664611816442313,-0.011967468261730788,0.016354370117203528,0.01539572954125126,0.499762915302739,0.5,0.0,2510.5099487304683,-265.75851440455733,1079.7234611175284,-1.29463696511967,-0.9792836620492066,-21,41324
Crazyflie,2072.98,0.44466326904296877,0.4534537048339844,0.4231338806152344,-1.4505677223205469,-0.4008865356448964,-0.013281250000011657,0.019017028808610646,0.0053980585291610065,0.4999708601149829,0.5,0.0,2498.148880004883,-309.026718139923,1092.2142055175414,-1.3477733423516627,-0.9139855146815694,-15,41281
Crazyflie,2073.0,0.43666781616210937,0.4531831970214844,0.42350100708007815,-1.4505677223205469,-0.39977264404333357,-0.013525390625011657,0.018356323242205194,-0.004601771634367754,0.4999788232493704,0.5,0.0,2486.21726989746,-298.2902526858344,1104.6452918670172,-1.3579377682050924,-0.9857312722438945,-15,41293
Crazyflie,2073.02,0.4285686950683594,0.45293521118164065,0.42389578247070314,-1.4505677223205469,-0.40495605468786805,-0.012399291992199088,0.019738769531267485,-0.014599761150598908,0.4997868015207539,0.5,0.0,2473.387069702148,-320.7550048830966,1117.0122272155168,-1.3353255279221508,-0.9098583779584385,-15,41270
Crazyflie,2073.04,0.42047140502929686,0.4526815795898438,0.42434738159179686,-0.7536683678627042,-0.4048645019534937,-0.012681579589854818,0.022579956054706304,-0.02459191095703072,0.4993948717352647,0.5,0.0,2458.710098266602,-366.9242858889774,1129.3057777068386,-1.348994146230547,-0.9391143492190448,-8,41221
Crazyflie,2073.06,0.4123507995605469,0.45240762329101564,0.42478610229492186,-0.7536683678627042,-0.40603027343786857,-0.013697814941419886,0.02193603515627026,-0.03457422432696751,0.4988031906595912,0.5,0.0,2444.4516754150395,-356.46057128939174,1141.5280360839026,-1.364791648374264,-0.9552732292255132,-8,41230
Crazyflie,2073.08,0.4041860961914063,0.4521268310546875,0.42532336425781253,-0.05074038356540055,-0.40823516845740143,-0.01403961181642044,0.02686309814455779,-0.04454270846815705,0.49801199495827486,0.5,0.0,2426.990661621093,-436.5253448490641,1153.6629893919971,-1.3725522913200103,-0.929261658975501,-1,41144
Crazyflie,2073.1,0.3959364013671875,0.45180975341796875,0.4258120422363281,-0.05074038356540055,-0.41248474121131407,-0.01585388183595103,0.024433898925801962,-0.05449337611985422,0.4970216010990469,0.5,0.0,2411.108627319336,-397.0508575442819,1165.718532528583,-1.3987527427101243,-0.8708752310692478,-1,41180
Crazyflie,2073.12,0.38763308715820316,0.4514775390625,0.42636474609375,-0.05074038356540055,-0.4151657104495944,-0.01661071777345325,0.02763519287112008,-0.06442224714767215,0.49583240522624605,0.5,0.0,2393.145751953124,-449.07188415570135,1177.6842612883377,-1.3964789967952689,-0.8466849370724592,-1,41122
Crazyflie,2073.139999,0.37933447265625003,0.45116162109375,0.42687344360351565,0.6028801202774048,-0.41495147266925614,-0.015796688271834572,0.025436147295521162,-0.0743253501355829,0.4944448830023656,0.5,0.0,2376.6130828857417,-413.3373935522189,1189.566732549554,-1.3632721895069049,-0.8728339394880623,6,41153
Crazyflie,2073.159999,0.370865234375,0.45081973266601566,0.42745989990234373,0.6028801202774048,-0.4234619140628858,-0.017094421386733564,0.029322814941430988,-0.08419823111485669,0.49285967361626287,0.5,0.0,2357.5532531738286,-476.49574279825356,1201.3544988154124,-1.362805367806413,-0.7099540062114837,6,41082
Crazyflie,2073.179999,0.36240908813476563,0.45041354370117187,0.4280935974121094,1.0979696512222292,-0.4228073120121038,-0.02030944824220797,0.031684875488311955,-0.0940379283691754,0.4910772526069945,0.5,0.0,2336.958084106445,-514.8792266850693,1213.039289235934,-1.4119184984191666,-0.7440466495377682,11,41035
Crazyflie,2073.199999,0.35384014892578125,0.45008001708984374,0.42856298828125,1.0979696512222292,-0.42844696044960884,-0.01667633056642155,0.023469543457051684,-0.10384001170596885,0.489098407244293,0.5,0.0,2321.702880859375,-381.38008117708983,1224.6478036402202,-1.289032693393536,-0.6453936356427776,11,41165
Crazyflie,2073.219999,0.34534393310546874,0.4496622009277344,0.42918157958984376,1.0979696512222292,-0.42481079101601205,-0.02089080810548606,0.030929565429716296,-0.11360056042259502,0.48692392903991927,0.5,0.0,2301.5986633300777,-502.6054382328898,1236.15579695686,-1.3475034422537393,-0.7566048781111073,11,41035
Crazyflie,2073.239999,0.3367373657226563,0.4493429260253906,0.4298356323242188,1.4222583770751955,-0.4303283691410143,-0.015963745117204085,0.032702636718780806,-0.12331567042970618,0.48455468775616245,0.5,0.0,2280.3419494628893,-531.4178466801881,1247.557506704164,-1.1894036186242998,-0.6519183851813498,14,40996
Crazyflie,2073.2599999999998,0.32806591796875,0.44890747070312503,0.430376708984375,1.4222583770751955,-0.43355071016271884,-0.021771677529548658,0.02705248038397443,-0.13298145581283255,0.48199163105794657,0.5,0.0,2262.7569580078116,-439.6028062395845,1258.8718571833667,-1.2724572190618308,-0.5987785021445848,14,41082
Crazyflie,2073.2799999999997,0.3192932739257813,0.44851815795898436,0.43105780029296875,1.5489720106124878,-0.43863220214883575,-0.01946563720705113,0.03405456542971741,-0.14259452962235347,0.47923564153950376,0.5,0.0,2240.6214904785156,-553.3866882329079,1270.0749646357492,-1.164099297301451,-0.5016952534958549,15,40957
Crazyflie,2073.2999999999997,0.3105906372070313,0.44815725708007814,0.43168255615234374,1.5489720106124878,-0.43513183593789523,-0.018045043945327556,0.031237792968778034,-0.15215008552975204,0.47628809713585024,0.5,0.0,2220.316925048828,-507.61413574264304,1281.1765492609832,-1.0749906728142447,-0.6039112849227559,15,40994
Crazyflie,2073.3199999999997,0.30177127075195315,0.44778570556640623,0.43224957275390624,1.5489720106124878,-0.4409683227543079,-0.01857757568361231,0.028350830078150674,-0.1616447834315796,0.4731500438437661,0.5,0.0,2201.8888854980473,-460.7009887699484,1292.1859936884634,-1.0206131550799311,-0.4870535141200184,15,41033
Crazyflie,2073.3399999999997,0.29294570922851565,0.4474002380371094,0.43281710815429686,1.4660568237304688,-0.4412780761722762,-0.019273376464860367,0.028376770019556682,-0.17107482557526965,0.4698227368427278,0.5,0.0,2183.443984985352,-461.12251281779606,1303.1032136133804,-0.9686215014784144,-0.49659940005258313,15,41025
Crazyflie,2073.36,0.2840747375488281,0.4470254516601563,0.4334564208984375,1.4660568237304688,-0.443548583974695,-0.018739318847245744,0.03196563720633431,-0.180436440069697,0.46630750701117246,0.5,0.0,2162.6663208007812,-519.4416046029326,1313.9165452176203,-0.8833920674118236,-0.45797582791609026,15,40957
Crazyflie,2073.38,0.27521109008789063,0.44661529541015627,0.4339512023925781,1.14715850353241,-0.4431823730472773,-0.02050781250001943,0.02473907470705335,-0.1897258823940941,0.4626057603940772,0.5,0.0,2146.5859222412114,-402.00996398961695,1324.6494748288167,-0.8462929730097217,-0.48173215937611996,11,41069
Crazyflie,2073.4,0.26621475219726565,0.4462376403808594,0.4344754943847656,1.14715850353241,-0.4498168945316583,-0.018882751464860924,0.026214599609399286,-0.19893943689496632,0.4587189776409013,0.5,0.0,2129.546432495117,-425.9872436527384,1335.2972069912826,-0.7257051482323842,-0.33704357685969377,11,41039
Crazyflie,2073.42,0.25724771118164064,0.445923095703125,0.43501345825195314,1.14715850353241,-0.4483520507816583,-0.01572723388673412,0.026898193359400396,-0.2080734182735712,0.45464871341284085,0.5,0.0,2112.062606811523,-437.09564209025643,1345.8575200253306,-0.5680917232207519,-0.37760492032982135,11,41021
Crazyflie,2073.44,0.24825794982910157,0.44556732177734376,0.43550259399414065,0.7083685398101807,-0.4494880676273621,-0.017788696289077834,0.02445678710939762,-0.21712417305914203,0.45039659576131763,0.5,0.0,2096.165695190429,-397.4227905277113,1356.3383485012732,-0.5228295035699992,-0.3578284950597201,7,41055
Crazyflie,2073.46,0.23924275207519533,0.44512908935546874,0.43600518798828125,0.7083685398101807,-0.45075988769572223,-0.021911621093770817,0.025129699707052797,-0.22608808107043973,0.44596432547669806,0.5,0.0,2079.8313903808594,-408.35762023960797,1366.737505453168,-0.5254082587471536,-0.3274708504891469,7,41038
Crazyflie,2073.48,0.23025173950195313,0.4447846069335938,0.436466552734375,0.18063263595104218,-0.44955062866251866,-0.0172241210937636,0.02306823730470908,-0.234961556863777,0.44135367540799986,0.5,0.0,2064.837036132812,-374.85885620152254,1377.0616906338228,-0.31724672206220494,-0.357963519820778,2,41067
Crazyflie,2073.5,0.22121562194824218,0.444364013671875,0.4368843688964844,0.18063263595104218,-0.4518058776859583,-0.021029663085958248,0.020890808105488837,-0.2437410511671479,0.436566489753776,0.5,0.0,2051.258010864257,-339.4756317141936,1387.3179806881346,-0.3042069678061552,-0.30043647145956354,2,41099
Crazyflie,2073.52,0.212088134765625,0.4440115356445313,0.437306884765625,0.18063263595104218,-0.4563743591312745,-0.01762390136720242,0.021125793457049465,-0.2524230522998895,0.43160468332445984,0.5,0.0,2037.526245117187,-343.2941436770538,1397.5056119137114,-0.1201532722740098,-0.18610448586546702,2,41092
Crazyflie,2073.54,0.20306686401367188,0.44362026977539065,0.43768670654296876,-0.3659738004207399,-0.45106353759806567,-0.019563293457048908,0.018991088867204638,-0.2610040875773071,0.4264702407764666,0.5,0.0,2025.1820373535152,-308.60519409207535,1407.6315221004697,-0.053402682910597875,-0.29845516258737087,-4,41124
Crazyflie,2073.56,0.1939778289794922,0.4432725524902344,0.4381450805664063,-0.3659738004207399,-0.45445175170939744,-0.01738586425782867,0.02291870117189651,-0.2694807246997021,0.4211652158183572,0.5,0.0,2010.284881591796,-372.4288940433183,1417.6829465084195,0.10952446200622572,-0.20572531561535454,-4,41056
Crazyflie,2073.58,0.18488645935058595,0.4427973327636719,0.4385628662109375,-0.846434473991392,-0.45456848144572587,-0.02376098632814679,0.0208892822265795,-0.27784957312524583,0.415691730389382,0.5,0.0,1996.7068481445317,-339.4508361819169,1427.6664807491331,0.07940980717958747,-0.18603369730319452,-8,41085
Crazyflie,2073.6,0.1758177947998047,0.4423408203125,0.4388797912597656,-0.846434473991392,-0.4534332275394753,-0.022825622558615644,0.015846252441420995,-0.2861072854261512,0.41005197381073394,0.5,0.0,1986.4067840576174,-257.50160217309116,1437.5985146694122,0.21973246515614628,-0.1913938078445984,-8,41167
Crazyflie,2073.62,0.16670877075195312,0.4418804626464844,0.4393351745605469,-0.846434473991392,-0.4554512023929931,-0.023017883300800852,0.022769165039083942,-0.2942505586275993,0.4042482019098486,0.5,0.0,1971.6068267822263,-369.9989318851141,1447.4565488033145,0.3367651502677759,-0.12127533161556682,-8,41049
Crazyflie,2073.639999,0.15769569396972657,0.4413741455078125,0.4396578979492188,-1.2125675678253165,-0.4506763729277647,-0.02531712278960968,0.01613697628232989,-0.30227613552888505,0.3982827361181038,0.5,0.0,1961.1183166503897,-262.2258645878607,1457.2616501070354,0.4117736324546974,-0.20436810011139456,-12,41156
Crazyflie,2073.659999,0.148654541015625,0.44083819580078126,0.440072265625,-1.2125675678253165,-0.4520576477054898,-0.026797485351586717,0.02071838378908061,-0.3101804138481822,0.3921582727228516,0.5,0.0,1947.6513671874995,-336.6737365725599,1466.9999069429641,0.5046831577279354,-0.1446768747426399,-12,41078
Crazyflie,2073.679999,0.1395404052734375,0.44034182739257816,0.44035336303710937,-1.48739719390867,-0.4557067871097895,-0.024818420410177934,0.014054870605480512,-0.31796102242046487,0.3858766489713165,0.5,0.0,1938.5157012939455,-228.39164733905832,1476.692485449425,0.6802923255319896,-0.023479653276872823,-15,41187
Crazyflie,2073.699999,0.13050042724609376,0.4397264404296875,0.4407666015625,-1.48739719390867,-0.45199890136759824,-0.030769348144560567,0.020661926269551684,-0.3256144508232034,0.3794406797051466,0.5,0.0,1925.085449218749,-335.75630188021483,1486.31791269551,0.6786869792544142,-0.07674037403549658,-15,41076
Crazyflie,2073.719999,0.12147206115722657,0.43907156372070316,0.4411980285644531,-1.48739719390867,-0.45141830444376996,-0.03274383544924689,0.02157135009767405,-0.33313763778708105,0.37285293922623647,0.5,0.0,1911.0640716552737,-350.5344390872033,1495.8732330537775,0.7688256916403574,-0.05320284389419232,-15,41056
Crazyflie,2073.739999,0.1124491195678711,0.43835891723632814,0.44162002563476566,-1.6446278095245486,-0.451147079468184,-0.03563232421878358,0.021099853515646232,-0.34052757413762,0.3661160625429424,0.5,0.0,1897.3491668701163,-342.8726196292513,1505.3599788881195,0.8399093653945311,-0.01783342493107345,-16,41060
Crazyflie,2073.7599999999998,0.10348743438720703,0.43760745239257814,0.44204132080078123,-1.6446278095245486,-0.448061855943417,-0.03757136361957119,0.021063705115664685,-0.3477813039988113,0.3592327443161138,0.5,0.0,1883.6570739746098,-342.2852081295511,1514.7787351721977,0.9368679127219415,-0.046627215826900714,-16,41056
Crazyflie,2073.7799999999997,0.0944905776977539,0.43684161376953123,0.4424351806640625,-1.6150004863739091,-0.44984283447306567,-0.03829193115238035,0.01969299316408172,-0.35489627818094494,0.35220538288520425,0.5,0.0,1870.8566284179683,-320.0111389163279,1524.133018314279,1.0614166779785146,0.04038057085046434,-16,41075
Crazyflie,2073.7999999999997,0.08551502990722656,0.4359844970703125,0.4428039855957031,-1.6150004863739091,-0.4487773895267751,-0.042855834960975454,0.01844024658204669,-0.3618689393511651,0.3450374917785932,0.5,0.0,1858.870468139649,-299.6540069582587,1533.4273706549689,1.1008305925241124,0.06298494645050244,-16,41093
Crazyflie,2073.8199999999997,0.07654958343505859,0.43512734985351564,0.4432704467773438,-1.6150004863739091,-0.44827232360880637,-0.042857360839882015,0.023323059082055016,-0.3686968577704999,0.3377315902757096,0.5,0.0,1843.710479736327,-378.999710083394,1542.645923053642,1.247477057779653,0.10454772033302417,-16,41007
Crazyflie,2073.8399999999997,0.06757651519775391,0.4342003173828125,0.44370211791992187,-1.4064457416534226,-0.4486534118656419,-0.046351623535199026,0.02158355712892377,-0.3753773023626193,0.33029060063974375,0.5,0.0,1829.6811676025393,-350.7328033450113,1551.7943288916465,1.3155307718003342,0.1629634088888848,-14,41031
