Crazyflie name,QTM packet timestamp (s),QTM_x (m),QTM_y (m),QTM_z (m),cf_yaw (°),QTM_vx (m/s),QTM_vy (m/s),QTM_vz (m/s),x_g (m),y_g (m),z_g (m),yaw_g (°),roll_c (°),pitch_c (°),yaw_rate_c (°/s),thrust_c (PWM)
cf9,1426.6599999999999,0.6486620483398438,0.5065583190917969,0.016632213592529296,-0.034325480461120605,0.0003295898437508327,-0.0015914916992169111,0.000489330291748435,0.6486554565429687,0.5065901489257812,0.4,-0.034325480461120605,None,None,None,None
cf9,1426.6799999999998,0.6486817626953125,0.5065858764648438,0.01661161804199219,-0.034325480461120605,0.0009857177734393734,0.001377868652342605,-0.001029777526856297,0.6486554565429687,0.5065901489257812,0.4,-0.034325480461120605,None,None,None,None
cf9,1426.7,0.6486724853515625,0.5065825500488281,0.01661735534667969,-0.03439907357096672,-0.00046386718749528153,-0.00016632080078008774,0.0002868652343719816,0.6486554565429687,0.5065901489257812,0.4,-0.034325480461120605,None,None,None,None
cf9,1426.72,0.6486644897460938,0.5065615234375,0.016659698486328124,-0.03439907357096672,-0.0003997802734360428,-0.001051330566404897,0.0021171569824236965,0.6486554565429687,0.5065901489257812,0.4,-0.034325480461120605,None,None,None,None
cf9,1426.74,0.6486723022460937,0.5065877380371094,0.016678722381591796,-0.02951883152127266,0.00039062499999666935,0.0013107299804705195,0.0009511947631844741,0.6486554565429687,0.5065901489257812,0.4,-0.034325480461120605,None,None,None,None
cf9,1426.76,0.6486387939453125,0.5065636291503907,0.016790321350097656,-0.02951883152127266,-0.0016754150390611816,-0.0012054443359399286,0.0055799484252980645,0.6486554565429687,0.5065901489257812,0.4,-0.034325480461120605,None,None,None,None
cf9,1426.78,0.648644287109375,0.5065321960449218,0.016928598403930663,-0.02951883152127266,0.0002746582031256939,-0.0015716552734427042,0.006913852691656621,0.6486554565429687,0.5065901489257812,0.4,-0.034325480461120605,None,None,None,None
cf9,1426.8,0.6486873779296876,0.5065184631347657,0.017099945068359376,-0.01323907170444727,0.002154541015627359,-0.0006866455078086836,0.00856733322144343,0.6486554565429687,0.5065901489257812,0.4,-0.034325480461120605,None,None,None,None
cf9,1426.82,0.6487088623046875,0.5065181274414062,0.017671024322509766,-0.01323907170444727,0.0010742187499977796,-1.6784667972184754e-05,0.028553962707545486,0.6486554565429687,0.5065901489257812,0.4,-0.034325480461120605,None,None,None,None
cf9,1426.84,0.648785400390625,0.5064070129394531,0.01919550323486328,-0.01323907170444727,0.0038269042968809676,-0.005555725097660726,0.07622394561774506,0.6486554565429687,0.5065901489257812,0.4,-0.034325480461120605,None,None,None,None
cf9,1426.86,0.648943603515625,0.5062315673828125,0.022032148361206056,-0.23994599282741547,0.00791015625000333,-0.008772277832038917,0.14183225631726776,0.6486554565429687,0.5065901489257812,0.4,-0.034325480461120605,None,None,None,None
cf9,1426.8799999999999,0.6491155395507813,0.5059562683105469,0.026377937316894532,-0.23994599282741547,0.008596801757823116,-0.013764953613294746,0.21728944778462142,0.6486554565429687,0.5065901489257812,0.4,-0.034325480461120605,None,None,None,None
cf9,1426.8999999999999,0.64936083984375,0.5056136169433594,0.03250449752807617,-0.656011700630188,0.012265014648449365,-0.017132568359389293,0.30632801055936065,0.6486554565429687,0.5065901489257812,0.4,-0.034325480461120605,None,None,None,None
cf9,1426.9199999999998,0.649673828125,0.5051838989257813,0.04024983596801758,-0.656011700630188,0.015649414062510546,-0.021485900878923214,0.3872669219974226,0.6486554565429687,0.5065901489257812,0.4,-0.034325480461120605,None,None,None,None
cf9,1426.9399999999998,0.65008642578125,0.5047838134765625,0.04965980911254883,-0.656011700630188,0.02062988281251943,-0.020004272460956582,0.4704986572269904,0.6486554565429687,0.5065901489257812,0.4,-0.034325480461120605,None,None,None,None
cf9,1426.96,0.6504697265625,0.5044109497070313,0.0604937973022461,-1.148152470588684,0.019165039062301548,-0.01864318847636866,0.5416994094791976,0.6486554565429687,0.5065901489257812,0.4,-0.034325480461120605,None,None,None,None
cf9,1426.98,0.6509197387695312,0.5039508972167969,0.07279212188720703,-1.148152470588684,0.02250061035158172,-0.02300262451174078,0.6149162292486059,0.6486554565429687,0.5065901489257812,0.4,-0.034325480461120605,None,None,None,None
cf9,1427.0,0.6514463500976563,0.5034862365722657,0.08606163024902344,-1.6184351444244385,0.02633056640627581,-0.02323303222658172,0.6634754180914239,0.6486554565429687,0.5065901489257812,0.4,-0.034325480461120605,None,None,None,None
cf9,1427.02,0.6520636596679688,0.5029871826171876,0.10045122528076172,-1.6184351444244385,0.030865478515651783,-0.024952697753927656,0.7194797515875685,0.6486554565429687,0.5065901489257812,0.4,-0.034325480461120605,None,None,None,None
cf9,1427.04,0.6527238769531251,0.5026351623535157,0.11527460479736329,-1.6184351444244385,0.03301086425784532,-0.017601013183609536,0.7411689758307524,0.6486554565429687,0.5065901489257812,0.4,-0.034325480461120605,None,None,None,None
cf9,1427.06,0.6533593139648438,0.5022954406738281,0.1306827392578125,-2.0623841285705566,0.03177185058596657,-0.016986083984392625,0.7704067230231619,0.6486554565429687,0.5065901489257812,0.4,-0.034325480461120605,None,None,None,None
cf9,1427.08,0.6540119018554688,0.5020714721679688,0.14619371032714845,-2.0623841285705566,0.032629394531276924,-0.011198425292978846,0.7755485534675023,0.6486554565429687,0.5065901489257812,0.4,-0.034325480461120605,None,None,None,None
cf9,1427.1,0.6547669677734375,0.5019882507324219,0.16178617858886718,-2.3738348484039307,0.03775329589846935,-0.004161071777345936,0.7796234130866455,0.6486554565429687,0.5065901489257812,0.4,-0.034325480461120605,None,None,None,None
cf9,1427.12,0.6555128173828125,0.5018629760742188,0.17727357482910155,-2.3738348484039307,0.03729248046878747,-0.006263732910161281,0.774369812012423,0.6486554565429687,0.5065901489257812,0.4,-0.034325480461120605,None,None,None,None
cf9,1427.1399999999999,0.6562140502929688,0.5018747253417969,0.19237882995605468,-2.3738348484039307,0.0350616455078431,0.0005874633789043418,0.7552627563483433,0.6486554565429687,0.5065901489257812,0.4,-0.034325480461120605,None,None,None,None
cf9,1427.1599999999999,0.657020263671875,0.5019639892578125,0.20717144775390625,-2.5685131549835205,0.04031066894535143,0.004463195800784199,0.7396308898932512,0.6486554565429687,0.5065901489257812,0.4,-0.034325480461120605,None,None,None,None
cf9,1427.1799999999998,0.6578189086914062,0.5020608520507812,0.22137327575683594,-2.5685131549835205,0.039932250976596154,0.004843139648440483,0.71009140014713,0.6486554565429687,0.5065901489257812,0.4,-0.034325480461120605,None,None,None,None
cf9,1427.2,0.6586230468750001,0.5022606811523438,0.2351110076904297,-2.6333260536193848,0.0402069091792703,0.009991455078024316,0.6868865966725037,0.6486554565429687,0.5065901489257812,0.4,-0.034325480461120605,None,None,None,None
cf9,1427.22,0.6594741821289063,0.5025285949707031,0.24809336853027344,-2.6333260536193848,0.04255676269535032,0.013395690917978846,0.6491180419927778,0.6486554565429687,0.5065901489257812,0.4,-0.034325480461120605,None,None,None,None
cf9,1427.24,0.6602980346679688,0.5028966979980469,0.26035269165039066,-2.6333260536193848,0.04119262695316122,0.01840515136720686,0.612966156006418,0.6486554565429687,0.5065901489257812,0.4,-0.034325480461120605,None,None,None,None
cf9,1427.26,0.6611307983398438,0.5032904663085938,0.27180789184570314,-2.676844358444214,0.04163818359378858,0.019688415527359258,0.5727600097661453,0.6486554565429687,0.5065901489257812,0.4,-0.034325480461120605,None,None,None,None
cf9,1427.28,0.6619456176757813,0.5037227478027344,0.2825712890625,-2.676844358444214,0.040740966796913164,0.02161407470705224,0.5381698608403328,0.6486554565429687,0.5065901489257812,0.4,-0.034325480461120605,None,None,None,None
cf9,1427.3,0.6628804321289062,0.504250732421875,0.2925256652832031,-2.6611921787261963,0.04674072265628913,0.02639923095705446,0.49771881103560817,0.6486554565429687,0.5065901489257812,0.4,-0.034325480461120605,None,None,None,None
cf9,1427.32,0.6636342163085938,0.5047695617675781,0.301602783203125,-2.6611921787261963,0.03768920898441039,0.025941467285180153,0.453855895996507,0.6486554565429687,0.5065901489257812,0.4,-0.034325480461120605,None,None,None,None
cf9,1427.34,0.6644319458007812,0.5054134826660156,0.30981939697265626,-2.600769519805908,0.03988647460941039,0.03219604492190206,0.41083068847693643,0.6486554565429687,0.5065901489257812,0.4,-0.034325480461120605,None,None,None,None
cf9,1427.36,0.6653016967773437,0.5060615539550781,0.3173057556152344,-2.600769519805908,0.04348754882816455,0.03240356445315567,0.37431793212924686,0.6486554565429687,0.5065901489257812,0.4,-0.034325480461120605,None,None,None,None
cf9,1427.3799999999999,0.6661034545898438,0.5067011108398438,0.3240819396972656,-2.600769519805908,0.040087890625037745,0.03197784423831362,0.3388092041018698,0.6486554565429687,0.5065901489257812,0.4,-0.034325480461120605,None,None,None,None
cf9,1427.3999999999999,0.6668046264648437,0.5074447021484375,0.33007583618164066,-2.517200231552124,0.035058593750029975,0.037179565429718515,0.2996948242190245,0.6486554565429687,0.5065901489257812,0.4,-0.034325480461120605,None,None,None,None
cf9,1427.4199999999998,0.6675117797851563,0.5081379699707032,0.33541021728515624,-2.517200231552124,0.03535766601566066,0.03466339111331362,0.2667190551760218,0.6486554565429687,0.5065901489257812,0.4,-0.034325480461120605,None,None,None,None
cf9,1427.4399999999998,0.6683215942382813,0.5089938659667969,0.34024069213867186,-2.421635389328003,0.040490722656286914,0.04279479980472407,0.24152374267600069,0.6486554565429687,0.5065901489257812,0.4,-0.034325480461120605,None,None,None,None
cf9,1427.46,0.6690616455078126,0.5097373962402344,0.34438366699218753,-2.421635389328003,0.03700256347617548,0.0371765136714883,0.20714874267361683,0.6486554565429687,0.5065901489257812,0.4,-0.034325480461120605,None,None,None,None
cf9,1427.48,0.6697056884765625,0.5105609130859375,0.3480643615722656,-2.421635389328003,0.03220214843752831,0.04117584228519459,0.18403472900407142,0.6486554565429687,0.5065901489257812,0.4,-0.034325480461120605,None,None,None,None
cf9,1427.5,0.6703402099609375,0.5113804016113281,0.3512895202636719,-2.3617143630981445,0.031726074218775255,0.04097442626956723,0.16125793457046023,0.6486554565429687,0.5065901489257812,0.4,-0.034325480461120605,None,None,None,None
cf9,1427.52,0.6708212280273438,0.5122139282226562,0.3540992431640625,-2.3617143630981445,0.024050903320338105,0.04167633056644154,0.14048614501965825,0.6486554565429687,0.5065901489257812,0.4,-0.034325480461120605,None,None,None,None
cf9,1427.54,0.671405517578125,0.5130173950195313,0.3565660095214844,-2.299189567565918,0.029214477539090046,0.04017333984378858,0.12333831787120612,0.6486554565429687,0.5065901489257812,0.4,-0.034325480461120605,None,None,None,None
cf9,1427.56,0.671966064453125,0.5138618164062501,0.35887277221679686,-2.299189567565918,0.028027343750023314,0.042221069335978786,0.1153381347657295,0.671405517578125,0.5130173950195313,0.4,-2.299189567565918,None,None,None,None
cf9,1427.58,0.6724041137695312,0.5146698608398438,0.3608594665527344,-2.299189567565918,0.021902465820331445,0.04040222167972296,0.0993347167969659,0.671405517578125,0.5130173950195313,0.4,-2.299189567565918,None,None,None,None
cf9,1427.6,0.6728666381835937,0.5153732299804688,0.36272354125976564,-2.299189567565918,0.023126220703144566,0.035168457031280256,0.09320373535164778,0.671405517578125,0.5130173950195313,0.4,-2.299189567565918,None,None,None,None
cf9,1427.62,0.673233154296875,0.5161485595703125,0.36443835449218753,-2.264150619506836,0.018325805664082276,0.03876647949222129,0.08574066162117282,0.671405517578125,0.5130173950195313,0.4,-2.299189567565918,None,None,None,None
cf9,1427.6399999999999,0.673621826171875,0.5169505615234375,0.3661846313476563,-2.264150619506836,0.019433593750018872,0.040100097656290246,0.08731384277351653,0.671405517578125,0.5130173950195313,0.4,-2.299189567565918,None,None,None,None
cf9,1427.6599999999999,0.6738543090820313,0.5175060424804687,0.36756573486328126,-2.264150619506836,0.011624145507820895,0.027774047851583942,0.0690551757813119,0.671405517578125,0.5130173950195313,0.4,-2.299189567565918,None,None,None,None
cf9,1427.6799999999998,0.6741330566406251,0.5181685180664063,0.3691339111328125,-2.264150619506836,0.013937377929702973,0.033123779296908726,0.07840881347663446,0.671405517578125,0.5130173950195313,0.4,-2.299189567565918,None,None,None,None
cf9,1427.7,0.6744378662109375,0.518844970703125,0.370887939453125,-2.5286126136779785,0.015240478515461866,0.03382263183557983,0.08770141601470581,0.671405517578125,0.5130173950195313,0.4,-2.299189567565918,None,None,None,None
cf9,1427.72,0.674626708984375,0.5194282836914063,0.37253097534179686,-2.5286126136779785,0.009442138671886518,0.02916564941409116,0.08215179443366838,0.671405517578125,0.5130173950195313,0.4,-2.299189567565918,None,None,None,None
cf9,1427.74,0.6748720092773438,0.5199921875,0.3744136962890625,-2.8807642459869385,0.012265014648449365,0.028195190429711855,0.09413604736336857,0.671405517578125,0.5130173950195313,0.4,-2.299189567565918,None,None,None,None
cf9,1427.76,0.6750589599609376,0.5205057983398438,0.376172607421875,-2.8807642459869385,0.009347534179696313,0.02568054199221352,0.08794555664070564,0.671405517578125,0.5130173950195313,0.4,-2.299189567565918,None,None,None,None
cf9,1427.78,0.6752947998046875,0.52101123046875,0.3782117919921875,-2.8807642459869385,0.011791992187509436,0.025271606445332554,0.10195922851571729,0.671405517578125,0.5130173950195313,0.4,-2.299189567565918,None,None,None,None
cf9,1427.8,0.675444580078125,0.52145166015625,0.3800816650390625,-3.1865129470825195,0.007489013671880968,0.022021484375021095,0.09349365234383354,0.671405517578125,0.5130173950195313,0.4,-2.299189567565918,None,None,None,None
cf9,1427.82,0.6756696166992188,0.5217998657226562,0.3822421875,-3.1865129470825195,0.011251831054697422,0.017410278320328113,0.10802612304697368,0.671405517578125,0.5130173950195313,0.4,-2.299189567565918,None,None,None,None
cf9,1427.84,0.6758088378906251,0.5222197265625,0.38425750732421876,-3.440647840499878,0.006961059570321451,0.02099304199220908,0.10076599121102986,0.671405517578125,0.5130173950195313,0.4,-2.299189567565918,None,None,None,None
cf9,1427.86,0.6760465698242187,0.5225462036132813,0.3864691467285156,-3.440647840499878,0.011886596679694092,0.016323852539077834,0.11058197021494363,0.671405517578125,0.5130173950195313,0.4,-2.299189567565918,None,None,None,None
cf9,1427.8799999999999,0.6762219848632812,0.5228021850585938,0.3886137084960938,-3.440647840499878,0.008770751953132355,0.01279907226563513,0.10722808837900537,0.671405517578125,0.5130173950195313,0.4,-2.299189567565918,None,None,None,None
cf9,1427.8999999999999,0.6764571533203125,0.5230233154296875,0.3907488403320313,-3.6495862007141113,0.01175842285157617,0.011056518554696313,0.106756591796972,0.671405517578125,0.5130173950195313,0.4,-2.299189567565918,None,None,None,None
cf9,1427.9199999999998,0.6766451416015625,0.5232393798828125,0.39295147705078126,-3.6495862007141113,0.009399414062508327,0.01080322265626249,0.11013183593759937,0.671405517578125,0.5130173950195313,0.4,-2.299189567565918,None,None,None,None
cf9,1427.9399999999998,0.67689208984375,0.523457763671875,0.39496090698242187,-3.820380687713623,0.012347412109387074,0.010919189453133466,0.10047149658212164,0.671405517578125,0.5130173950195313,0.4,-2.299189567565918,None,None,None,None
cf9,1427.96,0.6771556396484375,0.5235543823242188,0.3971407775878906,-3.820380687713623,0.013177490234235043,0.004830932617138616,0.10899353027229797,0.6771556396484375,0.5235543823242188,0.39496090698242187,0.0,None,None,None,None
cf9,1427.98,0.6773695068359376,0.523703857421875,0.3989562072753906,-3.820380687713623,0.010693359375012212,0.007473754882815345,0.0907714843750816,0.6773695068359376,0.523703857421875,0.39496090698242187,0.0,None,None,None,None
cf9,1428.0,0.6776837768554688,0.5236897583007812,0.40101089477539065,-3.8953466415405273,0.01571350097657506,-0.0007049560546874307,0.10273437500009548,0.6776837768554688,0.5236897583007812,0.39496090698242187,0.0,None,None,None,None
cf9,1428.02,0.677943115234375,0.5237509155273438,0.4027470703125,-3.8953466415405273,0.012966918945323671,0.0030578613281290246,0.08680877685554712,0.677943115234375,0.5237509155273438,0.39496090698242187,0.0,None,None,None,None
cf9,1428.04,0.6782653198242188,0.523742919921875,0.40447235107421875,-3.8953466415405273,0.016110229492203528,-0.0003997802734360428,0.08626403808601542,0.6782653198242188,0.523742919921875,0.39496090698242187,0.0,None,None,None,None
cf9,1428.06,0.6785482177734375,0.5236920776367188,0.40606219482421874,-3.6181960105895996,0.01414489746095103,-0.002542114257816455,0.07949218750007161,0.6785482177734375,0.5236920776367188,0.39496090698242187,0.0,None,None,None,None
cf9,1428.08,0.678871337890625,0.5236946411132812,0.40761846923828127,-3.6181960105895996,0.016156005859389293,0.00012817382812347345,0.07781372070319731,0.678871337890625,0.5236946411132812,0.39496090698242187,0.0,None,None,None,None
cf9,1428.1,0.6791307983398438,0.5236455688476562,0.4088994750976563,-3.311134099960327,0.012973022460949921,-0.002453613281252498,0.06405029296880912,0.6791307983398438,0.5236455688476562,0.39496090698242187,0.0,None,None,None,None
cf9,1428.12,0.6794544677734375,0.5235642089843751,0.41007696533203125,-3.311134099960327,0.016183471679701862,-0.004067993164062292,0.058874511718801904,0.6794544677734375,0.5235642089843751,0.39496090698242187,0.0,None,None,None,None
cf9,1428.1399999999999,0.6798375244140625,0.5235350341796875,0.4111376953125,-3.311134099960327,0.01915283203126693,-0.001458740234379302,0.05303649902348545,0.6798375244140625,0.5235350341796875,0.39496090698242187,0.0,None,None,None,None
cf9,1428.1599999999999,0.6801597900390625,0.5234915771484375,0.4120145568847656,-3.0202150344848633,0.016113281250011102,-0.002172851562500555,0.043843078613321394,0.6801597900390625,0.5234915771484375,0.39496090698242187,0.0,None,None,None,None
cf9,1428.1799999999998,0.6805277099609375,0.5234312744140626,0.4128063659667969,-3.0202150344848633,0.018395996093767485,-0.0030151367187508326,0.03959045410159837,0.6805277099609375,0.5234312744140626,0.39496090698242187,0.0,None,None,None,None
cf9,1428.2,0.6809312133789063,0.523379638671875,0.41350634765625,-2.756891965866089,0.020175170898228883,-0.002581787109352171,0.03499908447229003,0.6809312133789063,0.523379638671875,0.39496090698242187,0.0,None,None,None,None
cf9,1428.22,0.6813294067382812,0.5233161010742188,0.41406390380859376,-2.756891965866089,0.019909667968766375,-0.0031768798828131243,0.02787780761721352,0.6813294067382812,0.5233161010742188,0.39496090698242187,0.0,None,None,None,None
cf9,1428.24,0.681680908203125,0.5233419799804687,0.41445352172851563,-2.756891965866089,0.017575073242203528,0.0012939453124983346,0.019480895996111202,0.681680908203125,0.5233419799804687,0.39496090698242187,0.0,None,None,None,None
cf9,1428.26,0.682061279296875,0.5233413696289062,0.4147718505859375,-2.521533727645874,0.01901855468751721,-3.051757812569389e-05,0.01591644287110898,0.682061279296875,0.5233413696289062,0.39496090698242187,0.0,None,None,None,None
cf9,1428.28,0.6824811401367188,0.5233028564453125,0.4151497497558594,-2.521533727645874,0.02099304199220908,-0.0019256591796874307,0.018894958496110646,0.6824811401367188,0.5233028564453125,0.39496090698242187,0.0,None,None,None,None
cf9,1428.3,0.6828836059570312,0.523308837890625,0.4154124450683594,-2.3045456409454346,0.02012329101564068,0.0002990722656251388,0.013134765625012212,0.6828836059570312,0.523308837890625,0.39496090698242187,0.0,None,None,None,None
cf9,1428.32,0.6833828125,0.5233002319335938,0.41564007568359373,-2.3045456409454346,0.024960327148460467,-0.0004302978515617367,0.011381530761727458,0.6833828125,0.5233002319335938,0.39496090698242187,0.0,None,None,None,None
cf9,1428.34,0.6837700805664063,0.5233353881835937,0.41576922607421873,-2.3045456409454346,0.019363403320333664,0.0017578124999988898,0.0064575195312558285,0.6837700805664063,0.5233353881835937,0.39496090698242187,0.0,None,None,None,None
cf9,1428.36,0.6841608276367188,0.5233865966796876,0.4158522644042969,-2.126920461654663,0.019537353515642904,0.0025604248046952023,0.004151916503912114,0.6841608276367188,0.5233865966796876,0.39496090698242187,0.0,None,None,None,None
cf9,1428.3799999999999,0.684532958984375,0.52344775390625,0.41596072387695315,-2.126920461654663,0.01860656738282867,0.0030578613281234735,0.005422973632817565,0.684532958984375,0.52344775390625,0.39496090698242187,0.0,None,None,None,None
cf9,1428.3999999999999,0.6849314575195312,0.5235153198242187,0.4159963073730469,-2.0131850242614746,0.019924926757826446,0.003378295898440484,0.0017791748046879856,0.6849314575195312,0.5235153198242187,0.39496090698242187,0.0,None,None,None,None
cf9,1428.4199999999998,0.68530908203125,0.5236104125976563,0.41605801391601566,-2.0131850242614746,0.018881225585954363,0.004754638671882078,0.0030853271484415938,0.68530908203125,0.5236104125976563,0.39496090698242187,0.0,None,None,None,None
cf9,1428.4399999999998,0.6856725463867188,0.5237044677734375,0.41609796142578126,-2.0131850242614746,0.018173217773459358,0.004702758789064512,0.0019973754882819787,0.6856725463867188,0.5237044677734375,0.39496090698242187,0.0,None,None,None,None
cf9,1428.46,0.6860781860351562,0.523788818359375,0.41627279663085937,-1.910570740699768,0.02028198242165927,0.004217529296829689,0.008741760253813841,0.6860781860351562,0.523788818359375,0.39496090698242187,0.0,None,None,None,None
cf9,1428.48,0.6864227294921875,0.523928466796875,0.41633453369140627,-1.910570740699768,0.0172271728515795,0.006982421875007772,0.0030868530273481564,0.6864227294921875,0.523928466796875,0.39496090698242187,0.0,None,None,None,None
cf9,1428.5,0.6868096923828125,0.5240392456054688,0.4164508972167969,-1.8114093542099,0.01934814453126804,0.005538940429694092,0.005818176269536697,0.6868096923828125,0.5240392456054688,0.39496090698242187,0.0,None,None,None,None
cf9,1428.52,0.6871490478515625,0.5241882934570312,0.41655169677734377,-1.8114093542099,0.016967773437513878,0.007452392578129024,0.005039978027348156,0.6803213585627844,0.5241882934570312,0.39496090698242187,0.0,None,None,None,None
cf9,1428.54,0.6875057373046876,0.5243723754882813,0.41667239379882814,-1.8114093542099,0.01783447265626915,0.009204101562512768,0.006034851074224128,0.6582724463433761,0.5243723754882813,0.39496090698242187,0.0,None,None,None,None
cf9,1428.56,0.6878125610351563,0.5245335693359375,0.4167892761230469,-1.6979930400848389,0.015341186523451586,0.008059692382818676,0.005844116210942704,0.6331801045498708,0.5245335693359375,0.39496090698242187,0.0,None,None,None,None
cf9,1428.58,0.6881197509765625,0.5247681274414062,0.41691326904296877,-1.6979930400848389,0.015359497070324782,0.011727905273444925,0.006199645996099544,0.5945037273032253,0.5247681274414062,0.39496090698242187,0.0,None,None,None,None
cf9,1428.6,0.6883612060546875,0.5250194702148437,0.41706973266601566,-1.6216161251068115,0.01207275390626138,0.01256713867188763,0.007823181152351488,0.5569134762490087,0.5250194702148437,0.39496090698242187,0.0,None,None,None,None
cf9,1428.62,0.6885313720703126,0.5252384033203125,0.4171963806152344,-1.6216161251068115,0.00850830078125916,0.010946655273446034,0.006332397460942704,0.5151827881390101,0.5252384033203125,0.39496090698242187,0.0,None,None,None,None
cf9,1428.6399999999999,0.68858251953125,0.5254793701171875,0.41733856201171876,-1.6216161251068115,0.0025573730468765265,0.012048339843761935,0.007109069824224682,0.48715854296677386,0.5254793701171875,0.39496090698242187,0.0,None,None,None,None
cf9,1428.6599999999999,0.6884567260742188,0.5257274780273438,0.4175240783691406,-1.5529764890670776,-0.006289672851567288,0.012405395507825337,0.009275817871101764,0.4870327495097426,0.5257274780273438,0.39496090698242187,0.0,None,None,None,None
cf9,1428.6799999999998,0.6881259155273438,0.52597119140625,0.4177383728027344,-1.5529764890670776,-0.016540527343765266,0.012185668945324782,0.010714721679698534,0.4632446541560474,0.5238784800899763,0.39496090698242187,0.0,None,None,None,None
cf9,1428.7,0.6875411376953126,0.5262530517578126,0.417929443359375,-1.5088199377059937,-0.029238891601257085,0.014093017577978798,0.009553527831929197,0.45061217173285306,0.5107497212379185,0.39496090698242187,0.0,None,None,None,None
cf9,1428.72,0.6867182617187501,0.5265571289062501,0.4181921691894531,-1.5088199377059937,-0.04114379882816233,0.015203857421888739,0.013136291503918774,0.4467492460040316,0.5031599051038936,0.39496090698242187,0.0,None,None,None,None
cf9,1428.74,0.68550927734375,0.5269215087890625,0.4183084716796875,-1.5088199377059937,-0.06044921875005773,0.01821899414063957,0.005815124511723573,0.4363248280269021,0.48133137625492645,0.3762932218390454,0.0,None,None,None,None
cf9,1428.76,0.6839596557617188,0.5272371826171875,0.4184853820800781,-1.4923573732376099,-0.07748107910163057,0.015783691406265822,0.008845520019540028,0.41285246768311473,0.4816470500830515,0.3762932218390454,0.0,None,None,None,None
cf9,1428.78,0.6820010375976563,0.5275472412109375,0.41868865966796875,-1.4923573732376099,-0.09793090820321451,0.015502929687513878,0.010163879394540583,0.4108938495190522,0.47476441950532494,0.3762932218390454,0.0,None,None,None,None
cf9,1428.8,0.6795096435546875,0.5278851928710938,0.41867669677734376,-1.4407905340194702,-0.12456970214855484,0.01689758300782867,-0.0005981445312502776,0.40522331977400056,0.4751023711654812,0.3762932218390454,0.0,None,None,None,None
cf9,1428.82,0.6765910034179687,0.5281741943359375,0.4187110290527344,-1.4407905340194702,-0.14593200683606872,0.014450073242196868,0.0017166137695328113,0.36978445424335116,0.4753913726303249,0.3762932218390454,0.0,None,None,None,None
cf9,1428.84,0.6731396484375,0.5284322509765625,0.41871646118164063,-1.4407905340194702,-0.17256774902359592,0.01290283203126471,0.0002716064453125694,0.3530124255242633,0.470026229244647,0.3762932218390454,0.0,None,None,None,None
cf9,1428.86,0.6692308349609375,0.5286471557617187,0.41847711181640623,-1.384365439414978,-0.1954406738283011,0.010745239257818676,-0.011967468261730788,0.3218621160663723,0.46444286415500624,0.3762932218390454,0.0,None,None,None,None
cf9,1428.8799999999999,0.6647640380859375,0.5288599243164063,0.4182464294433594,-1.384365439414978,-0.22333984375020094,0.010638427734387074,-0.011534118652353152,0.3173953191913723,0.4646556327096938,0.3762932218390454,0.0,None,None,None,None
cf9,1428.8999999999999,0.659662109375,0.5289865112304688,0.41768258666992186,-1.3258936405181885,-0.2550964355471075,0.006329345703132355,-0.028192138671901505,0.3122933904804348,0.4567599385846247,0.3762932218390454,0.0,None,None,None,None
cf9,1428.9199999999998,0.6540281982421875,0.5289469604492187,0.41723764038085936,-1.3258936405181885,-0.2816955566408827,-0.001977539062504996,-0.022247314453145123,0.3066594793476223,0.45672038780337465,0.3762932218390454,0.0,None,None,None,None
cf9,1428.9399999999998,0.6478313598632812,0.5289063720703125,0.41660040283203126,-1.3258936405181885,-0.30984191894559565,-0.002029418945311459,-0.031861877441434316,0.300462640968716,0.45667979942446846,0.3762932218390454,0.0,None,None,None,None
cf9,1428.96,0.64108203125,0.52870361328125,0.4160153503417969,-1.2640705108642578,-0.3374664306605333,-0.01013793945301932,-0.029252624511413212,0.29371331235543474,0.45647704063540595,0.3762932218390454,0.0,None,None,None,None
cf9,1428.98,0.633764892578125,0.5283538208007813,0.4152669677734375,-1.2640705108642578,-0.3658569335940828,-0.017489624023452697,-0.03741912841800161,0.28639617368355974,0.4561272481549372,0.3762932218390454,0.0,None,None,None,None
cf9,1429.0,0.6259033203125001,0.5279456787109376,0.4145177307128906,-1.1632810831069946,-0.3930786132816022,-0.02040710449220575,-0.037461853027379796,0.27853460141793485,0.44738801026996844,0.3762932218390454,0.0,None,None,None,None
cf9,1429.02,0.6175805053710938,0.527488525390625,0.41376431274414066,-1.1632810831069946,-0.4161407470706934,-0.022857666015650674,-0.037670898437531644,0.27021178647652855,0.44693085694965584,0.3762932218390454,0.0,None,None,None,None
cf9,1429.04,0.6086334228515625,0.5269652099609375,0.4131199035644531,-1.025335431098938,-0.44735412597696916,-0.026165771484394845,-0.032220458984407056,0.2612647039569973,0.43557937381275147,0.3762932218390454,0.0,None,None,None,None
cf9,1429.06,0.5992119140625,0.526195068359375,0.41232464599609375,-1.025335431098938,-0.47107543945355645,-0.03850708007816122,-0.03976287841800383,0.25184319516793474,0.4235351781227926,0.3762932218390454,0.0,None,None,None,None
cf9,1429.08,0.5894037475585938,0.5253377075195312,0.41161853027343753,-1.025335431098938,-0.49040832519575334,-0.042868041992227955,-0.0353057861328431,0.2420350286640286,0.42036014559958496,0.3762932218390454,0.0,None,None,None,None
cf9,1429.1,0.579133544921875,0.5242409057617188,0.4111001281738281,-0.9074188470840454,-0.5135101318364096,-0.05484008789067288,-0.025920104980493835,0.23176482602730974,0.39774690410391667,0.3762932218390454,0.0,None,None,None,None
cf9,1429.12,0.5684227294921875,0.5230538940429688,0.4105035095214844,-0.9074188470840454,-0.5355407714848589,-0.059350585937554955,-0.02983093261721352,0.2210540105976223,0.38657455998173584,0.3762932218390454,0.0,None,None,None,None
cf9,1429.1399999999999,0.55739306640625,0.5216697998046875,0.4099905700683594,-0.7912595272064209,-0.5514831542973795,-0.06920471191412446,-0.025646972656274702,0.21002434751168475,0.3749706041075072,0.3762932218390454,0.0,None,None,None,None
cf9,1429.1599999999999,0.546127197265625,0.5200942993164063,0.4096667175292969,-0.7912595272064209,-0.5632934570317621,-0.07877502441413446,-0.016192626953138462,0.19875847837105975,0.3548971232013409,0.3762932218390454,0.0,None,None,None,None
cf9,1429.1799999999998,0.534434814453125,0.5183196411132812,0.4093568115234375,-0.7912595272064209,-0.5846191406255296,-0.08873291015633354,-0.015495300292983842,0.1870660955585598,0.3282973341435993,0.3762932218390454,0.0,None,None,None,None
cf9,1429.2,0.5226955566406251,0.516365478515625,0.4091935119628906,-0.6843829154968262,-0.5869628906188588,-0.09770812988179002,-0.008164978027259217,0.16143051363844407,0.32634317154594306,0.3762932218390454,0.0,None,None,None,None
cf9,1429.22,0.5106226196289063,0.5142173461914062,0.40909863281250003,-0.6843829154968262,-0.6036468505864862,-0.1074066162110343,-0.004743957519533366,0.14935757662672533,0.31279336962693005,0.3762932218390454,0.0,None,None,None,None
cf9,1429.24,0.498403076171875,0.5117524719238281,0.40904251098632816,-0.6843829154968262,-0.6109771728521207,-0.1232437133790187,-0.0028060913085962134,0.12306119200816168,0.30162879123296493,0.3762932218390454,0.0,None,None,None,None
cf9,1429.26,0.48603726196289065,0.5090709533691407,0.4091181335449219,-0.6133079528808594,-0.6182907104497803,-0.13407592773449475,0.0037811279296896512,0.09644030547435606,0.27214198740668116,0.3762932218390454,0.0,None,None,None,None
cf9,1429.28,0.4735844421386719,0.5061745910644532,0.40926300048828124,-0.6133079528808594,-0.622640991211504,-0.14481811523450586,0.007243347167974405,0.0839874856501373,0.2662055753497347,0.3762932218390454,0.0,None,None,None,None
cf9,1429.3,0.4609990234375,0.5028582458496094,0.40944976806640626,-0.5496113896369934,-0.629270935059168,-0.1658172607423412,0.009338378906259714,0.07140206694896539,0.25058242556274474,0.3762932218390454,0.0,None,None,None,None
cf9,1429.32,0.44835064697265625,0.4992552490234375,0.4096936950683594,-0.5496113896369934,-0.632418823242762,-0.18014984130875775,0.012196350097667941,0.05875369048412166,0.21211052444473638,0.3762932218390454,0.0,None,None,None,None
cf9,1429.34,0.435627197265625,0.4953222961425781,0.41002099609375003,-0.5315896272659302,-0.6361724853521419,-0.1966476440431476,0.01636505126954669,0.03159913847497969,0.208177571563877,0.3762932218390454,0.0,None,None,None,None
cf9,1429.36,0.4228866271972656,0.4911139831542969,0.41028668212890623,-0.5315896272659302,-0.6370285034185484,-0.2104156494142527,0.013284301757822007,0.018858568406620313,0.20396925857559578,0.3762932218390454,0.0,None,None,None,None
cf9,1429.3799999999999,0.4100527038574219,0.48645925903320314,0.4105863647460938,-0.5315896272659302,-0.6416961669927703,-0.23273620605489892,0.01498413085939096,0.006024645066776579,0.1862612540397776,0.3762932218390454,0.0,None,None,None,None
cf9,1429.3999999999999,0.3971126708984375,0.481355224609375,0.4109927062988281,-0.5009209513664246,-0.6470016479498075,-0.25520172119163803,0.02031707763673523,-0.006915387892207803,0.147699936596827,0.3762932218390454,0.0,None,None,None,None
cf9,1429.4199999999998,0.38427133178710937,0.47599905395507813,0.41134759521484376,-0.5009209513664246,-0.64206695556699,-0.267808532715088,0.017744445800798633,-0.019756727003535923,0.13207088269069045,0.3762932218390454,0.0,None,None,None,None
cf9,1429.4399999999998,0.3713076477050781,0.4702037963867188,0.4115325622558594,-0.4761013388633728,-0.6481842041021518,-0.2897628784182314,0.009248352050789195,-0.03272041108556717,0.11589942339326825,0.3762932218390454,0.0,None,None,None,None
cf9,1429.46,0.3582548522949219,0.463962890625,0.41174432373046876,-0.4761013388633728,-0.6526397705009863,-0.3120452880826744,0.010588073730358473,-0.04577320649572342,0.08507907704213791,0.3762932218390454,0.0,None,None,None,None
cf9,1429.48,0.3453163757324219,0.4572479858398438,0.41207611083984375,-0.4761013388633728,-0.6469238281255868,-0.33574523925811733,0.016589355468764156,-0.058711683058223385,0.05321992704919848,0.3762932218390454,0.0,None,None,None,None
cf9,1429.5,0.3321912536621094,0.45002984619140624,0.4122398986816406,-0.43068814277648926,-0.656256103516223,-0.36090698242220515,0.008189392089851488,-0.07183680512853591,0.03139677670850949,0.3762932218390454,0.0,None,None,None,None
cf9,1429.52,0.31910272216796876,0.44247061157226564,0.4123509216308594,-0.43068814277648926,-0.6544265747076268,-0.3779617309573737,0.005551147460943815,-0.08492533662267654,0.00906066968027952,0.3762932218390454,0.0,None,None,None,None
cf9,1429.54,0.3059695129394531,0.434296142578125,0.4124836120605469,-0.43068814277648926,-0.6566604614263787,-0.4087234497074042,0.006634521484380968,-0.09805854585119217,-0.06375956471687294,0.3762932218390454,0.0,None,None,None,None
cf9,1429.56,0.29283709716796874,0.42570382690429687,0.41255780029296873,-0.387021541595459,-0.6566207885748164,-0.4296157836917968,0.003709411621095103,-0.11119096162267655,-0.07429617309570313,0.3762932218390454,0.0,None,None,None,None
cf9,1429.58,0.27962469482421876,0.4165784301757813,0.4124748229980469,-0.387021541595459,-0.6606201171881001,-0.45626983642619445,-0.004148864746096213,-0.12440336396642654,-0.08342156982421872,0.3762932218390454,0.0,None,None,None,None
cf9,1429.6,0.2663982849121094,0.40692596435546874,0.4124407043457031,-0.3656812310218811,-0.6613204956060706,-0.4826232910160659,-0.001705932617189651,-0.13762977387853592,-0.09307403564453126,0.3762932218390454,0.0,None,None,None,None
cf9,1429.62,0.25319358825683597,0.39662283325195313,0.41237985229492186,-0.3656812310218811,-0.6602348327642709,-0.5151565551762488,-0.0030426025390661777,-0.1727957104201987,-0.10337716674804687,0.3762932218390454,0.0,None,None,None,None
cf9,1429.6399999999999,0.2398978271484375,0.38581338500976564,0.4121524658203125,-0.3656812310218811,-0.6647880554205283,-0.5404724121098662,-0.011369323730477736,-0.18609147152859717,-0.11418661499023436,0.3762932218390454,0.0,None,None,None,None
cf9,1429.6599999999999,0.22652838134765627,0.3744559326171875,0.4119610595703125,-0.37490221858024597,-0.6684722900396693,-0.5678726196294228,-0.009570312500009993,-0.1994609173293784,-0.12554406738281249,0.3762932218390454,0.0,None,None,None,None
cf9,1429.6799999999998,0.21319088745117187,0.3625455627441406,0.4117764587402344,-0.37490221858024597,-0.6668746948248262,-0.595518493652886,-0.009230041503913223,-0.2127984112258628,-0.13745443725585937,0.3762932218390454,0.0,None,None,None,None
cf9,1429.7,0.19976380920410156,0.350080810546875,0.41141845703125,-0.351615309715271,-0.6713539123464941,-0.6232376098567622,-0.017900085449031173,-0.2262254894729331,-0.149919189453125,0.3762932218390454,0.0,None,None,None,None
cf9,1429.72,0.1861898193359375,0.3371402587890625,0.4111285095214844,-0.351615309715271,-0.6786994934088197,-0.6470275878912135,-0.014497375488294746,-0.23979947934109716,-0.1628597412109375,0.3762932218390454,0.0,None,None,None,None
cf9,1429.74,0.172701171875,0.3235857238769531,0.41090618896484377,-0.40026816725730896,-0.6744323730474885,-0.6777267456060861,-0.011116027832041138,-0.25328812680203466,-0.1764142761230469,0.3762932218390454,0.0,None,None,None,None
cf9,1429.76,0.15907249450683594,0.30959716796875003,0.4106512756347656,-0.40026816725730896,-0.6814338684088228,-0.6994277954107903,-0.012745666503919329,-0.2669168041701987,-0.19040283203124997,0.3762932218390454,0.0,None,None,None,None
cf9,1429.78,0.14534028625488282,0.29515728759765625,0.410293701171875,-0.40026816725730896,-0.6866104125982805,-0.7219940185553458,-0.01787872314454558,-0.28064901242215184,-0.20484271240234375,0.3762932218390454,0.0,None,None,None,None
cf9,1429.8,0.13154917907714844,0.28027728271484376,0.41016217041015623,-0.33107393980026245,-0.6895553588873461,-0.7440002441413013,-0.00657653808594548,-0.29444011959988625,-0.21972271728515624,0.3762932218390454,0.0,None,None,None,None
cf9,1429.82,0.11772812652587891,0.2650273132324219,0.4099622802734375,-0.33107393980026245,-0.691052627564105,-0.7624984741217862,-0.00999450683594548,-0.3082611721511558,-0.2349726867675781,0.3762932218390454,0.0,None,None,None,None
cf9,1429.84,0.10370106506347657,0.24944361877441407,0.4097631530761719,-0.2375611662864685,-0.7013530731207551,-0.7791847229011004,-0.00995635986328975,-0.3222882336135581,-0.25055638122558593,0.3762932218390454,0.0,None,None,None,None
cf9,1429.86,0.08970809173583985,0.23357276916503908,0.40965521240234376,-0.2375611662864685,-0.6996486663824721,-0.7935424804694711,-0.005397033691411558,-0.3362812069411948,-0.2664272308349609,0.3762932218390454,0.0,None,None,None,None
cf9,1429.8799999999999,0.07564295196533204,0.217396240234375,0.4096240234375,-0.2375611662864685,-0.7032569885260304,-0.8088264465339391,-0.0015594482421902062,-0.3503463467117026,-0.282603759765625,0.3762932218390454,0.0,None,None,None,None
cf9,1429.8999999999999,0.06139418029785156,0.20097956848144533,0.40955538940429687,-0.1703251153230667,-0.7124385833746717,-0.8208335876472308,-0.0034317016601590603,-0.3645951183791831,-0.2990204315185547,0.3762932218390454,0.0,None,None,None,None
cf9,1429.9199999999998,0.047239200592041015,0.1844202575683594,0.4096356201171875,-0.1703251153230667,-0.707748985291171,-0.8279655456550498,0.004011535644536142,-0.37875009808499366,-0.3155797424316406,0.3762932218390454,0.0,None,None,None,None
cf9,1429.9399999999998,0.03296670532226562,0.16764674377441408,0.40976461791992186,-0.09224780648946762,-0.7136247634894187,-0.8386756896980285,0.006449890136723017,-0.35663025116626895,-0.3323532562255859,0.3762932218390454,0.0,None,None,None,None
cf9,1429.96,0.018541627883911133,0.1506993865966797,0.40990750122070313,-0.09224780648946762,-0.7212538719101808,-0.8473678588778562,0.0071441650389888435,-0.3568002562798022,-0.3493006134033203,0.3762932218390454,0.0,None,None,None,None
cf9,1429.98,0.004110257148742676,0.13374334716796876,0.41009033203125,-0.09224780648946762,-0.7215685367590791,-0.8478019714363177,0.009141540527352042,-0.3536688082578742,-0.36625665283203124,0.3762932218390454,0.0,None,None,None,None
cf9,1430.0,-0.010255077362060548,0.116692138671875,0.41030990600585937,-0.00919137429445982,-0.7182667255408144,-0.8525604248054635,0.010978698730478291,-0.35762379625662577,-0.383307861328125,0.3762932218390454,0.0,None,None,None,None
cf9,1430.02,-0.024704259872436525,0.09952453613281251,0.41060546875000004,-0.00919137429445982,-0.7224591255194559,-0.8583801269539053,0.014778137207046689,-0.35835954788498453,-0.3715554574942427,0.3762932218390454,0.0,None,None,None,None
cf9,1430.04,-0.03906526184082031,0.08238544464111329,0.410888427734375,0.05168253928422928,-0.7180500984198425,-0.8569545745857403,0.01414794921876138,-0.36257183146744654,-0.37349664479284966,0.3762932218390454,0.0,None,None,None,None
cf9,1430.06,-0.05334408187866211,0.06522291564941407,0.4112742004394531,0.05168253928422928,-0.7139410018927391,-0.8581264495857415,0.019288635253923214,-0.3601506310532797,-0.3534101538334827,0.3762932218390454,0.0,None,None,None,None
cf9,1430.08,-0.06760575103759765,0.04818670272827148,0.411705322265625,0.05168253928422928,-0.7130834579474257,-0.8518106460579041,0.021556091308613978,-0.3563691555766696,-0.3558413560623738,0.3762932218390454,0.0,None,None,None,None
cf9,1430.1,-0.08174345397949219,0.031230682373046877,0.4120059509277344,0.12350835651159286,-0.7068851470953698,-0.8478010177620013,0.015031433105483287,-0.36727253448662506,-0.3691785292089621,0.3762932218390454,0.0,None,None,None,None
cf9,1430.12,-0.09570845031738281,0.014320225715637208,0.41237124633789063,0.12350835651159286,-0.6982498168951663,-0.8455228328712524,0.018264770507828113,-0.36840366195177976,-0.36811658891363974,0.3762932218390454,0.0,None,None,None,None
cf9,1430.1399999999999,-0.10951371765136719,-0.0024528911113739014,0.412787353515625,0.12350835651159286,-0.6902633666998467,-0.8386558413513182,0.020805358886738005,-0.371139519855944,-0.37426395220052905,0.3762932218390454,0.0,None,None,None,None
cf9,1430.1599999999999,-0.12314490509033203,-0.018911094665527345,0.4130821228027344,0.08175177872180939,-0.6815593719488618,-0.8229101777084206,0.014738464355481621,-0.38477070729490886,-0.37321546765897784,0.3762932218390454,0.0,None,None,None,None
cf9,1430.1799999999998,-0.13646495056152344,-0.03525852966308594,0.41346929931640625,0.08175177872180939,-0.6660022735601762,-0.817371749878673,0.019358825683611202,-0.38719349722517515,-0.3895629026565365,0.3762932218390454,0.0,None,None,None,None
cf9,1430.2,-0.14951248168945314,-0.051368682861328126,0.41380078125,-0.04611111059784889,-0.6523765563896614,-0.8055076599036844,0.01657409667951566,-0.4002410283531048,-0.38502397087387613,0.3762932218390454,0.0,None,None,None,None
cf9,1430.22,-0.16223817443847657,-0.06726630401611328,0.4141817321777344,-0.04611111059784889,-0.6362846374517506,-0.7948810577399805,0.01904754638673634,-0.4129667211021283,-0.4009215920286613,0.3762932218390454,0.0,None,None,None,None
cf9,1430.24,-0.17466163635253906,-0.08269820404052734,0.41440902709960936,-0.23737427592277527,-0.6211730957036894,-0.7715950012214051,0.011364746093758048,-0.41159060231499855,-0.41635349205307537,0.3762932218390454,0.0,None,None,None,None
cf9,1430.26,-0.18673464965820313,-0.09781327819824219,0.41459701538085936,-0.23737427592277527,-0.6036506652837526,-0.7557537078864297,0.009399414062508327,-0.38815862622267927,-0.41794050111147885,0.3762932218390454,0.0,None,None,None,None
cf9,1430.28,-0.198497802734375,-0.11260535430908203,0.4147832946777344,-0.23737427592277527,-0.5881576538091285,-0.7396038055426646,0.00931396484376027,-0.3999217792988512,-0.39975007888778313,0.3762932218390454,0.0,None,None,None,None
cf9,1430.3,-0.209880615234375,-0.1270520248413086,0.41501904296875003,-0.2928580939769745,-0.5691406250005179,-0.7223335266119851,0.011787414550792526,-0.39569088502718547,-0.40293254337495554,0.3762932218390454,0.0,None,None,None,None
cf9,1430.32,-0.22083149719238282,-0.14103584289550783,0.41505117797851565,-0.2928580939769745,-0.5475440979008883,-0.6991909027105978,0.0016067504882825337,-0.40524476274443816,-0.38712358070227265,0.3762932218390454,0.0,None,None,None,None
cf9,1430.34,-0.23144296264648437,-0.1547564697265625,0.4151511840820313,-0.40716004371643066,-0.53057327270556,-0.6860313415533581,0.005000305175785864,-0.41585622819853973,-0.3993097161022793,0.3762932218390454,0.0,None,None,None,None
cf9,1430.36,-0.24157339477539064,-0.16794314575195313,0.41521380615234377,-0.40716004371643066,-0.5065216064457742,-0.6593338012701304,0.003131103515627359,-0.406770570890456,-0.4124963921276699,0.3762932218390454,0.0,None,None,None,None
cf9,1430.3799999999999,-0.2513374481201172,-0.18077235412597656,0.41521405029296876,-0.40716004371643066,-0.4882026672367728,-0.641460418701755,1.2207031249722445e-05,-0.41519145483047615,-0.4101403084839367,0.3762932218390454,0.0,None,None,None,None
cf9,1430.3999999999999,-0.260669921875,-0.1932264404296875,0.41518832397460936,-0.5167936682701111,-0.46662368774456314,-0.6227043151861138,-0.0012863159179710745,-0.4245239285853589,-0.3832487473993694,0.3762932218390454,0.0,None,None,None,None
cf9,1430.4199999999998,-0.26961279296875,-0.20518846130371093,0.4150491027832031,-0.5167936682701111,-0.447143554687908,-0.5981010437017154,-0.0069610595703186754,-0.42022275387246644,-0.3785370452350134,0.3762932218390454,0.0,None,None,None,None
cf9,1430.4399999999998,-0.27819287109375,-0.2169033660888672,0.414938720703125,-0.5354823470115662,-0.42900390625039025,-0.5857452392583463,-0.005519104003911558,-0.412141150327562,-0.39025195002016966,0.3762932218390454,0.0,None,None,None,None
cf9,1430.46,-0.28649169921875,-0.22801109313964843,0.41458505249023436,-0.5354823470115662,-0.41494140624565956,-0.5553863525332523,-0.01768341064434621,-0.4068691761552482,-0.390525590612108,0.3762932218390454,0.0,None,None,None,None
cf9,1430.48,-0.2942393798828125,-0.23883998107910157,0.4143523254394531,-0.5354823470115662,-0.38738403320347764,-0.5414443969731493,-0.011636352539073394,-0.40623085491291583,-0.37531931514033445,0.3762932218390454,0.0,None,None,None,None
cf9,1430.5,-0.3016677856445313,-0.24919000244140627,0.413940185546875,-0.5319455862045288,-0.3714202880862763,-0.5175010681157057,-0.02060699462892377,-0.4136592606746346,-0.3611814774715096,0.3762932218390454,0.0,None,None,None,None
cf9,1430.52,-0.3087137145996094,-0.25908441162109375,0.41346948242187503,-0.5319455862045288,-0.35229644775422575,-0.494720458984824,-0.023535156250019985,-0.3979002438977065,-0.35270043529443096,0.3762932218390454,0.0,None,None,None,None
cf9,1430.54,-0.315459228515625,-0.2686410217285156,0.4128946533203125,-0.6247029304504395,-0.3372756958010884,-0.4778305053715281,-0.028741455078152893,-0.3796635201223375,-0.3328453133352281,0.3762932218390454,0.0,None,None,None,None
cf9,1430.56,-0.32177511596679687,-0.2777504272460938,0.4123704528808594,-0.6247029304504395,-0.3157943725588793,-0.4554702758793223,-0.0262100219726796,-0.3727296610048169,-0.32334055978022985,0.3762932218390454,0.0,None,None,None,None
cf9,1430.58,-0.32778359985351563,-0.2863756103515625,0.4116225280761719,-0.6247029304504395,-0.30042419433621137,-0.4312591552738285,-0.037396240234408726,-0.3600887796841532,-0.309772834153919,0.3762932218390454,0.0,None,None,None,None
cf9,1430.6,-0.3334329528808594,-0.29458285522460936,0.410889404296875,-0.7320863008499146,-0.282467651367445,-0.4103622436527162,-0.03665618896487869,-0.35544209292936413,-0.30656091413324676,0.3762932218390454,0.0,None,None,None,None
cf9,1430.62,-0.33868841552734374,-0.3023656311035156,0.41008673095703124,-0.7320863008499146,-0.2627731323244567,-0.3891387939456662,-0.04013366699222351,-0.3529855210986803,-0.3023656311035156,0.3762932218390454,0.0,None,None,None,None
cf9,1430.6399999999999,-0.3435953063964844,-0.30968222045898436,0.40934344482421875,-0.7320863008499146,-0.2453445434572554,-0.36582946777377023,-0.037164306640658444,-0.3478278571099309,-0.30968222045898436,0.3762932218390454,0.0,None,None,None,None
cf9,1430.6599999999999,-0.3481322937011719,-0.31656216430664064,0.4085577392578125,-0.7895453572273254,-0.2268493652345808,-0.34399719238312676,-0.039285278320346985,-0.3481322937011719,-0.31656216430664064,0.3762932218390454,0.0,None,None,None,None
cf9,1430.6799999999998,-0.35237356567382816,-0.32293014526367186,0.40780068969726563,-0.7895453572273254,-0.21206359863300686,-0.31839904785185097,-0.03785247802737924,-0.35237356567382816,-0.32293014526367186,0.3762932218390454,0.0,None,None,None,None
cf9,1430.7,-0.3562282409667969,-0.328808349609375,0.4068763122558594,-0.8000977039337158,-0.1927337646464209,-0.2939102172820825,-0.046218872069827645,-0.3562282409667969,-0.328808349609375,0.3762932218390454,0.0,None,None,None,None
cf9,1430.72,-0.359815673828125,-0.33429879760742187,0.4060995788574219,-0.8000977039337158,-0.17937164306656922,-0.27452239990259353,-0.03883666992191205,-0.359815673828125,-0.33429879760742187,0.3762932218390454,0.0,None,None,None,None
cf9,1430.74,-0.3629555053710938,-0.33931536865234374,0.4052331237792969,-0.8000977039337158,-0.15699157714858092,-0.2508285522463216,-0.04332275390628913,-0.3629555053710938,-0.33931536865234374,0.3762932218390454,0.0,None,None,None,None
cf9,1430.76,-0.36582461547851564,-0.34398126220703124,0.40456719970703126,-0.7490822076797485,-0.14345550537122334,-0.23329467773458692,-0.0332962036133114,-0.36582461547851564,-0.34398126220703124,0.3762932218390454,0.0,None,None,None,None
cf9,1430.78,-0.36844204711914064,-0.3482298583984375,0.4038502197265625,-0.7490822076797485,-0.13087158203136906,-0.21242980957050686,-0.035848999023471016,-0.36844204711914064,-0.3482298583984375,0.3762932218390454,0.0,None,None,None,None
cf9,1430.8,-0.3707097473144531,-0.3521184997558594,0.4031508483886719,-0.6521417498588562,-0.11338500976572673,-0.19443206787127162,-0.03496856689456223,-0.3707097473144531,-0.3521184997558594,0.3762932218390454,0.0,None,None,None,None
cf9,1430.82,-0.37266452026367186,-0.3556234436035156,0.40256338500976563,-0.6521417498588562,-0.09773864746102652,-0.17524719238296968,-0.029373168945339215,-0.37266452026367186,-0.3556234436035156,0.3762932218390454,0.0,None,None,None,None
cf9,1430.84,-0.37446923828125,-0.35888531494140624,0.4020439758300781,-0.5594882369041443,-0.09023590087898928,-0.1630935668946799,-0.025970458984399286,-0.37446923828125,-0.35888531494140624,0.3762932218390454,0.0,None,None,None,None
cf9,1430.86,-0.37607894897460936,-0.36179226684570315,0.4015798034667969,-0.5594882369041443,-0.08048553466804102,-0.1453475952149775,-0.023208618164082276,-0.37607894897460936,-0.36179226684570315,0.3762932218390454,0.0,None,None,None,None
cf9,1430.8799999999999,-0.3773795471191406,-0.36451495361328123,0.40132159423828123,-0.5594882369041443,-0.06502990722662225,-0.13613433837902814,-0.012910461425794746,-0.3773795471191406,-0.36451495361328123,0.3762932218390454,0.0,None,None,None,None
cf9,1430.8999999999999,-0.3785392761230469,-0.36704928588867186,0.4010604248046875,-0.5485309362411499,-0.05798645019536586,-0.1267166137696466,-0.013058471679697977,-0.3785392761230469,-0.36704928588867186,0.3762932218390454,0.0,None,None,None,None
cf9,1430.9199999999998,-0.3796094970703125,-0.36937188720703124,0.4007994384765625,-0.5485309362411499,-0.053511047363329164,-0.11613006591807433,-0.01304931640626138,-0.3796094970703125,-0.36937188720703124,0.3762932218390454,0.0,None,None,None,None
cf9,1430.9399999999998,-0.3806043701171875,-0.37144854736328126,0.4006011352539063,-0.5370402336120605,-0.0497436523437958,-0.10383300781259548,-0.009915161132820895,-0.3806043701171875,-0.37144854736328126,0.3762932218390454,0.0,None,None,None,None
cf9,1430.96,-0.3814775695800781,-0.37343228149414065,0.4004949035644531,-0.5370402336120605,-0.04365997314407365,-0.09918670654193228,-0.005311584472603116,-0.3814775695800781,-0.37343228149414065,0.3762932218390454,0.0,None,None,None,None
cf9,1430.98,-0.38229827880859374,-0.37538140869140624,0.40049554443359375,-0.5370402336120605,-0.04103546142581862,-0.09745635986336802,3.204345703225614e-05,-0.38229827880859374,-0.37538140869140624,0.3762932218390454,0.0,None,None,None,None
cf9,1431.0,-0.3830502624511719,-0.37725491333007816,0.4006078796386719,-0.5374504923820496,-0.03759918212894264,-0.09367523193368114,0.005616760253912114,-0.3830502624511719,-0.37725491333007816,0.3762932218390454,0.0,None,None,None,None
cf9,1431.02,-0.38381396484375,-0.37895764160156253,0.4006334228515625,-0.5374504923820496,-0.038185119628940424,-0.0851364135742963,0.001277160644531701,-0.38381396484375,-0.37895764160156253,0.3762932218390454,0.0,None,None,None,None
cf9,1431.04,-0.38456900024414065,-0.38075469970703124,0.40082257080078126,-0.5252494812011719,-0.03775177001956556,-0.0898529052735171,0.00945739746094659,-0.38456900024414065,-0.38075469970703124,0.3762932218390454,0.0,None,None,None,None
cf9,1431.06,-0.3853706970214844,-0.38249438476562503,0.40107604980468753,-0.5252494812011719,-0.04008483886722462,-0.08698425292976848,0.012673950195324782,-0.3853706970214844,-0.37050972698154533,0.38660847804193244,0.0,None,None,None,None
cf9,1431.08,-0.3862123413085938,-0.38423126220703124,0.4012963562011719,-0.5252494812011719,-0.0420822143555066,-0.08684387207038972,0.011015319824227458,-0.3862123413085938,-0.35940952936234005,0.38660847804193244,0.0,None,None,None,None
cf9,1431.1,-0.3870821838378906,-0.38597500610351565,0.4014686889648438,-0.5232690572738647,-0.043492126464881466,-0.08718719482429962,0.008616638183602875,-0.3870821838378906,-0.34637512572816265,0.38660847804193244,0.0,None,None,None,None
cf9,1431.12,-0.3880404052734375,-0.387731201171875,0.40173690795898437,-0.5232690572738647,-0.047911071777389236,-0.08780975341804657,0.013410949707041693,-0.3880404052734375,-0.32053644649017504,0.38660847804193244,0.0,None,None,None,None
cf9,1431.1399999999999,-0.3891101684570313,-0.38951065063476564,0.4019567260742188,-0.5046989321708679,-0.05348815917973628,-0.08897247314461386,0.010990905761730788,-0.3891101684570313,-0.2530164686831242,0.38660847804193244,0.0,None,None,None,None
cf9,1431.1599999999999,-0.39019546508789066,-0.3912702331542969,0.40216397094726564,-0.5046989321708679,-0.05426483154301826,-0.08797912597664168,0.010362243652352042,-0.3961145465391028,-0.16038246955740557,0.38660847804193244,0.0,None,None,None,None
cf9,1431.1799999999998,-0.391383056640625,-0.39301916503906253,0.40250271606445315,-0.5046989321708679,-0.05937957763677131,-0.08744659423836247,0.01693725585939096,-0.41203270365500816,-0.03695841920495874,0.38660847804193244,0.0,None,None,None,None
cf9,1431.2,-0.3926665649414063,-0.3946644287109375,0.40292623901367186,-0.48371002078056335,-0.06417541503839265,-0.08226318359288722,0.02117614746071417,-0.42040270614558706,0.018479567742525904,0.38660847804193244,0.0,None,None,None,None
cf9,1431.22,-0.3939784851074219,-0.3960486145019531,0.4032715148925781,-0.48371002078056335,-0.06559600830084027,-0.06920928955084416,0.01726379394532867,-0.42628366493805947,0.054207619623878045,0.38660847804193244,0.0,None,None,None,None
cf9,1431.24,-0.3954681091308594,-0.397137451171875,0.40355752563476566,-0.4770713448524475,-0.07448120117194258,-0.0544418334961434,0.01430053710938985,-0.42777328896149697,0.09318912579057798,0.38660847804193244,0.0,None,None,None,None
cf9,1431.26,-0.39704150390625,-0.3977916564941406,0.40392132568359373,-0.4770713448524475,-0.0786697387696011,-0.03271026611331084,0.01819000244142044,-0.42934668373688756,0.10220834350585939,0.38660847804193244,0.0,None,None,None,None
cf9,1431.28,-0.3986284484863281,-0.3980124206542969,0.4041949768066406,-0.4770713448524475,-0.07934722900397873,-0.011038208007823116,0.013682556152357039,-0.4365594275720141,0.10198757934570313,0.38660847804193244,0.0,None,None,None,None
cf9,1431.3,-0.4004407653808594,-0.39767828369140623,0.40458944702148436,-0.42009982466697693,-0.09061584472664556,0.016706848144547246,0.019723510742204638,-0.4550732218661449,0.10232171630859377,0.38660847804193244,0.0,None,None,None,None
cf9,1431.32,-0.40224700927734375,-0.39683514404296877,0.4049288024902344,-0.42009982466697693,-0.09031219482430074,0.0421569824219115,0.016967773437516653,-0.4568794657626293,0.10316485595703123,0.38660847804193244,0.0,None,None,None,None
cf9,1431.34,-0.404130615234375,-0.39527774047851566,0.40528884887695316,-0.3822729289531708,-0.09418029785164778,0.07787017822272622,0.018002319335954916,-0.4587630717196605,0.10472225952148434,0.38660847804193244,0.0,None,None,None,None
cf9,1431.36,-0.40618280029296877,-0.3928601989746094,0.40551483154296875,-0.3822729289531708,-0.10260925292978236,0.1208770751954236,0.01129913330078975,-0.4684340489984972,0.10713980102539061,0.38660847804193244,0.0,None,None,None,None
cf9,1431.3799999999999,-0.40826815795898436,-0.38954202270507815,0.40568234252929686,-0.3822729289531708,-0.10426788330087412,0.16590881347671274,0.008375549316413223,-0.4784627240442133,0.11045797729492185,0.38660847804193244,0.0,None,None,None,None
cf9,1431.3999999999999,-0.4104677734375,-0.3853165588378906,0.4056896362304688,-0.3931156098842621,-0.10998077392588301,0.2112731933595686,0.0003646850585962133,-0.48066233952272897,0.11468344116210938,0.38660847804193244,0.0,None,None,None,None
cf9,1431.4199999999998,-0.41270318603515627,-0.38013964843750003,0.40572186279296873,-0.3931156098842621,-0.11177062988291415,0.25884552001976485,0.0016113281249994448,-0.4828977521203852,0.11986035156249997,0.38660847804193244,0.0,None,None,None,None
cf9,1431.4399999999998,-0.415111572265625,-0.37407980346679687,0.4056459045410156,-0.3640848398208618,-0.12041931152354651,0.30299224853543383,-0.0037979125976590603,-0.4853061383508539,0.12592019653320313,0.38660847804193244,0.0,None,None,None,None
cf9,1431.46,-0.41764828491210937,-0.3670556640625,0.4053446655273438,-0.3640848398208618,-0.12683563232289152,0.3512069702111696,-0.015061950683434971,-0.48784285099733826,0.1329443359375,0.38660847804193244,0.0,None,None,None,None
cf9,1431.48,-0.42011297607421877,-0.35922100830078124,0.4051403503417969,-0.3640848398208618,-0.12323455810558209,0.39173278808629464,-0.010215759277352597,-0.4903075421594477,0.14077899169921876,0.38660847804193244,0.0,None,None,None,None
cf9,1431.5,-0.4227616271972656,-0.3503836669921875,0.40478533935546873,-0.3631553649902344,-0.13243255615246308,0.4418670654300899,-0.01775054931642488,-0.4929561932824945,0.14961633300781252,0.38660847804193244,0.0,None,None,None,None
cf9,1431.52,-0.42554669189453126,-0.3405698547363281,0.40436099243164064,-0.3631553649902344,-0.13925323486340854,0.4906906127934146,-0.02121734619142377,-0.4957412579797602,0.15943014526367189,0.38660847804193244,0.0,None,None,None,None
cf9,1431.54,-0.4283359375,-0.3299794006347656,0.40395700073242186,-0.3631553649902344,-0.13946228027356317,0.529522705078607,-0.02019958496095769,-0.4985305035852289,0.1700205993652344,0.38660847804193244,0.0,None,None,None,None
cf9,1431.56,-0.43116876220703126,-0.3184503479003906,0.40343536376953126,-0.4811767637729645,-0.14164123535169273,0.5764526367192737,-0.02608184814455335,-0.5013633282922602,0.18154965209960938,0.38660847804193244,0.0,None,None,None,None
cf9,1431.58,-0.43414935302734375,-0.3061694030761719,0.4029872436523438,-0.4811767637729645,-0.14902954101576002,0.6140472412114939,-0.02240600585939429,-0.5043439191125727,0.1938305969238281,0.38660847804193244,0.0,None,None,None,None
cf9,1431.6,-0.4371044616699219,-0.2931430969238281,0.4025920104980469,-0.5827744007110596,-0.14775543212904146,0.651315307617782,-0.019761657714863143,-0.5072990277551508,0.20685690307617188,0.38660847804193244,0.0,None,None,None,None
cf9,1431.62,-0.44012591552734376,-0.2794853515625,0.4022164306640625,-0.5827744007110596,-0.15107269287123054,0.6828872680670277,-0.018778991699236896,-0.5103204816125727,0.22051464843750002,0.38660847804193244,0.0,None,None,None,None
cf9,1431.6399999999999,-0.443191650390625,-0.2652575378417969,0.4020778503417969,-0.6607388257980347,-0.15328674316420274,0.7113906860358014,-0.00692901611328642,-0.5133862164758539,0.2347424621582031,0.38660847804193244,0.0,None,None,None,None
cf9,1431.6599999999999,-0.4463680725097656,-0.25044760131835936,0.4017895202636719,-0.6607388257980347,-0.15882110595717436,0.7404968261725504,-0.0144165039062636,-0.5165626385949945,0.24955239868164064,0.38660847804193244,0.0,None,None,None,None
