Crazyflie name,QTM packet timestamp (s),QTM_x (m),QTM_y (m),QTM_z (m),cf_yaw (°),QTM_vx (m/s),QTM_vy (m/s),QTM_vz (m/s),x_g (m),y_g (m),z_g (m),yaw_g (°),roll_c (°),pitch_c (°),yaw_rate_c (°/s),thrust_c (PWM)
Cible,5595.719999999999,-0.3437225341796875,-0.34597824096679686,0.002836393117904663,None,None,None,None,None,None,None,None,None,None,None,None
Cible,5601.12,-0.34372393798828127,-0.3459734191894531,0.0028072972297668456,None,None,None,None,None,None,None,None,None,None,None,None
Cible,5601.139999999999,-0.34372012329101564,-0.34596728515625,0.002816041469573975,None,None,None,None,None,None,None,None,None,None,None,None
Cible,5601.16,-0.3437266540527344,-0.3459521484375,0.002821103572845459,None,None,None,None,None,None,None,None,None,None,None,None
Cible,5601.179999999999,-0.3437235107421875,-0.3459606628417969,0.002850210189819336,None,None,None,None,None,None,None,None,None,None,None,None
Cible,5601.2,-0.34372039794921877,-0.34597521972656253,0.0028414299488067627,None,None,None,None,None,None,None,None,None,None,None,None
Cible,5601.219999999999,-0.34373114013671874,-0.34596685791015624,0.002822522163391113,None,None,None,None,None,None,None,None,None,None,None,None
Cible,5601.24,-0.34371835327148437,-0.3459595947265625,0.002831080198287964,None,None,None,None,None,None,None,None,None,None,None,None
Cible,5601.259999999999,-0.34371707153320313,-0.34597671508789063,0.002830796480178833,None,None,None,None,None,None,None,None,None,None,None,None
Cible,5601.28,-0.34373495483398436,-0.34598263549804686,0.0028509886264801027,None,None,None,None,None,None,None,None,None,None,None,None
Cible,5601.3,-0.34373309326171875,-0.34595074462890624,0.002794084072113037,None,None,None,None,None,None,None,None,None,None,None,None
Cible,5601.32,-0.34372592163085935,-0.3459668273925781,0.002849245071411133,None,None,None,None,None,None,None,None,None,None,None,None
Cible,5601.34,-0.34372686767578126,-0.34596594238281253,0.0028273701667785645,None,None,None,None,None,None,None,None,None,None,None,None
Cible,5601.36,-0.34373477172851563,-0.3459653930664063,0.0028232641220092775,None,None,None,None,None,None,None,None,None,None,None,None
Cible,5601.38,-0.34372216796875,-0.34595532226562503,0.002812657117843628,None,None,None,None,None,None,None,None,None,None,None,None
Cible,5601.4,-0.3437310485839844,-0.3459661560058594,0.002838247776031494,None,None,None,None,None,None,None,None,None,None,None,None
Cible,5601.42,-0.34373480224609376,-0.34596594238281253,0.0028331515789031983,None,None,None,None,None,None,None,None,None,None,None,None
Cible,5601.44,-0.34373492431640623,-0.345980224609375,0.0028286495208740235,None,None,None,None,None,None,None,None,None,None,None,None
Cible,5601.46,-0.343718994140625,-0.34596365356445313,0.002813194751739502,None,None,None,None,None,None,None,None,None,None,None,None
Cible,5601.48,-0.34373565673828127,-0.3459765319824219,0.002845952033996582,None,None,None,None,None,None,None,None,None,None,None,None
Cible,5601.5,-0.34371615600585936,-0.3459572143554688,0.0028411731719970705,None,None,None,None,None,None,None,None,None,None,None,None
Cible,5601.5199999999995,-0.3437268981933594,-0.3459513854980469,0.0027976219654083255,None,None,None,None,None,None,None,None,None,None,None,None
Cible,5601.54,-0.34373098754882814,-0.34595867919921874,0.002808454751968384,None,None,None,None,None,None,None,None,None,None,None,None
Cible,5601.5599999999995,-0.34372052001953124,-0.34598129272460937,0.002808393239974976,None,None,None,None,None,None,None,None,None,None,None,None
Cible,5601.58,-0.3437182312011719,-0.34596536254882815,0.0028170430660247802,None,None,None,None,None,None,None,None,None,None,None,None
Cible,5601.599999999999,-0.34372433471679686,-0.34597000122070315,0.0028107302188873293,None,None,None,None,None,None,None,None,None,None,None,None
Cible,5601.62,-0.3437296752929688,-0.34597021484375,0.002852224826812744,None,None,None,None,None,None,None,None,None,None,None,None
Cible,5601.639999999999,-0.343726806640625,-0.34596499633789063,0.0028179755210876465,None,None,None,None,None,None,None,None,None,None,None,None
Cible,5601.66,-0.34373291015625,-0.34597442626953123,0.002819974422454834,None,None,None,None,None,None,None,None,None,None,None,None
Cible,5601.679999999999,-0.3437283630371094,-0.3459644775390625,0.00282985258102417,None,None,None,None,None,None,None,None,None,None,None,None
Cible,5601.7,-0.3437200927734375,-0.3459610900878906,0.0028146939277648927,None,None,None,None,None,None,None,None,None,None,None,None
Cible,5601.719999999999,-0.34373309326171875,-0.3459716491699219,0.0028352530002593995,None,None,None,None,None,None,None,None,None,None,None,None
Cible,5601.74,-0.3437213439941406,-0.3459438171386719,0.0028383190631866458,None,None,None,None,None,None,None,None,None,None,None,None
Cible,5601.759999999999,-0.34372525024414063,-0.3459756774902344,0.0028234169483184815,None,None,None,None,None,None,None,None,None,None,None,None
Cible,5601.78,-0.3437216491699219,-0.3459486083984375,0.0028185744285583497,None,None,None,None,None,None,None,None,None,None,None,None
Cible,5601.8,-0.34373327636718753,-0.3459751892089844,0.0028348934650421144,None,None,None,None,None,None,None,None,None,None,None,None
Cible,5601.82,-0.343718994140625,-0.345977783203125,0.002827772617340088,None,None,None,None,None,None,None,None,None,None,None,None
Cible,5601.84,-0.34372720336914064,-0.3459773559570313,0.002823227643966675,None,None,None,None,None,None,None,None,None,None,None,None
Cible,5601.86,-0.34375527954101565,-0.3459697265625,0.0028341567516326906,None,None,None,None,None,None,None,None,None,None,None,None
Cible,5601.88,-0.3437349853515625,-0.34596408081054686,0.0028346624374389648,None,None,None,None,None,None,None,None,None,None,None,None
Cible,5601.9,-0.34371807861328124,-0.34596475219726563,0.0028288190364837646,None,None,None,None,None,None,None,None,None,None,None,None
Cible,5601.92,-0.34374700927734375,-0.3459573669433594,0.0028332040309906005,None,None,None,None,None,None,None,None,None,None,None,None
Cible,5601.94,-0.34373831176757813,-0.34597445678710936,0.0028111395835876463,None,None,None,None,None,None,None,None,None,None,None,None
Cible,5601.96,-0.3437274169921875,-0.3459573669433594,0.0028171794414520264,None,None,None,None,None,None,None,None,None,None,None,None
Cible,5601.98,-0.3437224426269531,-0.3459769592285156,0.002826017379760742,None,None,None,None,None,None,None,None,None,None,None,None
Cible,5602.0,-0.34372119140625,-0.34595379638671875,0.0027843503952026368,None,None,None,None,None,None,None,None,None,None,None,None
Cible,5602.0199999999995,-0.3437275085449219,-0.3459749755859375,0.002808273792266846,None,None,None,None,None,None,None,None,None,None,None,None
Cible,5602.04,-0.3437349853515625,-0.3459831848144531,0.0028351769447326662,None,None,None,None,None,None,None,None,None,None,None,None
Cible,5602.0599999999995,-0.3437331237792969,-0.34598114013671877,0.0028313095569610595,None,None,None,None,None,None,None,None,None,None,None,None
Cible,5602.08,-0.3437290954589844,-0.3459840087890625,0.00281091046333313,None,None,None,None,None,None,None,None,None,None,None,None
Cible,5602.099999999999,-0.34372146606445314,-0.3459856262207031,0.0028223807811737062,None,None,None,None,None,None,None,None,None,None,None,None
Cible,5602.12,-0.34372290039062503,-0.3459694519042969,0.0028432328701019287,None,None,None,None,None,None,None,None,None,None,None,None
Cible,5602.139999999999,-0.34372686767578126,-0.34596536254882815,0.0028152523040771483,None,None,None,None,None,None,None,None,None,None,None,None
Cible,5602.16,-0.34372897338867187,-0.34596975708007816,0.0028387572765350344,None,None,None,None,None,None,None,None,None,None,None,None
Cible,5602.179999999999,-0.34372537231445316,-0.3459650573730469,0.0028049092292785644,None,None,None,None,None,None,None,None,None,None,None,None
Cible,5602.2,-0.34373248291015623,-0.345968017578125,0.0028418617248535155,None,None,None,None,None,None,None,None,None,None,None,None
Cible,5602.219999999999,-0.3437249450683594,-0.3459562683105469,0.002816559553146362,None,None,None,None,None,None,None,None,None,None,None,None
Cible,5602.24,-0.3437247009277344,-0.3459750061035156,0.0028414275646209716,None,None,None,None,None,None,None,None,None,None,None,None
Cible,5602.259999999999,-0.3437231140136719,-0.3459844970703125,0.002841865062713623,None,None,None,None,None,None,None,None,None,None,None,None
Cible,5602.28,-0.34372146606445314,-0.3459835205078125,0.002845895290374756,None,None,None,None,None,None,None,None,None,None,None,None
Cible,5602.3,-0.3437357482910156,-0.34597076416015626,0.0028406901359558107,None,None,None,None,None,None,None,None,None,None,None,None
Cible,5602.32,-0.34372137451171875,-0.3459864501953125,0.002809292793273926,None,None,None,None,None,None,None,None,None,None,None,None
Cible,5602.34,-0.3437190856933594,-0.34595806884765623,0.0028181090354919432,None,None,None,None,None,None,None,None,None,None,None,None
Cible,5602.36,-0.34372409057617187,-0.345950439453125,0.0028117265701293947,None,None,None,None,None,None,None,None,None,None,None,None
Cible,5602.38,-0.3437206726074219,-0.34597549438476566,0.0028348922729492187,None,None,None,None,None,None,None,None,None,None,None,None
Cible,5602.4,-0.34374331665039065,-0.3459747314453125,0.002810699224472046,None,None,None,None,None,None,None,None,None,None,None,None
Cible,5602.42,-0.3437409057617188,-0.3459794921875,0.002826549768447876,None,None,None,None,None,None,None,None,None,None,None,None
Cible,5602.44,-0.34372409057617187,-0.3459912109375,0.0028338584899902344,None,None,None,None,None,None,None,None,None,None,None,None
Cible,5602.46,-0.3437247009277344,-0.3459852294921875,0.002848137855529785,None,None,None,None,None,None,None,None,None,None,None,None
Cible,5602.48,-0.34374371337890625,-0.3459738159179688,0.0028277790546417238,None,None,None,None,None,None,None,None,None,None,None,None
Cible,5602.5,-0.3437260437011719,-0.3459754638671875,0.0028123934268951415,None,None,None,None,None,None,None,None,None,None,None,None
Cible,5602.5199999999995,-0.34372451782226565,-0.34597125244140625,0.002850013256072998,None,None,None,None,None,None,None,None,None,None,None,None
Cible,5602.54,-0.3437294921875,-0.34597134399414065,0.0028251407146453857,None,None,None,None,None,None,None,None,None,None,None,None
Cible,5602.5599999999995,-0.34372900390625,-0.3459678344726563,0.0028153233528137207,None,None,None,None,None,None,None,None,None,None,None,None
Cible,5602.58,-0.3437296142578125,-0.34594927978515627,0.002813497066497803,None,None,None,None,None,None,None,None,None,None,None,None
Cible,5602.599999999999,-0.34374267578125,-0.34598876953125,0.002835022449493408,None,None,None,None,None,None,None,None,None,None,None,None
Cible,5602.62,-0.34371768188476565,-0.3459530944824219,0.0028062045574188234,None,None,None,None,None,None,None,None,None,None,None,None
Cible,5602.639999999999,-0.34373236083984376,-0.34596426391601565,0.0028261256217956545,None,None,None,None,None,None,None,None,None,None,None,None
Cible,5602.66,-0.34372528076171877,-0.34596627807617186,0.0028410861492156984,None,None,None,None,None,None,None,None,None,None,None,None
Cible,5602.679999999999,-0.3437298583984375,-0.34596292114257815,0.0027992658615112304,None,None,None,None,None,None,None,None,None,None,None,None
Cible,5602.7,-0.3437198486328125,-0.3459774169921875,0.0028183093070983886,None,None,None,None,None,None,None,None,None,None,None,None
Cible,5602.719999999999,-0.3437269897460938,-0.34597067260742187,0.0028025856018066408,None,None,None,None,None,None,None,None,None,None,None,None
Cible,5602.74,-0.3437331237792969,-0.34598339843750003,0.0028154845237731933,None,None,None,None,None,None,None,None,None,None,None,None
Cible,5602.759999999999,-0.3437368469238281,-0.34597427368164063,0.0028550825119018556,None,None,None,None,None,None,None,None,None,None,None,None
Cible,5602.78,-0.34372735595703124,-0.34599383544921875,0.0028384132385253905,None,None,None,None,None,None,None,None,None,None,None,None
Cible,5602.8,-0.34372442626953126,-0.34597515869140627,0.0028378920555114746,None,None,None,None,None,None,None,None,None,None,None,None
Cible,5602.82,-0.3437293395996094,-0.3459691772460938,0.0028172478675842286,None,None,None,None,None,None,None,None,None,None,None,None
Cible,5602.84,-0.3437232666015625,-0.34597265625,0.0028176627159118652,None,None,None,None,None,None,None,None,None,None,None,None
Cible,5602.86,-0.3437139892578125,-0.3459633483886719,0.002817218542098999,None,None,None,None,None,None,None,None,None,None,None,None
Cible,5602.88,-0.3437227478027344,-0.3459739685058594,0.0028277788162231446,None,None,None,None,None,None,None,None,None,None,None,None
Cible,5602.9,-0.34372830200195315,-0.3459677734375,0.0027982177734375002,None,None,None,None,None,None,None,None,None,None,None,None
Cible,5602.92,-0.34372317504882816,-0.3459692077636719,0.002828272819519043,None,None,None,None,None,None,None,None,None,None,None,None
Cible,5602.94,-0.3437333984375,-0.34595187377929687,0.0028304800987243653,None,None,None,None,None,None,None,None,None,None,None,None
Cible,5602.96,-0.34373419189453125,-0.3459629516601563,0.0028570308685302733,None,None,None,None,None,None,None,None,None,None,None,None
Cible,5602.98,-0.34372894287109373,-0.3459429626464844,0.002828148365020752,None,None,None,None,None,None,None,None,None,None,None,None
Cible,5603.0,-0.3437422485351563,-0.34596368408203126,0.0028508455753326416,None,None,None,None,None,None,None,None,None,None,None,None
Cible,5603.0199999999995,-0.3437261352539063,-0.34598135375976563,0.0028475937843322756,None,None,None,None,None,None,None,None,None,None,None,None
Cible,5603.04,-0.3437276611328125,-0.34596337890625,0.0028436150550842287,None,None,None,None,None,None,None,None,None,None,None,None
Cible,5603.0599999999995,-0.3437294921875,-0.34596948242187503,0.0028402476310729983,None,None,None,None,None,None,None,None,None,None,None,None
Cible,5603.08,-0.34372418212890626,-0.34598809814453124,0.0028386874198913577,None,None,None,None,None,None,None,None,None,None,None,None
Cible,5603.099999999999,-0.34373107910156253,-0.3459671630859375,0.002846834659576416,None,None,None,None,None,None,None,None,None,None,None,None
Cible,5603.12,-0.34373135375976566,-0.345969970703125,0.0028328399658203124,None,None,None,None,None,None,None,None,None,None,None,None
Cible,5603.139999999999,-0.34372271728515624,-0.34597521972656253,0.002816100597381592,None,None,None,None,None,None,None,None,None,None,None,None
Cible,5603.16,-0.3437314758300781,-0.3459837646484375,0.0028336138725280763,None,None,None,None,None,None,None,None,None,None,None,None
Cible,5603.179999999999,-0.3437281799316406,-0.345971435546875,0.0028279919624328615,None,None,None,None,None,None,None,None,None,None,None,None
Cible,5603.2,-0.34371801757812503,-0.3459758605957031,0.002851808309555054,None,None,None,None,None,None,None,None,None,None,None,None
Cible,5603.219999999999,-0.34371624755859376,-0.34594989013671873,0.002810279846191406,None,None,None,None,None,None,None,None,None,None,None,None
Cible,5603.24,-0.3437254638671875,-0.3459507141113281,0.0028272340297698976,None,None,None,None,None,None,None,None,None,None,None,None
Cible,5603.259999999999,-0.343729248046875,-0.34595996093750003,0.0028064093589782717,None,None,None,None,None,None,None,None,None,None,None,None
Cible,5603.28,-0.34373825073242187,-0.34598486328125,0.00282157564163208,None,None,None,None,None,None,None,None,None,None,None,None
Cible,5603.3,-0.3437291870117188,-0.3459670104980469,0.0028397204875946045,None,None,None,None,None,None,None,None,None,None,None,None
Cible,5603.32,-0.3437253112792969,-0.34594866943359376,0.002816126346588135,None,None,None,None,None,None,None,None,None,None,None,None
Cible,5603.34,-0.34371783447265625,-0.34595828247070315,0.002832744836807251,None,None,None,None,None,None,None,None,None,None,None,None
Cible,5603.36,-0.34371395874023436,-0.3459793090820313,0.0028294177055358887,None,None,None,None,None,None,None,None,None,None,None,None
Cible,5603.38,-0.34371484375,-0.3459612731933594,0.0028275673389434814,None,None,None,None,None,None,None,None,None,None,None,None
Cible,5603.4,-0.343723876953125,-0.345973388671875,0.0028373594284057616,None,None,None,None,None,None,None,None,None,None,None,None
Cible,5603.42,-0.34372064208984376,-0.34598086547851564,0.0028305194377899173,None,None,None,None,None,None,None,None,None,None,None,None
Cible,5603.44,-0.3437166137695313,-0.34596832275390627,0.002841144561767578,None,None,None,None,None,None,None,None,None,None,None,None
Cible,5603.46,-0.34372476196289065,-0.3459713134765625,0.002815730333328247,None,None,None,None,None,None,None,None,None,None,None,None
Cible,5603.48,-0.34372161865234374,-0.3459585876464844,0.002805027961730957,None,None,None,None,None,None,None,None,None,None,None,None
Cible,5603.5,-0.3437255859375,-0.3459584655761719,0.002813358783721924,None,None,None,None,None,None,None,None,None,None,None,None
Cible,5603.5199999999995,-0.343749267578125,-0.3459772644042969,0.002826622724533081,None,None,None,None,None,None,None,None,None,None,None,None
Cible,5603.54,-0.3437130126953125,-0.34595632934570314,0.0028168885707855226,None,None,None,None,None,None,None,None,None,None,None,None
Cible,5603.5599999999995,-0.343734375,-0.3459816589355469,0.002818572759628296,None,None,None,None,None,None,None,None,None,None,None,None
Cible,5603.58,-0.34371893310546875,-0.34597283935546874,0.0028311758041381836,None,None,None,None,None,None,None,None,None,None,None,None
Cible,5603.599999999999,-0.34373135375976566,-0.34597317504882813,0.002829206943511963,None,None,None,None,None,None,None,None,None,None,None,None
Cible,5603.62,-0.3437280883789063,-0.3459632263183594,0.002810308933258057,None,None,None,None,None,None,None,None,None,None,None,None
Cible,5603.639999999999,-0.3437333984375,-0.34597540283203126,0.0028178648948669434,None,None,None,None,None,None,None,None,None,None,None,None
Cible,5603.66,-0.34372103881835936,-0.3459466857910156,0.0027883012294769288,None,None,None,None,None,None,None,None,None,None,None,None
Cible,5603.679999999999,-0.3437291870117188,-0.34597109985351565,0.0028199892044067382,None,None,None,None,None,None,None,None,None,None,None,None
Cible,5603.7,-0.3437342529296875,-0.34597842407226564,0.002819483518600464,None,None,None,None,None,None,None,None,None,None,None,None
Cible,5603.719999999999,-0.34372280883789064,-0.34596734619140623,0.0028063261508941653,None,None,None,None,None,None,None,None,None,None,None,None
Cible,5603.74,-0.343732666015625,-0.345965087890625,0.002827606201171875,None,None,None,None,None,None,None,None,None,None,None,None
Cible,5603.759999999999,-0.3437368469238281,-0.34596484375000003,0.0028323607444763186,None,None,None,None,None,None,None,None,None,None,None,None
Cible,5603.78,-0.3437431640625,-0.34597265625,0.0028271355628967285,None,None,None,None,None,None,None,None,None,None,None,None
Cible,5603.8,-0.343728759765625,-0.34597015380859375,0.002821684837341309,None,None,None,None,None,None,None,None,None,None,None,None
Cible,5603.82,-0.3437225952148438,-0.34597119140625,0.00281838583946228,None,None,None,None,None,None,None,None,None,None,None,None
Cible,5603.84,-0.3437297058105469,-0.3459794006347656,0.002836385488510132,None,None,None,None,None,None,None,None,None,None,None,None
Cible,5603.86,-0.3437342224121094,-0.3459834289550781,0.0028221919536590575,None,None,None,None,None,None,None,None,None,None,None,None
Cible,5603.88,-0.3437156982421875,-0.34597161865234377,0.0028194382190704346,None,None,None,None,None,None,None,None,None,None,None,None
Cible,5603.9,-0.34373699951171877,-0.3459732666015625,0.002832568645477295,None,None,None,None,None,None,None,None,None,None,None,None
Cible,5603.92,-0.34371792602539064,-0.34598416137695315,0.002842038869857788,None,None,None,None,None,None,None,None,None,None,None,None
Cible,5603.94,-0.3437327880859375,-0.3459784851074219,0.002837117910385132,None,None,None,None,None,None,None,None,None,None,None,None
Cible,5603.96,-0.343727294921875,-0.34597555541992187,0.002843233585357666,None,None,None,None,None,None,None,None,None,None,None,None
Cible,5603.98,-0.34373226928710937,-0.34597891235351563,0.0028448007106781008,None,None,None,None,None,None,None,None,None,None,None,None
Cible,5604.0,-0.34372906494140626,-0.34596832275390627,0.0028002121448516847,None,None,None,None,None,None,None,None,None,None,None,None
Cible,5604.0199999999995,-0.34373245239257816,-0.3459703674316406,0.002847496509552002,None,None,None,None,None,None,None,None,None,None,None,None
Cible,5604.04,-0.3437175598144531,-0.34597976684570314,0.0028382058143615724,None,None,None,None,None,None,None,None,None,None,None,None
Cible,5604.0599999999995,-0.34373468017578124,-0.34597134399414065,0.0028376092910766602,None,None,None,None,None,None,None,None,None,None,None,None
Cible,5604.08,-0.3437317199707031,-0.345984130859375,0.0028164710998535157,None,None,None,None,None,None,None,None,None,None,None,None
Cible,5604.099999999999,-0.3437470397949219,-0.34597402954101564,0.002841426134109497,None,None,None,None,None,None,None,None,None,None,None,None
Cible,5604.12,-0.3437308654785156,-0.3459584045410156,0.0027995803356170657,None,None,None,None,None,None,None,None,None,None,None,None
Cible,5604.139999999999,-0.3437138671875,-0.3459593505859375,0.0028177993297576905,None,None,None,None,None,None,None,None,None,None,None,None
Cible,5604.16,-0.34372772216796876,-0.34595001220703125,0.0028134722709655764,None,None,None,None,None,None,None,None,None,None,None,None
Cible,5604.179999999999,-0.34373074340820314,-0.3459758605957031,0.002825852394104004,None,None,None,None,None,None,None,None,None,None,None,None
Cible,5604.2,-0.34373519897460936,-0.34596762084960936,0.0028415796756744386,None,None,None,None,None,None,None,None,None,None,None,None
Cible,5604.219999999999,-0.34372857666015627,-0.34595364379882815,0.0028136515617370604,None,None,None,None,None,None,None,None,None,None,None,None
Cible,5604.24,-0.34373504638671876,-0.3459695129394531,0.002863367319107056,None,None,None,None,None,None,None,None,None,None,None,None
Cible,5604.259999999999,-0.34372625732421874,-0.34597073364257813,0.002824239253997803,None,None,None,None,None,None,None,None,None,None,None,None
Cible,5604.28,-0.34372317504882816,-0.34594723510742187,0.0028040287494659425,None,None,None,None,None,None,None,None,None,None,None,None
Cible,5604.3,-0.34374652099609376,-0.3459697265625,0.0028453171253204346,None,None,None,None,None,None,None,None,None,None,None,None
Cible,5604.32,-0.3437246398925781,-0.3459576110839844,0.002810258626937866,None,None,None,None,None,None,None,None,None,None,None,None
Cible,5604.34,-0.3437341613769531,-0.3459743347167969,0.00281402063369751,None,None,None,None,None,None,None,None,None,None,None,None
Cible,5604.36,-0.34372915649414065,-0.34596316528320314,0.0028308095932006836,None,None,None,None,None,None,None,None,None,None,None,None
Cible,5604.38,-0.3437327270507813,-0.3459800720214844,0.002829863786697388,None,None,None,None,None,None,None,None,None,None,None,None
Cible,5604.4,-0.3437242431640625,-0.345965087890625,0.0028392417430877686,None,None,None,None,None,None,None,None,None,None,None,None
Cible,5604.42,-0.3437318725585938,-0.3459630126953125,0.0028229670524597167,None,None,None,None,None,None,None,None,None,None,None,None
Cible,5604.44,-0.34372290039062503,-0.3459695129394531,0.0028319709300994875,None,None,None,None,None,None,None,None,None,None,None,None
Cible,5604.46,-0.3437355041503906,-0.3459630126953125,0.0028201940059661866,None,None,None,None,None,None,None,None,None,None,None,None
Cible,5604.48,-0.3437268981933594,-0.3459515380859375,0.002822230100631714,None,None,None,None,None,None,None,None,None,None,None,None
Cible,5604.5,-0.34372625732421874,-0.3459668273925781,0.0028437209129333497,None,None,None,None,None,None,None,None,None,None,None,None
Cible,5604.5199999999995,-0.3437296142578125,-0.34597647094726564,0.0028400309085845946,None,None,None,None,None,None,None,None,None,None,None,None
Cible,5604.54,-0.34373721313476563,-0.34596163940429686,0.0028249521255493165,None,None,None,None,None,None,None,None,None,None,None,None
Cible,5604.5599999999995,-0.3437389831542969,-0.3459727478027344,0.0028441472053527834,None,None,None,None,None,None,None,None,None,None,None,None
Cible,5604.58,-0.34372503662109377,-0.34595538330078124,0.0028162920475006104,None,None,None,None,None,None,None,None,None,None,None,None
Cible,5604.599999999999,-0.3437377624511719,-0.3459608154296875,0.0028324799537658694,None,None,None,None,None,None,None,None,None,None,None,None
Cible,5604.62,-0.3437350158691406,-0.34596978759765623,0.00283597469329834,None,None,None,None,None,None,None,None,None,None,None,None
Cible,5604.639999999999,-0.3437351684570313,-0.3459566345214844,0.0028110864162445067,None,None,None,None,None,None,None,None,None,None,None,None
Cible,5604.66,-0.34373199462890625,-0.3459781188964844,0.0028601450920104983,None,None,None,None,None,None,None,None,None,None,None,None
Cible,5604.679999999999,-0.34372103881835936,-0.3459569091796875,0.002825521945953369,None,None,None,None,None,None,None,None,None,None,None,None
Cible,5604.7,-0.34372863769531253,-0.34596966552734376,0.002821788549423218,None,None,None,None,None,None,None,None,None,None,None,None
Cible,5604.719999999999,-0.34373049926757815,-0.3459668884277344,0.0028259844779968263,None,None,None,None,None,None,None,None,None,None,None,None
Cible,5604.74,-0.3437381896972656,-0.34596575927734374,0.0028098750114440916,None,None,None,None,None,None,None,None,None,None,None,None
Cible,5604.759999999999,-0.34373251342773437,-0.3459584045410156,0.0028251354694366457,None,None,None,None,None,None,None,None,None,None,None,None
Cible,5604.78,-0.34372357177734375,-0.3459573669433594,0.0028130893707275393,None,None,None,None,None,None,None,None,None,None,None,None
Cible,5604.8,-0.34372763061523437,-0.3459674377441406,0.0028448505401611327,None,None,None,None,None,None,None,None,None,None,None,None
Cible,5604.82,-0.3437356872558594,-0.34598492431640626,0.0028308961391448977,None,None,None,None,None,None,None,None,None,None,None,None
Cible,5604.84,-0.3437229309082031,-0.3459604187011719,0.0027906196117401124,None,None,None,None,None,None,None,None,None,None,None,None
Cible,5604.86,-0.34372357177734375,-0.345981689453125,0.002833305835723877,None,None,None,None,None,None,None,None,None,None,None,None
Cible,5604.88,-0.34372964477539064,-0.34597317504882813,0.0028298695087432863,None,None,None,None,None,None,None,None,None,None,None,None
Cible,5604.9,-0.3437281799316406,-0.3459762878417969,0.0028147659301757813,None,None,None,None,None,None,None,None,None,None,None,None
Cible,5604.92,-0.343723876953125,-0.3459686279296875,0.002793653726577759,None,None,None,None,None,None,None,None,None,None,None,None
Cible,5604.94,-0.3437343444824219,-0.3459690246582031,0.002825925350189209,None,None,None,None,None,None,None,None,None,None,None,None
Cible,5604.96,-0.34371453857421874,-0.3459639892578125,0.0027973840236663818,None,None,None,None,None,None,None,None,None,None,None,None
Cible,5604.98,-0.3437297668457031,-0.34597207641601563,0.0028209841251373292,None,None,None,None,None,None,None,None,None,None,None,None
Cible,5605.0,-0.3437220458984375,-0.34596820068359374,0.002845618963241577,None,None,None,None,None,None,None,None,None,None,None,None
Cible,5605.0199999999995,-0.3437314453125,-0.3459678649902344,0.0028359806537628174,None,None,None,None,None,None,None,None,None,None,None,None
Cible,5605.04,-0.34373394775390625,-0.34598126220703124,0.002816840410232544,None,None,None,None,None,None,None,None,None,None,None,None
Cible,5605.0599999999995,-0.3437213134765625,-0.3459844665527344,0.002807879447937012,None,None,None,None,None,None,None,None,None,None,None,None
Cible,5605.08,-0.3437296752929688,-0.3459626159667969,0.0028426446914672854,None,None,None,None,None,None,None,None,None,None,None,None
Cible,5605.099999999999,-0.3437175598144531,-0.34595416259765627,0.002796894073486328,None,None,None,None,None,None,None,None,None,None,None,None
Cible,5605.12,-0.34372592163085935,-0.34596173095703125,0.002830911874771118,None,None,None,None,None,None,None,None,None,None,None,None
Cible,5605.139999999999,-0.34372891235351566,-0.3459619140625,0.0028257892131805422,None,None,None,None,None,None,None,None,None,None,None,None
Cible,5605.16,-0.34372210693359373,-0.34597537231445313,0.0028361904621124266,None,None,None,None,None,None,None,None,None,None,None,None
Cible,5605.179999999999,-0.3437206726074219,-0.34596826171875,0.002839974641799927,None,None,None,None,None,None,None,None,None,None,None,None
Cible,5605.2,-0.3437307739257813,-0.34597952270507815,0.0028405847549438476,None,None,None,None,None,None,None,None,None,None,None,None
Cible,5605.219999999999,-0.343724853515625,-0.345975341796875,0.0028225338459014894,None,None,None,None,None,None,None,None,None,None,None,None
Cible,5605.24,-0.3437272644042969,-0.34597796630859373,0.0028465628623962403,None,None,None,None,None,None,None,None,None,None,None,None
Cible,5605.259999999999,-0.3437212829589844,-0.34598043823242186,0.0028355488777160646,None,None,None,None,None,None,None,None,None,None,None,None
Cible,5605.28,-0.3437261657714844,-0.3459626159667969,0.002807093381881714,None,None,None,None,None,None,None,None,None,None,None,None
Cible,5605.3,-0.3437306213378906,-0.34597320556640626,0.0028454763889312743,None,None,None,None,None,None,None,None,None,None,None,None
Cible,5605.32,-0.3437284240722656,-0.34595465087890626,0.002817093372344971,None,None,None,None,None,None,None,None,None,None,None,None
Cible,5605.34,-0.34373403930664065,-0.3459627685546875,0.002826829195022583,None,None,None,None,None,None,None,None,None,None,None,None
Cible,5605.36,-0.34372872924804687,-0.34595742797851564,0.0027937388420104983,None,None,None,None,None,None,None,None,None,None,None,None
Cible,5605.38,-0.3437293395996094,-0.3459835205078125,0.0028144891262054444,None,None,None,None,None,None,None,None,None,None,None,None
Cible,5605.4,-0.3437193908691406,-0.345969970703125,0.002790576696395874,None,None,None,None,None,None,None,None,None,None,None,None
Cible,5605.42,-0.34372210693359373,-0.3459809875488281,0.002818662166595459,None,None,None,None,None,None,None,None,None,None,None,None
Cible,5605.44,-0.34372634887695314,-0.3459685974121094,0.002791477680206299,None,None,None,None,None,None,None,None,None,None,None,None
Cible,5605.46,-0.3437283325195313,-0.34597891235351563,0.0028144683837890627,None,None,None,None,None,None,None,None,None,None,None,None
Cible,5605.48,-0.3437261657714844,-0.345986328125,0.00281553053855896,None,None,None,None,None,None,None,None,None,None,None,None
Cible,5605.5,-0.3437279968261719,-0.3459692077636719,0.002835775375366211,None,None,None,None,None,None,None,None,None,None,None,None
Cible,5605.5199999999995,-0.3437288513183594,-0.34598095703125,0.0028262593746185304,None,None,None,None,None,None,None,None,None,None,None,None
Cible,5605.54,-0.34371853637695315,-0.34595059204101564,0.0028086321353912353,None,None,None,None,None,None,None,None,None,None,None,None
Cible,5605.5599999999995,-0.34372393798828127,-0.3459678955078125,0.0028146328926086425,None,None,None,None,None,None,None,None,None,None,None,None
Cible,5605.58,-0.34373806762695314,-0.34596096801757814,0.002833914041519165,None,None,None,None,None,None,None,None,None,None,None,None
Cible,5605.599999999999,-0.3437288513183594,-0.34596466064453124,0.0028075881004333498,None,None,None,None,None,None,None,None,None,None,None,None
Cible,5605.62,-0.3437239685058594,-0.34595767211914064,0.002814295530319214,None,None,None,None,None,None,None,None,None,None,None,None
Cible,5605.639999999999,-0.34372802734375,-0.3459615173339844,0.002837421178817749,None,None,None,None,None,None,None,None,None,None,None,None
Cible,5605.66,-0.34371505737304686,-0.345954833984375,0.00279361629486084,None,None,None,None,None,None,None,None,None,None,None,None
Cible,5605.679999999999,-0.34372036743164064,-0.34596621704101566,0.002803426265716553,None,None,None,None,None,None,None,None,None,None,None,None
Cible,5605.7,-0.34373699951171877,-0.34597000122070315,0.0028240742683410644,None,None,None,None,None,None,None,None,None,None,None,None
Cible,5605.719999999999,-0.3437479248046875,-0.3459830017089844,0.0028049049377441406,None,None,None,None,None,None,None,None,None,None,None,None
Cible,5605.74,-0.3437238464355469,-0.3459734191894531,0.002844618082046509,None,None,None,None,None,None,None,None,None,None,None,None
Cible,5605.759999999999,-0.3437210693359375,-0.34595944213867186,0.0028213064670562743,None,None,None,None,None,None,None,None,None,None,None,None
Cible,5605.78,-0.34372787475585936,-0.3459638671875,0.002802837610244751,None,None,None,None,None,None,None,None,None,None,None,None
Cible,5605.8,-0.34373773193359375,-0.345968017578125,0.002849617004394531,None,None,None,None,None,None,None,None,None,None,None,None
Cible,5605.82,-0.34372686767578126,-0.34596054077148436,0.0028351871967315675,None,None,None,None,None,None,None,None,None,None,None,None
Cible,5605.84,-0.3437313232421875,-0.3459757690429688,0.00282841420173645,None,None,None,None,None,None,None,None,None,None,None,None
Cible,5605.86,-0.343728759765625,-0.3459539184570313,0.002799593687057495,None,None,None,None,None,None,None,None,None,None,None,None
Cible,5605.88,-0.34373519897460936,-0.3459631958007813,0.0028193418979644775,None,None,None,None,None,None,None,None,None,None,None,None
Cible,5605.9,-0.34373571777343753,-0.34595196533203126,0.0028062498569488524,None,None,None,None,None,None,None,None,None,None,None,None
Cible,5605.92,-0.34372222900390625,-0.34597158813476564,0.002809419393539429,None,None,None,None,None,None,None,None,None,None,None,None
Cible,5605.94,-0.34372763061523437,-0.3459643859863281,0.0028311400413513184,None,None,None,None,None,None,None,None,None,None,None,None
Cible,5605.96,-0.34373925781250003,-0.34597470092773436,0.0028259329795837403,None,None,None,None,None,None,None,None,None,None,None,None
Cible,5605.98,-0.3437377014160156,-0.34597793579101566,0.0028350596427917482,None,None,None,None,None,None,None,None,None,None,None,None
Cible,5606.0,-0.34373773193359375,-0.34597775268554687,0.0028352384567260744,None,None,None,None,None,None,None,None,None,None,None,None
Cible,5606.0199999999995,-0.343716796875,-0.3459722900390625,0.002819507122039795,None,None,None,None,None,None,None,None,None,None,None,None
Cible,5606.04,-0.3437243957519531,-0.34598693847656253,0.002826592445373535,None,None,None,None,None,None,None,None,None,None,None,None
Cible,5606.0599999999995,-0.3437354736328125,-0.34597528076171874,0.0028258004188537597,None,None,None,None,None,None,None,None,None,None,None,None
Cible,5606.08,-0.34373858642578126,-0.345980712890625,0.0028336455821990967,None,None,None,None,None,None,None,None,None,None,None,None
Cible,5606.099999999999,-0.34373345947265627,-0.34598379516601563,0.0028399507999420166,None,None,None,None,None,None,None,None,None,None,None,None
Cible,5606.12,-0.3437188720703125,-0.3459632263183594,0.0028390870094299318,None,None,None,None,None,None,None,None,None,None,None,None
Cible,5606.139999999999,-0.3437304382324219,-0.3459864501953125,0.002857862949371338,None,None,None,None,None,None,None,None,None,None,None,None
Cible,5606.16,-0.3437242431640625,-0.34596029663085937,0.0028231379985809327,None,None,None,None,None,None,None,None,None,None,None,None
Cible,5606.179999999999,-0.3437299499511719,-0.3459720458984375,0.002844162464141846,None,None,None,None,None,None,None,None,None,None,None,None
Cible,5606.2,-0.3437056884765625,-0.3459672546386719,0.002833711862564087,None,None,None,None,None,None,None,None,None,None,None,None
Cible,5606.219999999999,-0.34372314453125,-0.34598068237304686,0.0028436522483825683,None,None,None,None,None,None,None,None,None,None,None,None
Cible,5606.24,-0.34372534179687503,-0.3459738159179688,0.0028413281440734864,None,None,None,None,None,None,None,None,None,None,None,None
Cible,5606.259999999999,-0.34373126220703126,-0.3459486389160156,0.0028207502365112306,None,None,None,None,None,None,None,None,None,None,None,None
Cible,5606.28,-0.3437381286621094,-0.3459694519042969,0.0028329799175262453,None,None,None,None,None,None,None,None,None,None,None,None
Cible,5606.3,-0.34371832275390624,-0.3459705505371094,0.002844482183456421,None,None,None,None,None,None,None,None,None,None,None,None
Cible,5606.32,-0.3437337341308594,-0.345968994140625,0.0028075103759765624,None,None,None,None,None,None,None,None,None,None,None,None
Cible,5606.34,-0.34373217773437503,-0.34598532104492186,0.0028102312088012695,None,None,None,None,None,None,None,None,None,None,None,None
Cible,5606.36,-0.34372787475585936,-0.34596542358398436,0.002803819417953491,None,None,None,None,None,None,None,None,None,None,None,None
Cible,5606.38,-0.34372592163085935,-0.3459621276855469,0.002808408737182617,None,None,None,None,None,None,None,None,None,None,None,None
Cible,5606.4,-0.3437303466796875,-0.3459769287109375,0.002826835870742798,None,None,None,None,None,None,None,None,None,None,None,None
Cible,5606.42,-0.3437402038574219,-0.3459732360839844,0.00283150315284729,None,None,None,None,None,None,None,None,None,None,None,None
Cible,5606.44,-0.34372854614257814,-0.34596585083007814,0.0028031768798828125,None,None,None,None,None,None,None,None,None,None,None,None
Cible,5606.46,-0.343740234375,-0.3459747314453125,0.002801194667816162,None,None,None,None,None,None,None,None,None,None,None,None
Cible,5606.48,-0.3437255859375,-0.34597149658203125,0.0028227696418762207,None,None,None,None,None,None,None,None,None,None,None,None
Cible,5606.5,-0.3437364501953125,-0.3459756164550781,0.002851139545440674,None,None,None,None,None,None,None,None,None,None,None,None
Cible,5606.5199999999995,-0.3437154235839844,-0.3459560241699219,0.0028355529308319092,None,None,None,None,None,None,None,None,None,None,None,None
Cible,5606.54,-0.3437178955078125,-0.34597109985351565,0.0028365802764892577,None,None,None,None,None,None,None,None,None,None,None,None
Cible,5606.5599999999995,-0.3437292785644531,-0.34597918701171876,0.0028316254615783692,None,None,None,None,None,None,None,None,None,None,None,None
Cible,5606.58,-0.343716064453125,-0.3459659729003906,0.0027986462116241454,None,None,None,None,None,None,None,None,None,None,None,None
Cible,5606.599999999999,-0.3437249450683594,-0.34597833251953125,0.002790840148925781,None,None,None,None,None,None,None,None,None,None,None,None
Cible,5606.62,-0.3437128295898438,-0.34594976806640626,0.0028155367374420167,None,None,None,None,None,None,None,None,None,None,None,None
Cible,5606.639999999999,-0.3437422485351563,-0.34597265625,0.0028247172832489014,None,None,None,None,None,None,None,None,None,None,None,None
Cible,5606.66,-0.3437354736328125,-0.345993408203125,0.0028288912773132323,None,None,None,None,None,None,None,None,None,None,None,None
Cible,5606.679999999999,-0.3437247924804688,-0.345979248046875,0.0028364543914794925,None,None,None,None,None,None,None,None,None,None,None,None
Cible,5606.7,-0.34373367309570313,-0.34597195434570316,0.0028348464965820314,None,None,None,None,None,None,None,None,None,None,None,None
Cible,5606.719999999999,-0.34373223876953124,-0.3459552001953125,0.0028326091766357423,None,None,None,None,None,None,None,None,None,None,None,None
Cible,5606.74,-0.34372592163085935,-0.3459626159667969,0.002823790550231934,None,None,None,None,None,None,None,None,None,None,None,None
Cible,5606.759999999999,-0.34372039794921877,-0.34597235107421875,0.002811546802520752,None,None,None,None,None,None,None,None,None,None,None,None
cf1,5606.759999999999,0.7657064819335938,0.74945654296875,0.017212631225585938,0.07064522802829742,0.0005035400390770717,0.0009338378906430412,-0.0002514839172423346,0.7656964111328125,0.7494378662109376,0.4,0.07064522802829742,None,None,None,None
Cible,5606.78,-0.34372964477539064,-0.34598699951171874,0.002833989381790161,None,None,None,None,None,None,None,None,None,None,None,None
cf1,5606.78,0.7657039184570312,0.7494400024414063,0.017216320037841796,0.07064522802829742,-0.00012817382812611023,-0.0008270263671658507,0.0001844406127888748,0.7656964111328125,0.7494378662109376,0.4,0.07064522802829742,None,None,None,None
Cible,5606.8,-0.34372308349609376,-0.3459643249511719,0.00280033278465271,None,None,None,None,None,None,None,None,None,None,None,None
cf1,5606.8,0.7656987915039063,0.7494417114257813,0.017247480392456056,0.07367604225873947,-0.0002563476562411182,8.544921874888977e-05,0.0015580177306790115,0.7656964111328125,0.7494378662109376,0.4,0.07064522802829742,None,None,None,None
Cible,5606.82,-0.3437261657714844,-0.34595962524414064,0.002821065187454224,None,None,None,None,None,None,None,None,None,None,None,None
cf1,5606.82,0.7656991577148438,0.749468017578125,0.017223926544189454,0.07367604225873947,1.831054687361222e-05,0.0013153076172145617,-0.0011776924133579422,0.7656964111328125,0.7494378662109376,0.4,0.07064522802829742,None,None,None,None
Cible,5606.84,-0.34373135375976566,-0.34597329711914065,0.0028410747051239014,None,None,None,None,None,None,None,None,None,None,None,None
cf1,5606.84,0.7656897583007812,0.7494400634765626,0.017249908447265625,0.07367604225873947,-0.0004699707031161182,-0.001397705078090583,0.001299095153780179,0.7656964111328125,0.7494378662109376,0.4,0.07064522802829742,None,None,None,None
Cible,5606.86,-0.34372213745117186,-0.34598187255859375,0.002790184020996094,None,None,None,None,None,None,None,None,None,None,None,None
cf1,5606.86,0.765663818359375,0.7494736328125,0.017281694412231447,0.08543802797794342,-0.0012969970703409495,0.00167846679691247,0.0015892982483286808,0.7656964111328125,0.7494378662109376,0.4,0.07064522802829742,None,None,None,None
Cible,5606.88,-0.3437275085449219,-0.34598492431640626,0.0028406317234039307,None,None,None,None,None,None,None,None,None,None,None,None
cf1,5606.88,0.7656074829101562,0.7494765625,0.01736693572998047,0.08543802797794342,-0.002816772460878103,0.00014648437499888977,0.004262065887358035,0.7656964111328125,0.7494378662109376,0.4,0.07064522802829742,None,None,None,None
Cible,5606.9,-0.3437292785644531,-0.3459750061035156,0.002828084945678711,None,None,None,None,None,None,None,None,None,None,None,None
cf1,5606.9,0.7655541381835937,0.7495170288085937,0.01749827766418457,0.1612839251756668,-0.0026672363281874502,0.002023315429731215,0.006567096710360445,0.7656964111328125,0.7494378662109376,0.4,0.07064522802829742,None,None,None,None
Cible,5606.92,-0.343724365234375,-0.3459786071777344,0.0028101320266723634,None,None,None,None,None,None,None,None,None,None,None,None
cf1,5606.92,0.7654549560546875,0.7496698608398438,0.017965269088745118,0.1612839251756668,-0.004959106445204253,0.007641601562335687,0.023349571227517647,0.7656964111328125,0.7494378662109376,0.4,0.07064522802829742,None,None,None,None
Cible,5606.94,-0.3437116394042969,-0.345966552734375,0.0028409097194671633,None,None,None,None,None,None,None,None,None,None,None,None
cf1,5606.94,0.7653552856445313,0.7500408935546875,0.01907707405090332,0.1612839251756668,-0.004983520507929768,0.018551635742625344,0.055590248109224596,0.7656964111328125,0.7494378662109376,0.4,0.07064522802829742,None,None,None,None
Cible,5606.96,-0.34372207641601565,-0.34598416137695315,0.0028394675254821778,None,None,None,None,None,None,None,None,None,None,None,None
cf1,5606.96,0.7652196655273438,0.7504833984375,0.02105601692199707,0.6834836006164551,-0.00678100585922623,0.022125244140142053,0.0989471435525277,0.7656964111328125,0.7494378662109376,0.4,0.07064522802829742,None,None,None,None
Cible,5606.98,-0.34372894287109373,-0.34596975708007816,0.0028287742137908935,None,None,None,None,None,None,None,None,None,None,None,None
cf1,5606.98,0.7650383911132813,0.7509201660156251,0.02433015823364258,0.6834836006164551,-0.00906372070333733,0.02183837890676903,0.16370706558614662,0.7656964111328125,0.7494378662109376,0.4,0.07064522802829742,None,None,None,None
Cible,5607.0,-0.34372290039062503,-0.34597109985351565,0.0028288938999176025,None,None,None,None,None,None,None,None,None,None,None,None
cf1,5607.0,0.764642333984375,0.7515144653320313,0.02894837760925293,1.5906027555465698,-0.01980285644488451,0.029714965819661356,0.2309109687754773,0.7656964111328125,0.7494378662109376,0.4,0.07064522802829742,None,None,None,None
Cible,5607.0199999999995,-0.3437463684082031,-0.34597024536132814,0.002826749563217163,None,None,None,None,None,None,None,None,None,None,None,None
cf1,5607.0199999999995,0.7640946655273437,0.7520399780273438,0.03506092071533203,1.5906027555465698,-0.027383422852209897,0.026275634766248113,0.30562715531118223,0.7656964111328125,0.7494378662109376,0.4,0.07064522802829742,None,None,None,None
Cible,5607.04,-0.3437416687011719,-0.34597039794921874,0.002819848299026489,None,None,None,None,None,None,None,None,None,None,None,None
cf1,5607.04,0.763481201171875,0.752545654296875,0.042476722717285156,1.5906027555465698,-0.03067321777276637,0.025283813476010164,0.37079010008956265,0.7656964111328125,0.7494378662109376,0.4,0.07064522802829742,None,None,None,None
Cible,5607.0599999999995,-0.343716796875,-0.34596005249023437,0.002811428785324097,None,None,None,None,None,None,None,None,None,None,None,None
cf1,5607.0599999999995,0.762780517578125,0.753188232421875,0.05133135986328125,2.5172595977783203,-0.035034179688327116,0.0321289062507605,0.442731857310274,0.7656964111328125,0.7494378662109376,0.4,0.07064522802829742,None,None,None,None
Cible,5607.08,-0.34371884155273436,-0.3459635314941406,0.0028224849700927736,None,None,None,None,None,None,None,None,None,None,None,None
cf1,5607.08,0.7619679565429688,0.7538296508789063,0.06136271286010742,2.5172595977783203,-0.040628051756925986,0.03207092285086251,0.5015676498303604,0.7656964111328125,0.7494378662109376,0.4,0.07064522802829742,None,None,None,None
Cible,5607.099999999999,-0.34373590087890626,-0.3459713745117188,0.0028234941959381105,None,None,None,None,None,None,None,None,None,None,None,None
cf1,5607.099999999999,0.7610250854492188,0.7544362792968751,0.07249919891357422,3.3063690662384033,-0.04714355468861577,0.030331420899155675,0.5568243026865068,0.7656964111328125,0.7494378662109376,0.4,0.07064522802829742,None,None,None,None
Cible,5607.12,-0.34371041870117186,-0.3459741516113281,0.002817744970321655,None,None,None,None,None,None,None,None,None,None,None,None
cf1,5607.12,0.7600842895507812,0.7550421752929688,0.08464426422119141,3.3063690662384033,-0.04703979492085027,0.030294799804025253,0.6072532653676046,0.7656964111328125,0.7494378662109376,0.4,0.07064522802829742,None,None,None,None
Cible,5607.139999999999,-0.3437286071777344,-0.3459759216308594,0.002839970111846924,None,None,None,None,None,None,None,None,None,None,None,None
cf1,5607.139999999999,0.7590687866210938,0.7554738769531251,0.09746213531494141,3.3063690662384033,-0.05077514648557265,0.021585083008323895,0.6408935547026552,0.7656964111328125,0.7494378662109376,0.4,0.07064522802829742,None,None,None,None
Cible,5607.16,-0.3437164611816406,-0.3459560546875,0.0027820181846618655,None,None,None,None,None,None,None,None,None,None,None,None
cf1,5607.16,0.7581527709960938,0.7559508056640625,0.11082600402832031,4.0355224609375,-0.04580078124899969,0.023846435546349864,0.6681934356543597,0.7656964111328125,0.7494378662109376,0.4,0.07064522802829742,None,None,None,None
Cible,5607.179999999999,-0.3437014465332031,-0.34597100830078126,0.00280255126953125,None,None,None,None,None,None,None,None,None,None,None,None
cf1,5607.179999999999,0.757339111328125,0.7562084350585938,0.12448884582519532,4.0355224609375,-0.04068298339939992,0.012881469726871281,0.6831420898599044,0.7656964111328125,0.7494378662109376,0.4,0.07064522802829742,None,None,None,None
Cible,5607.2,-0.3437220153808594,-0.34597857666015625,0.002827211380004883,None,None,None,None,None,None,None,None,None,None,None,None
cf1,5607.2,0.7565174560546876,0.7564351806640626,0.1385465087890625,4.562324523925781,-0.04108276367097683,0.011337280273190475,0.7028831481780166,0.7656964111328125,0.7494378662109376,0.4,0.07064522802829742,None,None,None,None
Cible,5607.219999999999,-0.3437156982421875,-0.3459444885253906,0.002815516948699951,None,None,None,None,None,None,None,None,None,None,None,None
cf1,5607.219999999999,0.7558529663085938,0.7567313232421875,0.15268667602539063,4.562324523925781,-0.033224487305475066,0.014807128906596944,0.7070083618331252,0.7656964111328125,0.7494378662109376,0.4,0.07064522802829742,None,None,None,None
Cible,5607.24,-0.34372323608398436,-0.34597344970703126,0.0028186655044555664,None,None,None,None,None,None,None,None,None,None,None,None
cf1,5607.24,0.7541127319335937,0.75534228515625,0.16746168518066407,4.562324523925781,-0.08701171874810262,-0.06945190429535844,0.7387504577475466,0.7656964111328125,0.7494378662109376,0.4,0.07064522802829742,None,None,None,None
Cible,5607.259999999999,-0.34373492431640623,-0.3459714660644531,0.0028250534534454345,None,None,None,None,None,None,None,None,None,None,None,None
cf1,5607.259999999999,0.7535725708007812,0.755328857421875,0.1814097137451172,4.806397438049316,-0.027008056641264766,-0.0006713867187638778,0.6974014282391475,0.7656964111328125,0.7494378662109376,0.4,0.07064522802829742,None,None,None,None
Cible,5607.28,-0.3437272338867188,-0.3459743347167969,0.0028062376976013183,None,None,None,None,None,None,None,None,None,None,None,None
cf1,5607.28,0.7543372802734375,0.7567413940429688,0.19485028076171876,4.806397438049316,0.03823547363197928,0.07062683105314596,0.6720283508154095,0.7656964111328125,0.7494378662109376,0.4,0.07064522802829742,None,None,None,None
Cible,5607.3,-0.34372247314453125,-0.34595635986328127,0.0027935874462127687,None,None,None,None,None,None,None,None,None,None,None,None
cf1,5607.3,0.7529727172851562,0.7552457885742188,0.2089388122558594,4.922418594360352,-0.06822814941257313,-0.0747802734358702,0.7044265746916555,0.7656964111328125,0.7494378662109376,0.4,0.07064522802829742,None,None,None,None
Cible,5607.32,-0.34373513793945315,-0.3459692687988281,0.0028018743991851808,None,None,None,None,None,None,None,None,None,None,None,None
cf1,5607.32,0.752826416015625,0.75491650390625,0.22202175903320312,4.922418594360352,-0.0073150634767325026,-0.01646423339882816,0.654147338882655,0.7656964111328125,0.7494378662109376,0.4,0.07064522802829742,None,None,None,None
Cible,5607.34,-0.3437342224121094,-0.34596823120117187,0.0028315460681915283,None,None,None,None,None,None,None,None,None,None,None,None
cf1,5607.34,0.7528234252929688,0.7545657958984375,0.23480075073242188,4.922418594360352,-0.0001495361328119449,-0.017535400390239753,0.6389495849469908,0.7656964111328125,0.7494378662109376,0.4,0.07064522802829742,None,None,None,None
Cible,5607.36,-0.3437381286621094,-0.34596871948242186,0.002846456289291382,None,None,None,None,None,None,None,None,None,None,None,None
cf1,5607.36,0.752930908203125,0.754174072265625,0.24702630615234375,4.956022262573242,0.005374145507940869,-0.01958618164108713,0.6112777710105485,0.7656964111328125,0.7494378662109376,0.4,0.07064522802829742,None,None,None,None
Cible,5607.38,-0.3437381896972656,-0.3459638977050781,0.0028388500213623047,None,None,None,None,None,None,None,None,None,None,None,None
cf1,5607.38,0.7531526489257813,0.7537230224609375,0.25875540161132815,4.956022262573242,0.011087036132569917,-0.022552490233886502,0.586454772936419,0.7656964111328125,0.7494378662109376,0.4,0.07064522802829742,None,None,None,None
Cible,5607.4,-0.3437208557128906,-0.3459534301757813,0.0028281972408294677,None,None,None,None,None,None,None,None,None,None,None,None
cf1,5607.4,0.7534270019531251,0.7528789672851562,0.26984567260742187,4.89241361618042,0.013717651367514322,-0.04220275879005962,0.5545135498177985,0.7656964111328125,0.7494378662109376,0.4,0.07064522802829742,None,None,None,None
Cible,5607.42,-0.34371328735351564,-0.34596249389648437,0.002795451879501343,None,None,None,None,None,None,None,None,None,None,None,None
cf1,5607.42,0.7538178100585937,0.7522031860351562,0.28028628540039063,4.89241361618042,0.019540405273006177,-0.03378906249926281,0.5220306396370433,0.7656964111328125,0.7494378662109376,0.4,0.07064522802829742,None,None,None,None
Cible,5607.44,-0.34373358154296874,-0.34597637939453124,0.0028312599658966067,None,None,None,None,None,None,None,None,None,None,None,None
cf1,5607.44,0.7543253784179688,0.7515545043945313,0.2903514099121094,4.89241361618042,0.025378417969352297,-0.03243408203201328,0.5032562255978384,0.7656964111328125,0.7494378662109376,0.4,0.07064522802829742,None,None,None,None
Cible,5607.46,-0.34373007202148437,-0.34596450805664064,0.0028288586139678957,None,None,None,None,None,None,None,None,None,None,None,None
cf1,5607.46,0.7548462524414062,0.7508165283203125,0.2996749572753906,4.74429178237915,0.026043701171305455,-0.03689880371013314,0.46617736815388566,0.7656964111328125,0.7494378662109376,0.4,0.07064522802829742,None,None,None,None
Cible,5607.48,-0.3437311096191406,-0.345975830078125,0.002848135232925415,None,None,None,None,None,None,None,None,None,None,None,None
cf1,5607.48,0.755552490234375,0.7500948486328125,0.30849398803710937,4.74429178237915,0.035311889649272246,-0.036083984375854875,0.44095153809636456,0.7656964111328125,0.7494378662109376,0.4,0.07064522802829742,None,None,None,None
Cible,5607.5,-0.343738037109375,-0.3459750671386719,0.002818901300430298,None,None,None,None,None,None,None,None,None,None,None,None
cf1,5607.5,0.7562369384765625,0.7491939697265625,0.31665496826171874,4.586729049682617,0.03422241210862782,-0.04504394531151745,0.40804901122156173,0.7656964111328125,0.7494378662109376,0.4,0.07064522802829742,None,None,None,None
Cible,5607.5199999999995,-0.34372290039062503,-0.3459652099609375,0.0028315324783325197,None,None,None,None,None,None,None,None,None,None,None,None
cf1,5607.5199999999995,0.7570487060546875,0.7483221435546875,0.3240995483398438,4.586729049682617,0.04058837890721312,-0.043591308594779735,0.3722290039150541,0.7656964111328125,0.7494378662109376,0.4,0.07064522802829742,None,None,None,None
Cible,5607.54,-0.34371615600585936,-0.34595867919921874,0.002835533618927002,None,None,None,None,None,None,None,None,None,None,None,None
cf1,5607.54,0.7579741210937501,0.7474873046875,0.33105566406250003,4.586729049682617,0.04627075195211581,-0.041741943358463506,0.3478057861252208,0.7656964111328125,0.7494378662109376,0.4,0.07064522802829742,None,None,None,None
Cible,5607.5599999999995,-0.34372872924804687,-0.34597412109375003,0.0028357183933258056,None,None,None,None,None,None,None,None,None,None,None,None
cf1,5607.5599999999995,0.7588966064453125,0.7466000366210938,0.3374159851074219,4.41592264175415,0.04612426757921441,-0.044363403321362356,0.3180160522536124,0.7656964111328125,0.7494378662109376,0.4,0.07064522802829742,None,None,None,None
Cible,5607.58,-0.343732666015625,-0.345982666015625,0.0028362019062042236,None,None,None,None,None,None,None,None,None,None,None,None
cf1,5607.58,0.759862060546875,0.74569482421875,0.3432139282226563,4.41592264175415,0.048272705077069177,-0.045260620116199954,0.28989715575539243,0.7656964111328125,0.7494378662109376,0.4,0.07064522802829742,None,None,None,None
Cible,5607.599999999999,-0.34373223876953124,-0.34598406982421875,0.002827387571334839,None,None,None,None,None,None,None,None,None,None,None,None
cf1,5607.599999999999,0.7608443603515626,0.7448369750976562,0.3484773559570313,4.253455638885498,0.04911499023553935,-0.04289245605570266,0.2631713867249728,0.7656964111328125,0.7494378662109376,0.4,0.07064522802829742,None,None,None,None
Cible,5607.62,-0.3437076110839844,-0.3459810791015625,0.0028231229782104492,None,None,None,None,None,None,None,None,None,None,None,None
cf1,5607.62,0.7619308471679688,0.7438826293945313,0.3531303405761719,4.253455638885498,0.054324340819125114,-0.04771728515520417,0.2326492309519517,0.7656964111328125,0.7494378662109376,0.4,0.07064522802829742,None,None,None,None
Cible,5607.639999999999,-0.34373217773437503,-0.34596206665039064,0.0028012263774871825,None,None,None,None,None,None,None,None,None,None,None,None
cf1,5607.639999999999,0.76304248046875,0.7430374755859375,0.35749517822265625,4.253455638885498,0.05558166504037603,-0.04225769043069156,0.21824188232937955,0.7619308471679688,0.7438826293945313,0.4,4.253455638885498,None,None,None,None
Cible,5607.66,-0.343720947265625,-0.34596719360351563,0.0028051450252532958,None,None,None,None,None,None,None,None,None,None,None,None
cf1,5607.66,0.7640744018554688,0.7421027221679688,0.361278564453125,4.116014003753662,0.05159606933481451,-0.04673767089741332,0.18916931151930858,0.7619308471679688,0.7438826293945313,0.4,4.253455638885498,None,None,None,None
Cible,5607.679999999999,-0.3437268981933594,-0.34596905517578125,0.0028354761600494385,None,None,None,None,None,None,None,None,None,None,None,None
cf1,5607.679999999999,0.7652584838867188,0.7413134155273438,0.36463714599609376,4.116014003753662,0.05920410156389888,-0.039465332032185364,0.16792907715240862,0.7619308471679688,0.7438826293945313,0.4,4.253455638885498,None,None,None,None
Cible,5607.7,-0.3437288818359375,-0.3459750671386719,0.0028324172496795655,None,None,None,None,None,None,None,None,None,None,None,None
cf1,5607.7,0.7663810424804688,0.740513916015625,0.36773138427734375,4.429350852966309,0.056127929686274315,-0.03997497558506542,0.1547119140591227,0.7619308471679688,0.7438826293945313,0.4,4.253455638885498,None,None,None,None
Cible,5607.719999999999,-0.34371966552734373,-0.3459876403808594,0.002814401388168335,None,None,None,None,None,None,None,None,None,None,None,None
cf1,5607.719999999999,0.767506591796875,0.7397854614257813,0.37040679931640624,4.429350852966309,0.05627746582163991,-0.03642272949304723,0.13377075195628774,0.7619308471679688,0.7438826293945313,0.4,4.253455638885498,None,None,None,None
Cible,5607.74,-0.343742431640625,-0.34599291992187503,0.0028227288722991943,None,None,None,None,None,None,None,None,None,None,None,None
cf1,5607.74,0.7686008911132812,0.73901025390625,0.3728377990722656,4.429350852966309,0.05471496581911846,-0.03876037597571928,0.12154998779031503,0.7619308471679688,0.7438826293945313,0.4,4.253455638885498,None,None,None,None
Cible,5607.759999999999,-0.34372879028320313,-0.3459944152832031,0.0028328213691711426,None,None,None,None,None,None,None,None,None,None,None,None
cf1,5607.759999999999,0.769752685546875,0.7383168334960938,0.37504132080078123,5.046536445617676,0.05758972168105238,-0.034671020508629205,0.11017608642838646,0.7619308471679688,0.7438826293945313,0.4,4.253455638885498,None,None,None,None
Cible,5607.78,-0.3437351684570313,-0.3459627685546875,0.0028357837200164797,None,None,None,None,None,None,None,None,None,None,None,None
cf1,5607.78,0.7707874145507813,0.7376685791015625,0.3769984130859375,5.046536445617676,0.051736450194181736,-0.03241271972585806,0.0978546142556781,0.7619308471679688,0.7438826293945313,0.4,4.253455638885498,None,None,None,None
Cible,5607.8,-0.3437294616699219,-0.34596694946289064,0.002825227975845337,None,None,None,None,None,None,None,None,None,None,None,None
cf1,5607.8,0.771788330078125,0.737001953125,0.3786343994140625,5.666500568389893,0.05004577636609338,-0.033331298827393364,0.08179931640446476,0.7619308471679688,0.7438826293945313,0.4,4.253455638885498,None,None,None,None
