Crazyflie name,QTM packet timestamp (s),QTM_x (m),QTM_y (m),QTM_z (m),cf_yaw (°),QTM_vx (m/s),QTM_vy (m/s),QTM_vz (m/s),x_g (m),y_g (m),z_g (m),yaw_g (°),roll_c (°),pitch_c (°),yaw_rate_c (°/s),thrust_c (PWM)
cf1,270.88,0.010299720764160157,0.005224247455596924,0.008454174041748048,-0.050056349486112595,0.00026311874389635116,-0.00018488168716421222,0.00031826496124251675,0.010289196014404298,0.005231642723083497,0.4,-0.04824453592300415,None,None,None,None
cf1,270.92,0.010288145065307617,0.005202856540679932,0.008481524467468263,-0.04273846745491028,-0.0002893924713133483,-0.0005347728729245381,0.0006837606430050234,0.010289196014404298,0.005231642723083497,0.4,-0.04824453592300415,None,None,None,None
cf1,270.96,0.010285330772399903,0.005225823879241943,0.008507399559020997,-0.04273846745491028,-7.035732269291393e-05,0.0005741834640508064,0.0006468772888189383,0.010289196014404298,0.005231642723083497,0.4,-0.04824453592300415,None,None,None,None
cf1,271.0,0.010348213195800782,0.0053054003715515136,0.00875266456604004,-0.0332643985748291,0.001572060585021166,0.00198941230773824,0.006131625175472939,0.010289196014404298,0.005231642723083497,0.4,-0.04824453592300415,None,None,None,None
cf1,271.03999999999996,0.01039779281616211,0.005549544811248779,0.00982995319366455,0.04557053744792938,0.0012394905090343156,0.0061036109924371895,0.026932215690637258,0.010289196014404298,0.005231642723083497,0.4,-0.04824453592300415,None,None,None,None
cf1,271.08,0.010181457519531251,0.005971909046173096,0.0141851224899292,0.6194499135017395,-0.005408382415768697,0.010559105873102515,0.10887923240656053,0.010289196014404298,0.005231642723083497,0.4,-0.04824453592300415,None,None,None,None
cf1,271.12,0.009714303016662597,0.006530064582824707,0.024072383880615236,1.6079306602478027,-0.011678862571710372,0.013953888416283148,0.24718153476702448,0.010289196014404298,0.005231642723083497,0.4,-0.04824453592300415,None,None,None,None
cf1,271.15999999999997,0.008599913597106934,0.007236771106719971,0.04002323150634766,1.6079306602478027,-0.027859735488916917,0.01766766309739766,0.3987711906436732,0.010289196014404298,0.005231642723083497,0.4,-0.04824453592300415,None,None,None,None
cf1,271.2,0.007046870231628418,0.007971108913421631,0.061218372344970705,2.41959810256958,-0.03882608413694304,0.01835844516753211,0.5298785209653051,0.010289196014404298,0.005231642723083497,0.4,-0.04824453592300415,None,None,None,None
cf1,271.24,0.005142343044281006,0.008616442680358887,0.08633078765869141,3.100219488143921,-0.04761317968366095,0.01613334417342316,0.6278103828426965,0.010289196014404298,0.005231642723083497,0.4,-0.04824453592300415,None,None,None,None
cf1,271.28,0.003206001281738281,0.009075508117675782,0.11393416595458984,3.6734044551849365,-0.04840854406361214,0.011476635932932796,0.6900844573980883,0.010289196014404298,0.005231642723083497,0.4,-0.04824453592300415,None,None,None,None
cf1,271.32,0.0014937399625778198,0.009287385940551758,0.1425790557861328,4.081378936767578,-0.042806532978989634,0.005296945571896706,0.7161222457882078,0.010289196014404298,0.005231642723083497,0.4,-0.04824453592300415,None,None,None,None
cf1,271.36,7.4423658661544325e-06,0.009205906867980958,0.17142279052734374,4.081378936767578,-0.03715743991777262,-0.002036976814268975,0.7210933685299045,0.010289196014404298,0.005231642723083497,0.4,-0.04824453592300415,None,None,None,None
cf1,271.4,-0.0010690069198608398,0.0088973388671875,0.1992281951904297,4.274201393127441,-0.026911232143199335,-0.0077142000198434585,0.695135116577781,0.010289196014404298,0.005231642723083497,0.4,-0.04824453592300415,None,None,None,None
cf1,271.44,-0.0017802455425262452,0.008384967803955078,0.2256007843017578,4.280366897583008,-0.01778096556662604,-0.012809276580803998,0.6593147277828656,0.010289196014404298,0.005231642723083497,0.4,-0.04824453592300415,None,None,None,None
cf1,271.47999999999996,-0.0021661200523376465,0.007437670230865479,0.25002503967285156,4.161745548248291,-0.009646862745293805,-0.023682439327261513,0.6106063842778989,0.010289196014404298,0.005231642723083497,0.4,-0.04824453592300415,None,None,None,None
cf1,271.52,-0.002064855337142944,0.00636125659942627,0.272184814453125,3.9639599323272705,0.002531617879866262,-0.02691034078596646,0.5539943695065521,0.010289196014404298,0.005231642723083497,0.4,-0.04824453592300415,None,None,None,None
cf1,271.56,-0.0016748975515365602,0.004944581985473633,0.2918700256347656,3.9639599323272705,0.009748944640154612,-0.0354168653487978,0.49213027954076394,0.010289196014404298,0.005231642723083497,0.4,-0.04824453592300415,None,None,None,None
cf1,271.59999999999997,-0.0010935837030410767,0.003553318977355957,0.3092179870605469,3.7205588817596436,0.014532846212400304,-0.034781575202973536,0.4336990356449261,0.010289196014404298,0.005231642723083497,0.4,-0.04824453592300415,None,None,None,None
cf1,271.64,-0.00025338497757911683,0.001936131238937378,0.32418133544921873,3.490971326828003,0.021004968136538252,-0.0404296934604438,0.3740837097166051,0.010289196014404298,0.005231642723083497,0.4,-0.04824453592300415,None,None,None,None
cf1,271.68,0.0008503209352493286,0.0002497173100709915,0.3368492126464844,3.281041145324707,0.02759264782069702,-0.04216034822163809,0.316696929931479,0.010289196014404298,0.005231642723083497,0.4,-0.04824453592300415,None,None,None,None
cf1,271.71999999999997,0.002086108922958374,-0.0013600480556488037,0.34748516845703126,3.0981438159942627,0.03089469969275423,-0.04024413414303148,0.26589889526391386,0.010289196014404298,0.005231642723083497,0.4,-0.04824453592300415,None,None,None,None
cf1,271.76,0.0034295141696929934,-0.0030299363136291504,0.35639105224609374,3.0981438159942627,0.033585131168348305,-0.04174720644948731,0.22264709472644822,0.010289196014404298,0.005231642723083497,0.4,-0.04824453592300415,None,None,None,None
cf1,271.8,0.004782732009887695,-0.004552489280700684,0.3637830200195313,2.935164451599121,0.03383044600485024,-0.038063824176768866,0.18479919433584385,0.0034295141696929934,-0.0030299363136291504,0.4,3.0981438159942627,None,None,None,None
cf1,271.84,0.006151566028594971,-0.0059918718338012695,0.36993853759765627,2.8088834285736084,0.03422085046771301,-0.03598456382754737,0.15388793945326476,0.0034295141696929934,-0.0030299363136291504,0.4,3.0981438159942627,None,None,None,None
cf1,271.88,0.00745894479751587,-0.007345695018768311,0.3751524963378906,3.1050171852111816,0.032684469223005747,-0.03384557962415872,0.13034896850579172,0.0034295141696929934,-0.0030299363136291504,0.4,3.0981438159942627,None,None,None,None
cf1,271.92,0.008628023147583009,-0.008468533515930176,0.37962567138671877,3.6038689613342285,0.02922695875166352,-0.02807096242903226,0.11182937622064679,0.0034295141696929934,-0.0030299363136291504,0.4,3.0981438159942627,None,None,None,None
cf1,271.96,0.009597481727600098,-0.009543373107910156,0.3836734313964844,3.6038689613342285,0.024236464500449275,-0.026870989799523938,0.10119400024423314,0.0034295141696929934,-0.0030299363136291504,0.4,3.0981438159942627,None,None,None,None
cf1,272.0,0.010497885704040527,-0.010534992218017578,0.3872546691894531,4.111997604370117,0.022510099410999223,-0.024790477752672874,0.08953094482417184,0.0034295141696929934,-0.0030299363136291504,0.4,3.0981438159942627,None,None,None,None
cf1,272.03999999999996,0.011040236473083496,-0.011171514511108399,0.3905252685546875,4.550160884857178,0.013558769226086549,-0.015913057327285002,0.08176498413093396,0.0034295141696929934,-0.0030299363136291504,0.4,3.0981438159942627,None,None,None,None
cf1,272.08,0.011448756217956543,-0.011826634407043457,0.3935851135253906,4.92410945892334,0.010212993621820937,-0.01637799739836807,0.07649612426753855,0.0034295141696929934,-0.0030299363136291504,0.4,3.0981438159942627,None,None,None,None
cf1,272.12,0.011598294258117677,-0.012321406364440918,0.3965050354003906,5.225287437438965,0.0037384510040264435,-0.012369298934930207,0.07299804687496288,0.0034295141696929934,-0.0030299363136291504,0.4,3.0981438159942627,None,None,None,None
cf1,272.15999999999997,0.011485838890075683,-0.01273940086364746,0.39936846923828123,5.225287437438965,-0.002811384201052397,-0.010449862480173057,0.07158584594733051,0.0034295141696929934,-0.0030299363136291504,0.4,3.0981438159942627,None,None,None,None
cf1,272.2,0.011120269775390625,-0.01297701358795166,0.4020074768066406,5.480515480041504,-0.009139227867121773,-0.005940318107601957,0.0659751892089509,0.0034295141696929934,-0.0030299363136291504,0.4,3.0981438159942627,None,None,None,None
cf1,272.24,0.010588508605957031,-0.013107939720153809,0.4046558532714844,5.671665191650391,-0.013294029235833055,-0.003273153305052038,0.06620941162106068,0.0034295141696929934,-0.0030299363136291504,0.4,3.0981438159942627,None,None,None,None
cf1,272.28,0.009897930145263672,-0.013123330116271974,0.40707861328125,5.808399200439453,-0.017264461517349682,-0.00038475990295447126,0.06056900024419511,0.0034295141696929934,-0.0030299363136291504,0.4,3.0981438159942627,None,None,None,None
cf1,272.32,0.009224294662475586,-0.013147186279296875,0.4094576110839844,5.869534015655518,-0.016840887069693538,-0.0005964040756222396,0.05947494506832889,0.0034295141696929934,-0.0030299363136291504,0.4,3.0981438159942627,None,None,None,None
cf1,272.36,0.008249250411987305,-0.013052499771118165,0.4117817077636719,5.869534015655518,-0.02437610626219455,0.002367162704466564,0.05810241699215843,0.0034295141696929934,-0.0030299363136291504,0.4,3.0981438159942627,None,None,None,None
cf1,272.4,0.007324697494506836,-0.012954410552978517,0.41395074462890624,5.932761192321777,-0.02311382293703274,0.002452230453493426,0.054225921630907864,0.0034295141696929934,-0.0030299363136291504,0.4,3.0981438159942627,None,None,None,None
cf1,272.44,0.006398081302642822,-0.012885533332824708,0.4160630187988281,5.937969207763672,-0.023165404796588504,0.0017219305038443328,0.05280685424801997,0.0034295141696929934,-0.0030299363136291504,0.4,3.0981438159942627,None,None,None,None
cf1,272.47999999999996,0.005356936454772949,-0.012756879806518556,0.41810498046875,5.914734363555908,-0.0260286211967705,0.0032163381576567397,0.05104904174809335,0.0034295141696929934,-0.0030299363136291504,0.4,3.0981438159942627,None,None,None,None
cf1,272.52,0.0044730186462402345,-0.012701997756958008,0.4201046447753906,5.898529052734375,-0.022097945213306557,0.0013720512390129863,0.04999160766598977,0.0034295141696929934,-0.0030299363136291504,0.4,3.0981438159942627,None,None,None,None
cf1,272.56,0.0035738294124603273,-0.01261316680908203,0.42205859375,5.898529052734375,-0.02247973084448618,0.002220773696898293,0.048848724365209414,0.0034295141696929934,-0.0030299363136291504,0.4,3.0981438159942627,None,None,None,None
cf1,272.59999999999997,0.002812157154083252,-0.012602773666381836,0.42391119384765624,5.875243186950684,-0.019041806459444206,0.0002598285675051007,0.046315002441448476,0.0034295141696929934,-0.0030299363136291504,0.4,3.0981438159942627,None,None,None,None
cf1,272.64,0.0021808688640594484,-0.012643144607543946,0.42568536376953126,5.827922821044922,-0.015782207250587012,-0.001009273529052226,0.04435424804685263,0.0034295141696929934,-0.0030299363136291504,0.4,3.0981438159942627,None,None,None,None
cf1,272.68,0.001632304310798645,-0.012643548011779785,0.42734072875976564,5.779750347137451,-0.013714113831513068,-1.0085105895963872e-05,0.041384124755838504,0.0034295141696929934,-0.0030299363136291504,0.4,3.0981438159942627,None,None,None,None
cf1,272.71999999999997,0.0011588685512542724,-0.012706977844238281,0.4288833312988281,5.702179908752441,-0.01183589398862008,-0.0015857458114638546,0.03856506347659671,0.0034295141696929934,-0.0030299363136291504,0.4,3.0981438159942627,None,None,None,None
cf1,272.76,0.0008730525970458984,-0.012772250175476075,0.43039923095703125,5.702179908752441,-0.007145398855205695,-0.001631808280944016,0.03789749145505926,0.0034295141696929934,-0.0030299363136291504,0.4,3.0981438159942627,None,None,None,None
cf1,272.8,0.0006873948574066162,-0.012857369422912598,0.431703125,5.629635810852051,-0.004641443490979681,-0.0021279811859119735,0.03259735107420251,0.0034295141696929934,-0.0030299363136291504,0.4,3.0981438159942627,None,None,None,None
cf1,272.84,0.0006119027733802795,-0.012940247535705567,0.4329591369628906,5.557365894317627,-0.0018873021006601339,-0.002071952819826114,0.03140029907229361,0.0034295141696929934,-0.0030299363136291504,0.4,3.0981438159942627,None,None,None,None
cf1,272.88,0.0006996299624443055,-0.013060186386108398,0.4340484619140625,5.496641159057617,0.0021931797265995266,-0.002998471260069253,0.02723312377928272,0.0034295141696929934,-0.0030299363136291504,0.4,3.0981438159942627,None,None,None,None
cf1,272.92,0.0008102288246154785,-0.013163847923278809,0.43507501220703126,5.460012912750244,0.002764971554277912,-0.002591538429258931,0.025663757324206254,0.0034295141696929934,-0.0030299363136291504,0.4,3.0981438159942627,None,None,None,None
cf1,272.96,0.0010589228868484498,-0.01324488925933838,0.43594476318359376,5.460012912750244,0.006217351555829937,-0.0020260334014911238,0.021743774414082276,0.0034295141696929934,-0.0030299363136291504,0.4,3.0981438159942627,None,None,None,None
cf1,273.0,0.0013735759258270263,-0.013330967903137207,0.4367225341796875,5.407866954803467,0.007866325974460388,-0.002151966094969564,0.019444274902333015,0.0034295141696929934,-0.0030299363136291504,0.4,3.0981438159942627,None,None,None,None
cf1,273.03999999999996,0.001668280839920044,-0.01339926815032959,0.4373717041015625,5.364654064178467,0.007367622852332142,-0.0017075061798111327,0.016229248046890403,0.0034295141696929934,-0.0030299363136291504,0.4,3.0981438159942627,None,None,None,None
cf1,273.08,0.00202797794342041,-0.013413815498352051,0.43782815551757814,5.285263538360596,0.008992427587504556,-0.0003636837005613568,0.011411285400385043,0.0034295141696929934,-0.0030299363136291504,0.4,3.0981438159942627,None,None,None,None
cf1,273.12,0.002365833282470703,-0.013408551216125488,0.4381044921875,5.1908745765686035,0.008446383476252999,0.00013160705566400558,0.0069084167480435625,0.0034295141696929934,-0.0030299363136291504,0.4,3.0981438159942627,None,None,None,None
cf1,273.15999999999997,0.002827676773071289,-0.013395316123962402,0.43818518066406253,5.1908745765686035,0.011546087265025155,0.00033087730407746393,0.002017211914064512,0.0034295141696929934,-0.0030299363136291504,0.4,3.0981438159942627,None,None,None,None
cf1,273.2,0.0032095487117767335,-0.013359067916870117,0.43812725830078125,5.084712505340576,0.009546798467631224,0.0009062051773066656,-0.0014480590820313086,0.0034295141696929934,-0.0030299363136291504,0.4,3.0981438159942627,None,None,None,None
cf1,273.24,0.003590033531188965,-0.013269545555114746,0.4378379821777344,5.015100479125977,0.009512120485300923,0.002238059043883113,-0.007231903076167686,0.0034295141696929934,-0.0030299363136291504,0.4,3.0981438159942627,None,None,None,None
cf1,273.28,0.003971662521362305,-0.013104364395141602,0.437388916015625,4.967159271240234,0.00954072475434217,0.004129528999332367,-0.011226654052744697,0.0034295141696929934,-0.0030299363136291504,0.4,3.0981438159942627,None,None,None,None
cf1,273.32,0.0043197937011718755,-0.012933481216430663,0.43685910034179687,4.893616199493408,0.008703279495234814,0.004272079467771278,-0.013245391845696949,0.0034295141696929934,-0.0030299363136291504,0.4,3.0981438159942627,None,None,None,None
cf1,273.36,0.004643559455871582,-0.012682357788085939,0.43615838623046876,4.893616199493408,0.008094143867488522,0.006278085708614912,-0.017517852783193653,0.0034295141696929934,-0.0030299363136291504,0.4,3.0981438159942627,None,None,None,None
cf1,273.4,0.004902836799621582,-0.012415903091430664,0.4354755859375,4.807729721069336,0.006481933593755903,0.0066613674163879194,-0.01707000732423412,0.0034295141696929934,-0.0030299363136291504,0.4,3.0981438159942627,None,None,None,None
cf1,273.44,0.00512968397140503,-0.012147734642028809,0.4347871398925781,4.746086120605469,0.005671179294583282,0.00670421123504295,-0.017211151123038913,0.0034295141696929934,-0.0030299363136291504,0.4,3.0981438159942627,None,None,None,None
cf1,273.47999999999996,0.00531721305847168,-0.011894963264465333,0.43409036254882816,4.693604469299316,0.004688227176670524,0.006319284439092644,-0.01741943359376471,0.0034295141696929934,-0.0030299363136291504,0.4,3.0981438159942627,None,None,None,None
cf1,273.52,0.0054185581207275395,-0.011660465240478516,0.4334673767089844,4.656325340270996,0.002533626556395189,0.0058624505996674355,-0.015574645996086293,0.0034295141696929934,-0.0030299363136291504,0.4,3.0981438159942627,None,None,None,None
cf1,273.56,0.005498650550842285,-0.011352876663208007,0.4328877258300781,4.656325340270996,0.0020023107528676105,0.007689714431758777,-0.014491271972649291,0.0034295141696929934,-0.0030299363136291504,0.4,3.0981438159942627,None,None,None,None
cf1,273.59999999999997,0.005567423820495606,-0.011035061836242676,0.4322914733886719,4.638038635253906,0.001719331741334583,0.007945370674140499,-0.014906311035168774,0.0034295141696929934,-0.0030299363136291504,0.4,3.0981438159942627,None,None,None,None
cf1,273.64,0.005658268451690674,-0.01077577018737793,0.43161218261718753,4.614046573638916,0.00227111577987554,0.006482291221615351,-0.0169822692871007,0.0034295141696929934,-0.0030299363136291504,0.4,3.0981438159942627,None,None,None,None
cf1,273.68,0.005703701496124268,-0.01050501823425293,0.4309465026855469,4.575751304626465,0.0011358261108392704,0.006768798828121548,-0.01664199829100719,0.0034295141696929934,-0.0030299363136291504,0.4,3.0981438159942627,None,None,None,None
cf1,273.71999999999997,0.005772630691528321,-0.010245592117309571,0.43021185302734377,4.546390533447266,0.0017232298851028892,0.006485652923589846,-0.018366241455095075,0.0034295141696929934,-0.0030299363136291504,0.4,3.0981438159942627,None,None,None,None
cf1,273.76,0.0058278670310974124,-0.00999644947052002,0.4294613037109375,4.546390533447266,0.0013809084892265878,0.006228566169735602,-0.018763732910147383,0.0034295141696929934,-0.0030299363136291504,0.4,3.0981438159942627,None,None,None,None
cf1,273.8,0.005824926376342773,-0.009816995620727539,0.42851162719726565,4.5189313888549805,-7.351636886594445e-05,0.004486346244809723,-0.023741912841783796,0.0034295141696929934,-0.0030299363136291504,0.4,3.0981438159942627,None,None,None,None
cf1,273.84,0.005886547088623047,-0.009646237373352051,0.4276825256347656,4.513433456420898,0.0015405178070082486,0.004268956184391087,-0.020727539062519985,0.0034295141696929934,-0.0030299363136291504,0.4,3.0981438159942627,None,None,None,None
cf1,273.88,0.005924867630004883,-0.009496328353881835,0.42693692016601564,4.516827583312988,0.0009580135345454033,0.003747725486753471,-0.018640136718739608,0.0034295141696929934,-0.0030299363136291504,0.4,3.0981438159942627,None,None,None,None
cf1,273.92,0.005973231792449951,-0.009394797325134277,0.42617556762695313,4.527361869812012,0.0012091040611260865,0.00253827571868766,-0.019033813476553006,0.0034295141696929934,-0.0030299363136291504,0.4,3.0981438159942627,None,None,None,None
cf1,273.96,0.006026179790496826,-0.009313499450683594,0.4256037292480469,4.527361869812012,0.0013236999511730893,0.0020324468612689236,-0.014295959472668774,0.0034295141696929934,-0.0030299363136291504,0.4,3.0981438159942627,None,None,None,None
cf1,274.0,0.006140355110168457,-0.009195934295654297,0.4251209411621094,4.518897533416748,0.002854382991789303,0.0029391288757309145,-0.012069702148431104,0.0034295141696929934,-0.0030299363136291504,0.4,3.0981438159942627,None,None,None,None
cf1,274.03999999999996,0.006196318149566651,-0.009108339309692383,0.4247793884277344,4.4915056228637695,0.0013990759849561206,0.002189874649049852,-0.008538818359383466,0.0034295141696929934,-0.0030299363136291504,0.4,3.0981438159942627,None,None,None,None
cf1,274.08,0.006297925472259522,-0.009028785705566407,0.42454656982421873,4.464820861816406,0.0025401830673204696,0.0019888401031483887,-0.005820465087888269,0.0034295141696929934,-0.0030299363136291504,0.4,3.0981438159942627,None,None,None,None
cf1,274.12,0.006396367073059082,-0.009018320083618164,0.42457122802734376,4.434063911437988,0.002461040019987756,0.00026164054870592466,0.0006164550781253729,0.0034295141696929934,-0.0030299363136291504,0.4,3.0981438159942627,None,None,None,None
cf1,274.15999999999997,0.006511392116546631,-0.008964323997497558,0.424729736328125,4.434063911437988,0.0028756260871913406,0.0013499021530163787,0.003962707519534476,0.0034295141696929934,-0.0030299363136291504,0.4,3.0981438159942627,None,None,None,None
cf1,274.2,0.006629638195037842,-0.008947881698608398,0.42503320312500004,4.422951698303223,0.002956151962278756,0.0004110574722287933,0.007586669921872129,0.0034295141696929934,-0.0030299363136291504,0.4,3.0981438159942627,None,None,None,None
cf1,274.24,0.006789604663848877,-0.008894299507141113,0.4255312194824219,4.436700820922852,0.003999161720273835,0.0013395547866814315,0.012450408935540128,0.0034295141696929934,-0.0030299363136291504,0.4,3.0981438159942627,None,None,None,None
cf1,274.28,0.006941411018371582,-0.008806317329406739,0.4261748046875,4.439438343048096,0.0037951588630710663,0.0021995544433613613,0.016089630126967715,0.0034295141696929934,-0.0030299363136291504,0.4,3.0981438159942627,None,None,None,None
cf1,274.32,0.007048818111419678,-0.008713756561279297,0.4268545227050781,4.428595066070557,0.002685177326201038,0.002314019203184868,0.016992950439443842,0.0034295141696929934,-0.0030299363136291504,0.4,3.0981438159942627,None,None,None,None
cf1,274.36,0.007237287044525147,-0.008643152236938477,0.42753594970703124,4.428595066070557,0.0047117233276343035,0.0017651081085195966,0.0170356750488192,0.0034295141696929934,-0.0030299363136291504,0.4,3.0981438159942627,None,None,None,None
cf1,274.4,0.007418156147003174,-0.0085224027633667,0.4281784057617188,4.41310453414917,0.00452172756195479,0.003018736839297174,0.01606140136720325,0.0034295141696929934,-0.0030299363136291504,0.4,3.0981438159942627,None,None,None,None
cf1,274.44,0.007565059661865234,-0.008381128311157227,0.4285955505371094,4.387110710144043,0.0036725878715496317,0.0035318613052350246,0.010428619384760189,0.0034295141696929934,-0.0030299363136291504,0.4,3.0981438159942627,None,None,None,None
cf1,274.47999999999996,0.007736118316650391,-0.008276163101196289,0.42887216186523436,4.351045608520508,0.004276466369632805,0.0026241302490258313,0.006915283203130135,0.0034295141696929934,-0.0030299363136291504,0.4,3.0981438159942627,None,None,None,None
cf1,274.52,0.007860267639160156,-0.008104006767272949,0.42896405029296875,4.340307712554932,0.003103733062742538,0.004303908348081299,0.0022972106933585217,0.0034295141696929934,-0.0030299363136291504,0.4,3.0981438159942627,None,None,None,None
cf1,274.56,0.00805571460723877,-0.00794963264465332,0.4288631286621094,4.340307712554932,0.004886174201962849,0.0038593530654887384,-0.0025230407714822295,0.0034295141696929934,-0.0030299363136291504,0.4,3.0981438159942627,None,None,None,None
cf1,274.59999999999997,0.008222878456115723,-0.00781594467163086,0.4285993347167969,4.319982528686523,0.004179096221927621,0.0033421993255645364,-0.0065948486328186754,0.0034295141696929934,-0.0030299363136291504,0.4,3.0981438159942627,None,None,None,None
cf1,274.64,0.008394233703613281,-0.007654099941253662,0.42823468017578126,4.262606143951416,0.004283881187436775,0.004046118259427889,-0.00911636352538636,0.0034295141696929934,-0.0030299363136291504,0.4,3.0981438159942627,None,None,None,None
cf1,274.68,0.00856755542755127,-0.007511828422546387,0.4278273010253906,4.20056676864624,0.00433304309844749,0.0035567879676800624,-0.010184478759760536,0.0034295141696929934,-0.0030299363136291504,0.4,3.0981438159942627,None,None,None,None
cf1,274.71999999999997,0.008697206497192383,-0.007386281967163086,0.4274181518554688,4.120090484619141,0.0032412767410307923,0.0031386613845853627,-0.010228729248055601,0.0034295141696929934,-0.0030299363136291504,0.4,3.0981438159942627,None,None,None,None
cf1,274.76,0.008870803833007812,-0.007250895023345948,0.42700183105468753,4.120090484619141,0.004339933395383494,0.0033846735954267313,-0.010408020019525793,0.0034295141696929934,-0.0030299363136291504,0.4,3.0981438159942627,None,None,None,None
cf1,274.8,0.009053889274597169,-0.007101579189300537,0.426536865234375,4.064456939697266,0.004577136039731573,0.003732895851133354,-0.011624145507807153,0.0034295141696929934,-0.0030299363136291504,0.4,3.0981438159942627,None,None,None,None
cf1,274.84,0.00917406177520752,-0.006952230453491211,0.4261632385253906,4.001585006713867,0.003004312515261527,0.003733718395236554,-0.00934066772461817,0.0034295141696929934,-0.0030299363136291504,0.4,3.0981438159942627,None,None,None,None
cf1,274.88,0.009329899787902832,-0.006785868167877197,0.42574603271484374,3.9412131309509277,0.003895950317380806,0.004159057140348222,-0.01043014526366675,0.0034295141696929934,-0.0030299363136291504,0.4,3.0981438159942627,None,None,None,None
cf1,274.92,0.009512978553771973,-0.0066698136329650885,0.42543618774414066,3.8825290203094482,0.004576969146726168,0.0029013633728012284,-0.007746124267572963,0.0034295141696929934,-0.0030299363136291504,0.4,3.0981438159942627,None,None,None,None
cf1,274.96,0.009690394401550293,-0.00652732801437378,0.42519540405273437,3.8825290203094482,0.004435396194462034,0.003562140464785958,-0.0060195922851626685,0.0034295141696929934,-0.0030299363136291504,0.4,3.0981438159942627,None,None,None,None
cf1,275.0,0.00986815071105957,-0.006380484104156495,0.42504727172851564,3.8169913291931152,0.004443907737729651,0.0036710977554302473,-0.0037033081054663668,0.0034295141696929934,-0.0030299363136291504,0.4,3.0981438159942627,None,None,None,None
cf1,275.03999999999996,0.010065980911254883,-0.006290660858154297,0.4250413818359375,3.7511186599731445,0.004945755004887323,0.0022455811500569907,-0.0001472473144541138,0.0034295141696929934,-0.0030299363136291504,0.4,3.0981438159942627,None,None,None,None
cf1,275.08,0.010246173858642578,-0.006232539653778076,0.4252101135253906,3.7002198696136475,0.004504823684690076,0.0014530301094047649,0.004218292236326311,0.0034295141696929934,-0.0030299363136291504,0.4,3.0981438159942627,None,None,None,None
cf1,275.12,0.010458958625793458,-0.0061602344512939455,0.425515869140625,3.6565444469451904,0.005319619178769275,0.0018076300621023493,0.007643890380855642,0.0034295141696929934,-0.0030299363136291504,0.4,3.0981438159942627,None,None,None,None
cf1,275.15999999999997,0.010652804374694824,-0.006127086639404297,0.4259359436035156,3.6565444469451904,0.004846143722538559,0.0008286952972419602,0.010501861572274732,0.0034295141696929934,-0.0030299363136291504,0.4,3.0981438159942627,None,None,None,None
cf1,275.2,0.01089060401916504,-0.00609938383102417,0.4265117492675781,3.6017234325408936,0.005944991111752344,0.0006925702095028166,0.014395141601555436,0.0034295141696929934,-0.0030299363136291504,0.4,3.0981438159942627,None,None,None,None
cf1,275.24,0.011092589378356934,-0.006059530258178711,0.4272899169921875,3.5355379581451416,0.005049633979794792,0.0009963393211359832,0.019454193115224266,0.0034295141696929934,-0.0030299363136291504,0.4,3.0981438159942627,None,None,None,None
cf1,275.28,0.011354557991027832,-0.006084522247314453,0.4281655883789063,3.4936890602111816,0.006549215316778405,-0.000624799728394126,0.02189178466798967,0.0034295141696929934,-0.0030299363136291504,0.4,3.0981438159942627,None,None,None,None
cf1,275.32,0.01155831241607666,-0.006090929508209228,0.42902838134765625,3.457077980041504,0.005093860626218099,-0.0001601815223693016,0.02156982421873822,0.0034295141696929934,-0.0030299363136291504,0.4,3.0981438159942627,None,None,None,None
cf1,275.36,0.011821364402770996,-0.006138061046600342,0.43003555297851564,3.457077980041504,0.006576299667355032,-0.0011782884597772358,0.02517929077147196,0.0034295141696929934,-0.0030299363136291504,0.4,3.0981438159942627,None,None,None,None
cf1,275.4,0.012083696365356446,-0.006234043598175049,0.4309945068359375,3.39823055267334,0.006558299064642213,-0.0023995637893698685,0.023973846435567815,0.0034295141696929934,-0.0030299363136291504,0.4,3.0981438159942627,None,None,None,None
cf1,275.44,0.012356681823730469,-0.006265933036804199,0.43191748046875,3.340423107147217,0.006824636459347075,-0.0007972359657283351,0.023074340820301152,0.0034295141696929934,-0.0030299363136291504,0.4,3.0981438159942627,None,None,None,None
cf1,275.47999999999996,0.012635241508483887,-0.006291064739227295,0.4325941162109375,3.313563108444214,0.006963992118841791,-0.0006282925605779632,0.01691589355470325,0.0034295141696929934,-0.0030299363136291504,0.4,3.0981438159942627,None,None,None,None
cf1,275.52,0.0128962984085083,-0.006360062122344971,0.43319656372070314,3.2844231128692627,0.006526422500606998,-0.0017249345779410158,0.015061187744132908,0.0034295141696929934,-0.0030299363136291504,0.4,3.0981438159942627,None,None,None,None
cf1,275.56,0.013135794639587403,-0.006330139636993408,0.43359036254882816,3.2844231128692627,0.0059874057769745,0.0007480621337886846,0.009844970703120308,0.0034295141696929934,-0.0030299363136291504,0.4,3.0981438159942627,None,None,None,None
cf1,275.59999999999997,0.013365387916564941,-0.0063642730712890625,0.4338102722167969,3.2352428436279297,0.005739831924443678,-0.0008533358573921399,0.00549774169922385,0.0034295141696929934,-0.0030299363136291504,0.4,3.0981438159942627,None,None,None,None
cf1,275.64,0.01354672908782959,-0.006327797889709473,0.43382427978515625,3.1833713054656982,0.004533529281613883,0.000911879539489265,0.00035018920898337427,0.0034295141696929934,-0.0030299363136291504,0.4,3.0981438159942627,None,None,None,None
cf1,275.68,0.013761610984802247,-0.0062373547554016116,0.4336461791992188,3.1590142250061035,0.005372047424313694,0.0022610783576953847,-0.004452514648434712,0.0034295141696929934,-0.0030299363136291504,0.4,3.0981438159942627,None,None,None,None
cf1,275.71999999999997,0.013913727760314942,-0.006143447875976563,0.43327066040039064,3.1529719829559326,0.003802919387820827,0.0023476719856283545,-0.009387969970711885,0.0034295141696929934,-0.0030299363136291504,0.4,3.0981438159942627,None,None,None,None
cf1,275.76,0.01401292610168457,-0.0060294437408447265,0.43272799682617186,3.1529719829559326,0.00247995853423945,0.0028501033782944492,-0.01356658935546262,0.0034295141696929934,-0.0030299363136291504,0.4,3.0981438159942627,None,None,None,None
cf1,275.8,0.01415219783782959,-0.0059134473800659185,0.4321376647949219,3.1307213306427,0.0034817934036237134,0.002899909019468717,-0.014758300781241795,0.0034295141696929934,-0.0030299363136291504,0.4,3.0981438159942627,None,None,None,None
cf1,275.84,0.014225750923156739,-0.005818717956542969,0.43148614501953125,3.1147234439849854,0.0018388271331803883,0.0023682355880758877,-0.01628799438478056,0.0034295141696929934,-0.0030299363136291504,0.4,3.0981438159942627,None,None,None,None
cf1,275.88,0.014257020950317383,-0.005731630325317383,0.4307873229980469,3.091674327850342,0.0007817506790156859,0.0021771907806385398,-0.017470550537100005,0.0034295141696929934,-0.0030299363136291504,0.4,3.0981438159942627,None,None,None,None
cf1,275.92,0.014317511558532715,-0.00563957691192627,0.4300078430175781,3.0918095111846924,0.0015122652053825292,0.002301335334776646,-0.01948699951170976,0.0034295141696929934,-0.0030299363136291504,0.4,3.0981438159942627,None,None,None,None
cf1,275.96,0.014304264068603516,-0.0055147805213928225,0.4293018798828125,3.0918095111846924,-0.00033118724823027264,0.003119909763339026,-0.017649078369156534,0.0034295141696929934,-0.0030299363136291504,0.4,3.0981438159942627,None,None,None,None
cf1,276.0,0.014235698699951171,-0.005416424751281739,0.42857525634765625,3.0640218257904053,-0.0017141342163077321,0.0024588942527758394,-0.018165588378896567,0.0034295141696929934,-0.0030299363136291504,0.4,3.0981438159942627,None,None,None,None
cf1,276.03999999999996,0.014236911773681641,-0.0052972564697265625,0.42785403442382813,3.05023455619812,3.0326843261766456e-05,0.002979207038882112,-0.01803054809571938,0.0034295141696929934,-0.0030299363136291504,0.4,3.0981438159942627,None,None,None,None
cf1,276.08,0.014181821823120118,-0.005210121631622314,0.4272645568847656,3.0524239540100098,-0.0013772487640373724,0.0021783709526050936,-0.014736938476555505,0.0034295141696929934,-0.0030299363136291504,0.4,3.0981438159942627,None,None,None,None
cf1,276.12,0.01407587718963623,-0.0051191248893737796,0.42671697998046876,3.0621321201324463,-0.0026486158370958215,0.002274918556212202,-0.013689422607414339,0.0034295141696929934,-0.0030299363136291504,0.4,3.0981438159942627,None,None,None,None
cf1,276.15999999999997,0.014021429061889648,-0.005021273612976074,0.4261851806640625,3.0621321201324463,-0.0013612031936658068,0.0024462819099448606,-0.013294982910167941,0.0034295141696929934,-0.0030299363136291504,0.4,3.0981438159942627,None,None,None,None
cf1,276.2,0.013953598976135254,-0.004987995624542237,0.42568368530273437,3.099977731704712,-0.0016957521438589957,0.0008319497108455079,-0.0125373840331974,0.0034295141696929934,-0.0030299363136291504,0.4,3.0981438159942627,None,None,None,None
cf1,276.24,0.013830493927001954,-0.004939385890960693,0.42517507934570314,3.1444661617279053,-0.003077626228330924,0.0012152433395379635,-0.012715148925774179,0.0034295141696929934,-0.0030299363136291504,0.4,3.0981438159942627,None,None,None,None
cf1,276.28,0.013734861373901367,-0.004933198451995849,0.4247174072265625,3.1755471229553223,-0.002390813827516829,0.0001546859741212412,-0.011441802978526953,0.0034295141696929934,-0.0030299363136291504,0.4,3.0981438159942627,None,None,None,None
cf1,276.32,0.013649422645568848,-0.0049433112144470215,0.42426947021484374,3.180271625518799,-0.002135968208311894,-0.00025281906127917395,-0.011198425292962931,0.0034295141696929934,-0.0030299363136291504,0.4,3.0981438159942627,None,None,None,None
cf1,276.36,0.013519710540771484,-0.004983171463012696,0.4237550354003906,3.180271625518799,-0.003242802619932443,-0.000996506214141345,-0.012860870361321523,0.0034295141696929934,-0.0030299363136291504,0.4,3.0981438159942627,None,None,None,None
cf1,276.4,0.01340837001800537,-0.004992656707763672,0.42322357177734377,3.1936261653900146,-0.0027835130691553586,-0.00023713111877462766,-0.013286590576183237,0.0034295141696929934,-0.0030299363136291504,0.4,3.0981438159942627,None,None,None,None
cf1,276.44,0.013281007766723633,-0.005065976619720459,0.42275653076171876,3.219172239303589,-0.003184056282041806,-0.001832997798918728,-0.011676025390619094,0.0034295141696929934,-0.0030299363136291504,0.4,3.0981438159942627,None,None,None,None
cf1,276.47999999999996,0.013140532493591308,-0.005124101161956787,0.42230618286132815,3.2354230880737305,-0.0035118818283113207,-0.0014531135559095324,-0.011258697509775565,0.0034295141696929934,-0.0030299363136291504,0.4,3.0981438159942627,None,None,None,None
cf1,276.52,0.012989888191223145,-0.00517968225479126,0.4217538757324219,3.2457828521728516,-0.0037661075592021636,-0.0013895273208611044,-0.013807678222649153,0.0034295141696929934,-0.0030299363136291504,0.4,3.0981438159942627,None,None,None,None
cf1,276.56,0.012817700386047364,-0.005241063594818116,0.42129873657226563,3.2457828521728516,-0.004304695129392321,-0.0015345335006706085,-0.011378479003900939,0.0034295141696929934,-0.0030299363136291504,0.4,3.0981438159942627,None,None,None,None
cf1,276.59999999999997,0.012670316696166993,-0.005332333564758301,0.4208381652832031,3.255504846572876,-0.0036845922470126204,-0.002281749248506705,-0.011514282226573394,0.0034295141696929934,-0.0030299363136291504,0.4,3.0981438159942627,None,None,None,None
cf1,276.64,0.012537696838378907,-0.005440720558166504,0.42028805541992187,3.2878079414367676,-0.00331549644470045,-0.002709674835203693,-0.013752746582024092,0.0034295141696929934,-0.0030299363136291504,0.4,3.0981438159942627,None,None,None,None
cf1,276.68,0.012346436500549316,-0.005560547351837158,0.4196662902832031,3.304288148880005,-0.004781508445737331,-0.0029956698417648257,-0.015544128417960643,0.0034295141696929934,-0.0030299363136291504,0.4,3.0981438159942627,None,None,None,None
cf1,276.71999999999997,0.012222947120666504,-0.005620212554931641,0.41898919677734375,3.3310928344726562,-0.0030872344970731052,-0.001491630077363422,-0.01692733764649969,0.0034295141696929934,-0.0030299363136291504,0.4,3.0981438159942627,None,None,None,None
cf1,276.76,0.012133658409118652,-0.0057426667213439945,0.41834747314453125,3.3310928344726562,-0.002232217788695152,-0.0030613541603072753,-0.01604309082030448,0.0034295141696929934,-0.0030299363136291504,0.4,3.0981438159942627,None,None,None,None
cf1,276.8,0.012000803947448731,-0.0058587131500244145,0.4176575927734375,3.3129758834838867,-0.003321361541746326,-0.0029011607170090162,-0.01724700927733475,0.0034295141696929934,-0.0030299363136291504,0.4,3.0981438159942627,None,None,None,None
cf1,276.84,0.011893522262573243,-0.0059549560546875,0.4170597839355469,3.292424440383911,-0.002682042121889656,-0.002406072616579329,-0.014945220947279174,0.0034295141696929934,-0.0030299363136291504,0.4,3.0981438159942627,None,None,None,None
cf1,276.88,0.011804513931274414,-0.006125474452972412,0.4165625915527344,3.27725887298584,-0.0022252082824695727,-0.004262959957120612,-0.01242980957030573,0.0034295141696929934,-0.0030299363136291504,0.4,3.0981438159942627,None,None,None,None
cf1,276.91999999999996,0.011737564086914063,-0.006279746532440186,0.4160713500976563,3.282667398452759,-0.001673746109010295,-0.003856801986697856,-0.012281036376964106,0.0034295141696929934,-0.0030299363136291504,0.4,3.0981438159942627,None,None,None,None
cf1,276.96,0.011634385108947754,-0.0064308314323425295,0.41573745727539063,3.282667398452759,-0.002579474449156412,-0.0037771224975566607,-0.008347320556636898,0.0034295141696929934,-0.0030299363136291504,0.4,3.0981438159942627,None,None,None,None
cf1,277.0,0.011546295166015625,-0.006573765277862549,0.4154501953125,3.310631036758423,-0.00220224857330211,-0.0035733461379986483,-0.007181549072262306,0.0034295141696929934,-0.0030299363136291504,0.4,3.0981438159942627,None,None,None,None
cf1,277.03999999999996,0.011512685775756835,-0.006738484859466553,0.4152957458496094,3.32011079788208,-0.0008402347564704952,-0.004117989540103854,-0.003861236572268904,0.0034295141696929934,-0.0030299363136291504,0.4,3.0981438159942627,None,None,None,None
cf1,277.08,0.011448992729187013,-0.006895682334899902,0.41522137451171875,3.3363196849823,-0.0015923261642447537,-0.003929936885831723,-0.001859283447264596,0.0034295141696929934,-0.0030299363136291504,0.4,3.0981438159942627,None,None,None,None
cf1,277.12,0.011407228469848632,-0.007051539897918701,0.4151737976074219,3.3176119327545166,-0.001044106483458974,-0.003896439075467977,-0.0011894226074207225,0.0034295141696929934,-0.0030299363136291504,0.4,3.0981438159942627,None,None,None,None
cf1,277.15999999999997,0.011389323234558105,-0.00721748685836792,0.41517608642578124,3.3176119327545166,-0.00044763088226358204,-0.004148674011234237,5.7220458983594374e-05,0.0034295141696929934,-0.0030299363136291504,0.4,3.0981438159942627,None,None,None,None
cf1,277.2,0.011335636138916015,-0.007365115642547607,0.4151629333496094,3.2950761318206787,-0.001342177391051561,-0.0036907196044903036,-0.0003288269042956965,0.0034295141696929934,-0.0030299363136291504,0.4,3.0981438159942627,None,None,None,None
cf1,277.24,0.011323979377746582,-0.00751184368133545,0.41509475708007815,3.268629550933838,-0.0002914190292356897,-0.003668200969694182,-0.0017044067382806667,0.0034295141696929934,-0.0030299363136291504,0.4,3.0981438159942627,None,None,None,None
cf1,277.28,0.011339865684509278,-0.007630074977874756,0.41494216918945315,3.2679860591888428,0.0003971576690677742,-0.002955782413485339,-0.0038146972656284694,0.0034295141696929934,-0.0030299363136291504,0.4,3.0981438159942627,None,None,None,None
cf1,277.32,0.011299781799316407,-0.007703742504119873,0.41471597290039064,3.2713632583618164,-0.0010020971298212852,-0.0018416881561269898,-0.005654907226559807,0.0034295141696929934,-0.0030299363136291504,0.4,3.0981438159942627,None,None,None,None
cf1,277.36,0.011292502403259278,-0.007803174495697022,0.4143757019042969,3.2795498371124268,-0.00018198490142812504,-0.0024857997894274543,-0.00850677490233912,0.0034295141696929934,-0.0030299363136291504,0.4,3.0981438159942627,None,None,None,None
cf1,277.4,0.011252214431762695,-0.007831447124481201,0.41401803588867186,3.2795498371124268,-0.001007199287415486,-0.0007068157196051286,-0.00894165039063402,0.0034295141696929934,-0.0030299363136291504,0.4,3.0981438159942627,None,None,None,None
cf1,277.44,0.01122123432159424,-0.007803194046020508,0.41353656005859374,3.260312080383301,-0.000774502754211,0.000706326961516975,-0.012036895751947,0.0034295141696929934,-0.0030299363136291504,0.4,3.0981438159942627,None,None,None,None
cf1,277.47999999999996,0.011195359230041503,-0.007775471687316894,0.4130050048828125,3.26912784576416,-0.0006468772888189817,0.0006930589675909723,-0.01328887939454308,0.0034295141696929934,-0.0030299363136291504,0.4,3.0981438159942627,None,None,None,None
cf1,277.52,0.01116534996032715,-0.007702855587005616,0.41237347412109376,3.2439048290252686,-0.0007502317428584727,0.0018154025077810351,-0.015788269042960296,0.0034295141696929934,-0.0030299363136291504,0.4,3.0981438159942627,None,None,None,None
cf1,277.56,0.011159440994262696,-0.007605302810668946,0.4117086791992188,3.2439048290252686,-0.00014772415161125047,0.0024388194084155068,-0.01661987304686623,0.0034295141696929934,-0.0030299363136291504,0.4,3.0981438159942627,None,None,None,None
cf1,277.59999999999997,0.011098058700561523,-0.007516829967498779,0.41113967895507814,3.2400777339935303,-0.0015345573425307258,0.002211821079256175,-0.014225006103528896,0.0034295141696929934,-0.0030299363136291504,0.4,3.0981438159942627,None,None,None,None
cf1,277.64,0.011103734016418457,-0.0073455748558044435,0.4106101989746094,3.2558228969573975,0.00014188289642328946,0.004281377792356199,-0.013236999511712255,0.0034295141696929934,-0.0030299363136291504,0.4,3.0981438159942627,None,None,None,None
cf1,277.68,0.011073015213012696,-0.007194032192230225,0.41016311645507814,3.2665822505950928,-0.0007679700851436341,0.0037885665893535197,-0.011177062988275255,0.0034295141696929934,-0.0030299363136291504,0.4,3.0981438159942627,None,None,None,None
cf1,277.71999999999997,0.011037387847900391,-0.00700312328338623,0.40976412963867187,3.2732725143432617,-0.0008906841278084315,0.004772722721104214,-0.009974670410165722,0.0034295141696929934,-0.0030299363136291504,0.4,3.0981438159942627,None,None,None,None
cf1,277.76,0.011046270370483398,-0.006814961433410645,0.409577880859375,3.2449376583099365,0.00022206306457504563,0.004704046249387234,-0.004656219482418849,0.0034295141696929934,-0.0030299363136291504,0.4,3.0981438159942627,None,None,None,None
cf1,277.8,0.011027522087097168,-0.006613704204559327,0.40952645874023436,3.2449376583099365,-0.0004687070846555136,0.005031430721280374,-0.0012855529785159665,0.0034295141696929934,-0.0030299363136291504,0.4,3.0981438159942627,None,None,None,None
cf1,277.84,0.01099111557006836,-0.006367695331573486,0.40964300537109377,3.2226626873016357,-0.0009101629257210253,0.006150221824651607,0.002913665771488035,0.0034295141696929934,-0.0030299363136291504,0.4,3.0981438159942627,None,None,None,None
cf1,277.88,0.011029598236083984,-0.006152491569519043,0.40980398559570314,3.2086503505706787,0.0009620666503901078,0.005380094051358316,0.004024505615232038,0.0034295141696929934,-0.0030299363136291504,0.4,3.0981438159942627,None,None,None,None
cf1,277.91999999999996,0.011061199188232422,-0.005963556289672852,0.4100626220703125,3.215146780014038,0.0007900238037116661,0.004723381996159088,0.006465911865240533,0.0034295141696929934,-0.0030299363136291504,0.4,3.0981438159942627,None,None,None,None
cf1,277.96,0.011097779273986816,-0.005779590129852295,0.41040966796875,3.215146780014038,0.0009145021438593948,0.004599153995511566,0.008676147460932595,0.0034295141696929934,-0.0030299363136291504,0.4,3.0981438159942627,None,None,None,None
cf1,278.0,0.011094758033752442,-0.005606442928314209,0.4108246765136719,3.200220823287964,-7.553100585932838e-05,0.004328680038449934,0.010375213623041689,0.0034295141696929934,-0.0030299363136291504,0.4,3.0981438159942627,None,None,None,None
cf1,278.03999999999996,0.011120936393737794,-0.005409854888916016,0.411388427734375,3.1832046508789062,0.0006544589996344016,0.004914700984959299,0.01409378051759091,0.0034295141696929934,-0.0030299363136291504,0.4,3.0981438159942627,None,None,None,None
cf1,278.08,0.011165025711059571,-0.005241278648376465,0.41200137329101566,3.1708688735961914,0.0011022329330438643,0.004214406013486621,0.015323638916008507,0.0034295141696929934,-0.0030299363136291504,0.4,3.0981438159942627,None,None,None,None
cf1,278.12,0.011213668823242188,-0.005083264827728272,0.4127230224609375,3.1631813049316406,0.0012160778045647933,0.003950345516202801,0.018041229248036902,0.0034295141696929934,-0.0030299363136291504,0.4,3.0981438159942627,None,None,None,None
cf1,278.15999999999997,0.011241129875183106,-0.004897146701812744,0.4134773864746094,3.1631813049316406,0.0006865262985235753,0.004652953147892429,0.01885910034181476,0.0034295141696929934,-0.0030299363136291504,0.4,3.0981438159942627,None,None,None,None
cf1,278.2,0.011258044242858888,-0.004736500263214111,0.41421405029296876,3.1498570442199707,0.00042285919189433363,0.004016160964963761,0.018416595458974352,0.0034295141696929934,-0.0030299363136291504,0.4,3.0981438159942627,None,None,None,None
cf1,278.24,0.011239956855773926,-0.004541320323944092,0.41496246337890624,3.1418697834014893,-0.00045218467712380045,0.004879498481747993,0.018710327148427495,0.0034295141696929934,-0.0030299363136291504,0.4,3.0981438159942627,None,None,None,None
cf1,278.28,0.011257761955261231,-0.004330868721008301,0.41565856933593753,3.126059055328369,0.00044512748718302376,0.0052612900733995625,0.017402648925798077,0.0034295141696929934,-0.0030299363136291504,0.4,3.0981438159942627,None,None,None,None
cf1,278.32,0.01120654582977295,-0.004152040958404541,0.4162773132324219,3.1300582885742188,-0.0012804031372063696,0.004470694065091712,0.015468597412101184,0.0034295141696929934,-0.0030299363136291504,0.4,3.0981438159942627,None,None,None,None
cf1,278.36,0.011190735816955566,-0.003905261516571045,0.4167907104492188,3.1300582885742188,-0.00039525032043440003,0.0061694860458342314,0.012834930419915553,0.0034295141696929934,-0.0030299363136291504,0.4,3.0981438159942627,None,None,None,None
cf1,278.4,0.011152591705322266,-0.0036859445571899413,0.41725778198242186,3.114464521408081,-0.0009536027908333722,0.005482923984532583,0.01167678833008758,0.0034295141696929934,-0.0030299363136291504,0.4,3.0981438159942627,None,None,None,None
cf1,278.44,0.011094223976135255,-0.003422720432281494,0.41763201904296876,3.0751161575317383,-0.001459193229674535,0.006580603122707812,0.009355926513667722,0.0034295141696929934,-0.0030299363136291504,0.4,3.0981438159942627,None,None,None,None
cf1,278.47999999999996,0.011039844512939453,-0.0031923832893371584,0.41785025024414063,3.024348735809326,-0.0013594865798962712,0.005758428573613632,0.005455780029301715,0.0034295141696929934,-0.0030299363136291504,0.4,3.0981438159942627,None,None,None,None
cf1,278.52,0.010926909446716308,-0.0029725205898284914,0.4180015563964844,3.004035711288452,-0.0028233766555771753,0.005496567487713864,0.0037826538085922257,0.0034295141696929934,-0.0030299363136291504,0.4,3.0981438159942627,None,None,None,None
cf1,278.56,0.010811728477478027,-0.0027728631496429443,0.41804205322265625,3.014435291290283,-0.0028795242309555542,0.004991436004636123,0.0010124206542958352,0.0034295141696929934,-0.0030299363136291504,0.4,3.0981438159942627,None,None,None,None
cf1,278.59999999999997,0.010606818199157715,-0.002531147241592407,0.41797891235351564,3.014435291290283,-0.005122756958012462,0.006042897701268923,-0.0015785217285166832,0.0034295141696929934,-0.0030299363136291504,0.4,3.0981438159942627,None,None,None,None
cf1,278.64,0.010448086738586425,-0.0022956912517547606,0.417871337890625,3.0205838680267334,-0.003968286514280218,0.005886399745938154,-0.002689361572263972,0.0034295141696929934,-0.0030299363136291504,0.4,3.0981438159942627,None,None,None,None
cf1,278.68,0.010265789985656738,-0.002089529514312744,0.41771539306640626,3.0129189491271973,-0.004557418823239857,0.005154043436047778,-0.0038986206054671996,0.0034295141696929934,-0.0030299363136291504,0.4,3.0981438159942627,None,None,None,None
cf1,278.71999999999997,0.010074517250061036,-0.0018965461254119873,0.41742352294921875,3.0229344367980957,-0.004781818389896891,0.004824584722523307,-0.007296752929694369,0.0034295141696929934,-0.0030299363136291504,0.4,3.0981438159942627,None,None,None,None
cf1,278.76,0.009874981880187988,-0.0017931811809539795,0.4170071716308594,2.9925355911254883,-0.004988384246823643,0.0025841236114488727,-0.010408782958979072,0.0034295141696929934,-0.0030299363136291504,0.4,3.0981438159942627,None,None,None,None
cf1,278.8,0.009783844947814941,-0.001621311068534851,0.4164848327636719,2.9925355911254883,-0.0022784233093250134,0.004296752810476013,-0.013058471679680808,0.0034295141696929934,-0.0030299363136291504,0.4,3.0981438159942627,None,None,None,None
cf1,278.84,0.00959063720703125,-0.0015092384815216064,0.41588409423828127,2.9851443767547607,-0.004830193519596653,0.0028018146753336633,-0.015018463134778896,0.5,0.0,0.5,0.0,0.6206606025668359,11.333110637271076,15,41005
cf1,278.88,0.009468592643737794,-0.0014002790451049804,0.41517779541015626,2.9949212074279785,-0.003051114082334864,0.002723985910414256,-0.017657470703116143,0.4996000533304897,0.019994667093298904,0.5,0.0,0.16322573100897783,11.309831206570943,15,41099
cf1,278.91999999999996,0.009921404838562011,-0.001290940284729004,0.4144584655761719,2.944732904434204,0.011320304870615742,0.002733469009401897,-0.017983245849625663,0.49840085315131033,0.03995734698457841,0.5,0.0,-0.31973397466903813,10.966588413495904,15,41155
cf1,278.96,0.011487378120422364,-0.00113327956199646,0.4139132995605469,2.944732904434204,0.039149332046488794,0.003941518068311583,-0.013629150390617706,0.49640431792693623,0.05985610364443372,0.5,0.0,-0.780878865861278,10.269917734274381,15,41130
cf1,279.0,0.014224074363708497,-0.0008768861889839173,0.41369622802734374,2.6916973590850835,0.06841740608211831,0.0064098343253102905,-0.005426788330076259,0.493613641687816,0.07965910330710727,0.5,0.0,-1.2546496561778768,9.488177013640462,13,41032
cf1,279.03999999999996,0.018690317153930665,-0.0005622161030769348,0.4139202575683594,2.2984023094177246,0.11165606975565574,0.007866752147681715,0.0056007385253959855,0.4900332889206219,0.09933466539752504,0.5,0.0,-1.7768849962909736,8.321371072289592,11,40873
cf1,279.08,0.025278465270996094,-0.00012206433713436127,0.41436846923828125,1.8959412574768066,0.16470370292655145,0.01100379414855871,0.011205291748041064,0.4856689874260205,0.1188513132135441,0.5,0.0,-2.248924938484834,6.854799581527458,9,40795
cf1,279.12,0.03393389129638672,0.0006696128845214844,0.41496524047851563,1.4047524929046629,0.216385650634655,0.019791930541386015,0.014919281005851964,0.4805277191553892,0.13817782428204375,0.5,0.0,-2.567706368869911,5.340535409749402,7,40743
cf1,279.15999999999997,0.044526840209960936,0.0017902978658676147,0.4157557983398438,1.4047524929046629,0.2648237228395962,0.028017124533678744,0.0197639465332216,0.4746177090412215,0.15728328030805563,0.5,0.0,-2.827798950619679,3.8581272793717702,7,40666
cf1,279.2,0.05700658798217773,0.003237499237060547,0.416851318359375,0.8928132057189941,0.3119936943052603,0.0361800342798048,0.02738800048826665,0.46794841183897506,0.17613711663752477,0.5,0.0,-3.097666178418821,2.3162728159805224,4,40534
cf1,279.24,0.07110133361816406,0.005189362525939941,0.41809811401367186,0.4503459334373474,0.352368640899478,0.04879658222195989,0.031169891357405596,0.460530497001447,0.19470917115431477,0.5,0.0,-3.218363203655846,0.8746877653371203,2,40458
cf1,279.28,0.0865717544555664,0.007656081199645996,0.4195499267578125,0.05680924281477929,0.38676052093541025,0.061667966842707464,0.03629531860354888,0.4523758316099822,0.21296973253299878,0.5,0.0,-3.2925911762147146,-0.47702191632666213,0,40354
cf1,279.32,0.10319296264648438,0.010703665733337402,0.4210453796386719,-0.2722189128399056,0.4155302047727368,0.07618961334224618,0.03738632202146572,0.443497461389651,0.2308895877707243,0.5,0.0,-3.291923941054985,-1.7397060765058399,-1,40314
cf1,279.36,0.12049268341064454,0.014316466331481934,0.4226988830566406,-0.4882002174854408,0.4324930191037826,0.09032001495356708,0.041337585449196745,0.4339095898388295,0.24844006892186046,0.5,0.0,-3.2723629095568683,-2.7570060499983415,-2,40221
cf1,279.4,0.1383553924560547,0.018605600357055663,0.42440118408203126,-0.4882002174854408,0.44656772613566,0.10722835063944075,0.042557525634804985,0.42362755550670744,0.26559309896044264,0.5,0.0,-3.1714300266689266,-3.7237796650019086,-2,40170
cf1,279.44,0.15617491149902343,0.023508853912353515,0.4262642822265625,-0.6285559535026332,0.4454879760739907,0.12258133888238361,0.04657745361325687,0.41266780745484877,0.2823212366975036,0.5,0.0,-3.074481027580722,-4.365438382065932,-3,40068
cf1,279.47999999999996,0.17388299560546874,0.02914666557312012,0.42804885864257813,-0.7100403904914683,0.44270210266153537,0.1409452915192933,0.04461441040043179,0.4010478789421504,0.29859772068119056,0.5,0.0,-2.8836945261740423,-4.975866670544323,-4,40065
cf1,279.52,0.1910297088623047,0.03536934280395508,0.43003952026367187,-0.7470229268074103,0.42866783142067943,0.15556693077079445,0.04976654052731796,0.3887863593754797,0.3143965120092148,0.5,0.0,-2.7602633267948637,-5.328534655251552,-4,39940
cf1,279.56,0.20746792602539063,0.04226302719116211,0.43189630126953127,-0.7163304090499654,0.4109554290769382,0.1723421096800875,0.04641952514646121,0.37590286457045724,0.32969233598572545,0.5,0.0,-2.567910066727336,-5.590701159166825,-4,39956
cf1,279.59999999999997,0.2229286804199219,0.04984432220458984,0.43369015502929686,-0.7163304090499654,0.3865188598636331,0.1895323753358657,0.04484634399418068,0.3624180053704557,0.3444607225552724,0.5,0.0,-2.3373801681265403,-5.691166611479989,-4,39945
cf1,279.64,0.2373610076904297,0.05802606964111328,0.4354947814941406,-0.6040926575660529,0.36080818176251056,0.20454368591298133,0.04511566162107068,0.348353354673599,0.3586780454497455,0.5,0.0,-2.142153683332758,-5.74826186784015,-3,39903
cf1,279.68,0.25053074645996093,0.06674754333496094,0.43711151123046876,-0.5023890137672478,0.3292434692381123,0.21803684234607995,0.040418243408183036,0.3337314129206634,0.3723215599854213,0.5,0.0,-1.9566840865734838,-5.656259763770755,-3,39947
cf1,279.71999999999997,0.26230487060546875,0.0760202407836914,0.4386575622558594,-0.3579339981079025,0.29435310363796335,0.23181743621847248,0.03865127563480082,0.3185755720992919,0.3853694394494832,0.5,0.0,-1.7427755408551284,-5.467440684044898,-2,39945
cf1,279.76,0.2727247009277344,0.08569544982910156,0.4399368591308594,-0.3579339981079025,0.26049575805650727,0.24188022613513005,0.031982421874983694,0.3029100783217477,0.39780081001817064,0.5,0.0,-1.5764359617417127,-5.288276438619035,-2,40032
cf1,279.8,0.2816448059082031,0.09592184448242187,0.44116094970703124,-0.2122605443000954,0.22300262451160457,0.2556598663328771,0.030602264404280433,0.2867599930362367,0.40959578415049325,0.5,0.0,-1.3110759778180463,-4.998503589526278,-1,40033
cf1,279.84,0.28914962768554686,0.10652201080322266,0.44221130371093753,-0.05123116821048326,0.18762054443376414,0.2650041580202606,0.026258850097681266,0.2701511529340699,0.42073549240394825,0.5,0.0,-1.1235600377741168,-4.736365633917403,0,40089
cf1,279.88,0.29530691528320313,0.11750039672851563,0.44308096313476564,0.08319207280874252,0.15393218994132798,0.27445964813218393,0.021741485595691536,0.25311012861640486,0.43120211362166,0.5,0.0,-0.9058875678614241,-4.493634450593397,0,40152
cf1,279.91999999999996,0.300025634765625,0.12876617431640625,0.4439219970703125,0.18080931901931763,0.11796798706065385,0.28164443969752156,0.021025848388690455,0.23566418208687703,0.44097890344247,0.5,0.0,-0.7137568229760538,-4.176451335446224,1,40155
cf1,279.96,0.30345587158203124,0.1402543640136719,0.44446414184570315,0.23300796747207642,0.08575592041011242,0.2872047424314942,0.013553619384759635,0.2178412231383796,0.4500502210882411,0.5,0.0,-0.5337181671631673,-3.9253860955059703,1,40277
cf1,280.0,0.305706787109375,0.1520440673828125,0.44499908447265624,0.23300796747207642,0.056272888183564816,0.2947425842283647,0.01337356567382024,0.19966976470315118,0.4584015543858771,0.5,0.0,-0.2813195214041614,-3.7187558365081617,1,40280
cf1,280.03999999999996,0.30666561889648436,0.1639481201171875,0.4453705749511719,0.24780306220054624,0.023970794677756077,0.29760131835964576,0.009287261962899593,0.18117887723834208,0.4660195429836111,0.5,0.0,-0.11726065861325169,-3.424839302567941,1,40352
cf1,280.08,0.3066666259765625,0.1759486846923828,0.4457267761230469,0.21434676647186282,2.5177001954078012e-05,0.300014114379729,0.008905029296870811,0.1623981422194107,0.47289199972476176,0.5,0.0,0.05800552146505372,-3.3072072532336074,1,40364
cf1,280.12,0.30566848754882814,0.18806166076660158,0.44589938354492187,0.1443585753440857,-0.024953460693346863,0.3028244018553143,0.00431518554687206,0.14335760481599083,0.4790079301446086,0.5,0.0,0.2642943994137577,-3.148676118634944,1,40451
cf1,280.15999999999997,0.3037300109863281,0.20025526428222656,0.4461967468261719,0.1443585753440857,-0.04846191406254441,0.3048400878909019,0.007434082031257216,0.12408772582618978,0.4843575500591318,0.5,0.0,0.46769910989032537,-3.007620575623554,1,40408
cf1,280.2,0.30102383422851564,0.21234925842285157,0.44639633178710936,0.07280128449201585,-0.06765441894527749,0.30234985351547056,0.004989624023434226,0.1046193329457308,0.4889323012176536,0.5,0.0,0.5867820580815121,-2.951482492574151,0,40459
cf1,280.24,0.29747247314453124,0.22441140747070312,0.4467358093261719,0.02946583740413189,-0.08878402709956472,0.30155372619613446,0.00848693847655939,0.08498357145013168,0.4927248649942282,0.5,0.0,0.7603527141627417,-2.8354982938011104,0,40408
cf1,280.28,0.2932764587402344,0.23638504028320312,0.44699395751953125,-0.031143836677084622,-0.10490036010751651,0.29934082031277215,0.006453704833989423,0.06521185436907387,0.4957291740958431,0.5,0.0,0.9181907197359942,-2.8222178762056433,0,40450
cf1,280.32,0.2883605041503906,0.248176025390625,0.44729461669921877,-0.07166356593368307,-0.12289886474603175,0.2947746276853962,0.007516479492184243,0.045335812232174075,0.4979404222688183,0.5,0.0,1.0350011543295656,-2.751788772394371,0,40440
cf1,280.36,0.28288494873046877,0.2598277587890625,0.44757318115234374,-0.11039178818464178,-0.13688888549797598,0.2912933349607885,0.006964111328120515,0.02538724246679868,0.49935507198779105,0.5,0.0,1.1917133116806624,-2.761859614198335,-1,40457
cf1,280.4,0.27684429931640625,0.2711827392578125,0.44793908691406253,-0.11039178818464178,-0.15101623535170025,0.2838745117190081,0.009147644042978291,0.005398058529132586,0.49997086011498315,0.5,0.0,1.2678025288820285,-2.757614859811353,-1,40427
cf1,280.44,0.270288818359375,0.28234124755859374,0.44833499145507816,-0.15663804113864693,-0.163887023925697,0.2789627075193884,0.009897613525385528,-0.014599761150627317,0.49978680152075305,0.5,0.0,1.4174454071764204,-2.7692866508608316,-1,40418
cf1,280.47999999999996,0.2632038269042969,0.29314208984375,0.44862368774414063,-0.2116276174783645,-0.17712478637711426,0.2700210571291522,0.007217407226568398,-0.034574224327024214,0.4988031906595873,0.5,0.0,1.4852248869237676,-2.7597021568240447,-1,40469
cf1,280.52,0.25559515380859377,0.30368862915039063,0.44911038208007814,-0.29361647367479793,-0.19021682739248075,0.2636634826658807,0.01216735839843152,-0.05449337611991072,0.4970216010990407,0.5,0.0,1.6259138704091072,-2.7389609397405845,-1,40390
