Crazyflie name,QTM packet timestamp (s),QTM_x (m),QTM_y (m),QTM_z (m),cf_yaw (°),QTM_vx (m/s),QTM_vy (m/s),QTM_vz (m/s),x_g (m),y_g (m),z_g (m),yaw_g (°),roll_c (°),pitch_c (°),yaw_rate_c (°/s),thrust_c (PWM)
cf1,4982.24,0.008223428726196289,0.0022975101470947266,0.008597841262817383,-0.02546823024749756,0.0003990650176914263,0.0002050280570939196,0.0004203319549468173,0.008215447425842286,0.0022934095859527587,0.4,-0.02546823024749756,None,None,None,None
cf1,4982.26,0.008227215766906739,0.0023104097843170165,0.008598886489868163,-0.027009267359972,0.00018935203551839302,0.0006449818611004182,5.226135253790023e-05,0.008215447425842286,0.0022934095859527587,0.4,-0.02546823024749756,None,None,None,None
cf1,4982.28,0.008228731155395509,0.0023207018375396727,0.008596061706542969,-0.027009267359972,7.57694244402655e-05,0.0005146026611449773,-0.00014123916626308328,0.008215447425842286,0.0022934095859527587,0.4,-0.02546823024749756,None,None,None,None
cf1,4982.3,0.008208456993103028,0.002317178249359131,0.008609560012817383,-0.031738635152578354,-0.001013708114601897,-0.0001761794090232377,0.0006749153137059927,0.008215447425842286,0.0022934095859527587,0.4,-0.02546823024749756,None,None,None,None
cf1,4982.32,0.008241026878356934,0.002311544418334961,0.00868447494506836,-0.031738635152578354,0.0016284942627338233,-0.00028169155121516936,0.0037457466126374073,0.008215447425842286,0.0022934095859527587,0.4,-0.02546823024749756,None,None,None,None
cf1,4982.34,0.008213352203369141,0.0023418192863464355,0.008747714042663574,-0.031738635152578354,-0.0013837337493594556,0.0015137434005406884,0.003161954879691709,0.008215447425842286,0.0022934095859527587,0.4,-0.02546823024749756,None,None,None,None
cf1,4982.36,0.008131020545959473,0.00228598165512085,0.008880906105041504,-0.0332789309322834,-0.004116582870580749,-0.002791881561345303,0.006659603119053976,0.008215447425842286,0.0022934095859527587,0.4,-0.02546823024749756,None,None,None,None
cf1,4982.38,0.008147988319396973,0.002368213415145874,0.00898784065246582,-0.0332789309322834,0.0008483886718564558,0.00411158800116146,0.005346727371099065,0.008215447425842286,0.0022934095859527587,0.4,-0.02546823024749756,None,None,None,None
cf1,4982.4,0.008081748008728027,0.0024348795413970947,0.0094064302444458,-0.027600999921560287,-0.00331201553352561,0.003333306312639862,0.020929479599493973,0.008215447425842286,0.0022934095859527587,0.4,-0.02546823024749756,None,None,None,None
cf1,4982.42,0.00795070266723633,0.0026079943180084227,0.010497640609741211,-0.027600999921560287,-0.006552267074441855,0.008655738830377464,0.05456051826357959,0.008215447425842286,0.0022934095859527587,0.4,-0.02546823024749756,None,None,None,None
cf1,4982.44,0.007927268981933595,0.0029956910610198974,0.012557072639465332,-0.027600999921560287,-0.0011716842651644309,0.019384837151032126,0.10297160148864098,0.008215447425842286,0.0022934095859527587,0.4,-0.02546823024749756,None,None,None,None
cf1,4982.46,0.007807825565338135,0.0034366388320922854,0.01584110641479492,0.5364660024642944,-0.005972170829642632,0.022047388553138147,0.1642016887628953,0.008215447425842286,0.0022934095859527587,0.4,-0.02546823024749756,None,None,None,None
cf1,4982.48,0.007605837821960449,0.004091413021087647,0.02058087158203125,0.5364660024642944,-0.0100993871691231,0.03273870945054223,0.23698825836742046,0.008215447425842286,0.0022934095859527587,0.4,-0.02546823024749756,None,None,None,None
cf1,4982.5,0.007301493644714356,0.004887858867645264,0.02671809196472168,1.5201373100280762,-0.015217208861972514,0.03982229232701162,0.3068610191278234,0.008215447425842286,0.0022934095859527587,0.4,-0.02546823024749756,None,None,None,None
cf1,4982.5199999999995,0.0069947452545166015,0.0058461189270019535,0.03419411849975586,1.5201373100280762,-0.015337419510250394,0.04791300296896747,0.37380132676054806,0.008215447425842286,0.0022934095859527587,0.4,-0.02546823024749756,None,None,None,None
cf1,4982.54,0.006504903793334961,0.006946247577667236,0.04309981918334961,1.5201373100280762,-0.0244920730585474,0.05500643253206346,0.44528503416996806,0.008215447425842286,0.0022934095859527587,0.4,-0.02546823024749756,None,None,None,None
cf1,4982.5599999999995,0.005934542179107666,0.008181668281555176,0.05332993698120117,2.4504339694976807,-0.028518080712039113,0.0617710351958577,0.5115058899046735,0.008215447425842286,0.0022934095859527587,0.4,-0.02546823024749756,None,None,None,None
cf1,4982.58,0.005294103622436524,0.0095192289352417,0.06448318481445313,2.4504339694976807,-0.03202192783285815,0.06687803268286635,0.5576623916504253,0.008215447425842286,0.0022934095859527587,0.4,-0.02546823024749756,None,None,None,None
cf1,4982.599999999999,0.004605956554412842,0.01085145092010498,0.07656903839111329,3.1232171058654785,-0.034407353401997735,0.0666110992447392,0.6042926788472975,0.008215447425842286,0.0022934095859527587,0.4,-0.02546823024749756,None,None,None,None
cf1,4982.62,0.00391283106803894,0.012217001914978027,0.08949720001220704,3.1232171058654785,-0.0346562743179386,0.06827754974216199,0.646408081040578,0.008215447425842286,0.0022934095859527587,0.4,-0.02546823024749756,None,None,None,None
cf1,4982.639999999999,0.0031649868488311766,0.013504527091979981,0.10281706237792969,3.1232171058654785,-0.03739221096127239,0.06437625885162,0.665993118301881,0.008215447425842286,0.0022934095859527587,0.4,-0.02546823024749756,None,None,None,None
cf1,4982.66,0.002487658500671387,0.014834088325500488,0.11652169799804687,3.6455740928649902,-0.03386641740725025,0.06647806167457426,0.6852317809909022,0.008215447425842286,0.0022934095859527587,0.4,-0.02546823024749756,None,None,None,None
cf1,4982.679999999999,0.0017350641489028932,0.015950603485107424,0.1305369110107422,3.6455740928649902,-0.037629717589314514,0.05582575798166688,0.7007606506513365,0.008215447425842286,0.0022934095859527587,0.4,-0.02546823024749756,None,None,None,None
cf1,4982.7,0.0009604808688163757,0.016948667526245118,0.14466090393066405,4.062685489654541,-0.0387291640034805,0.04990320205579541,0.7061996459806783,0.008215447425842286,0.0022934095859527587,0.4,-0.02546823024749756,None,None,None,None
cf1,4982.719999999999,0.0003261958658695221,0.017853540420532228,0.15863247680664064,4.062685489654541,-0.03171425014809262,0.045243644715425406,0.6985786438153484,0.008215447425842286,0.0022934095859527587,0.4,-0.02546823024749756,None,None,None,None
cf1,4982.74,-0.00039152204990386966,0.018647062301635743,0.17265516662597657,4.062685489654541,-0.03588589578788628,0.039676094054309705,0.7011344909514926,0.008215447425842286,0.0022934095859527587,0.4,-0.02546823024749756,None,None,None,None
cf1,4982.76,-0.0009557777047157288,0.01927477264404297,0.18631037902832032,4.37994384765625,-0.02821278273997713,0.031385517119676305,0.6827606201022839,0.008215447425842286,0.0022934095859527587,0.4,-0.02546823024749756,None,None,None,None
cf1,4982.78,-0.0014773679971694946,0.019791152954101564,0.1996092529296875,4.37994384765625,-0.02607951462330499,0.025819015503540224,0.6649436950840835,0.008215447425842286,0.0022934095859527587,0.4,-0.02546823024749756,None,None,None,None
cf1,4982.8,-0.001998875021934509,0.020067905426025393,0.2125323028564453,4.607699394226074,-0.026075351237681555,0.013837623595889356,0.6461524963237859,0.008215447425842286,0.0022934095859527587,0.4,-0.02546823024749756,None,None,None,None
cf1,4982.82,-0.0024013800621032716,0.02027094841003418,0.22502554321289062,4.607699394226074,-0.020125252008914022,0.010152149200679474,0.6246620178370367,0.008215447425842286,0.0022934095859527587,0.4,-0.02546823024749756,None,None,None,None
cf1,4982.84,-0.002750364065170288,0.020283109664916994,0.23703305053710938,4.607699394226074,-0.01744920015296994,0.0006080627441273717,0.6003753661978333,0.008215447425842286,0.0022934095859527587,0.4,-0.02546823024749756,None,None,None,None
cf1,4982.86,-0.0030226426124572753,0.020114221572875977,0.2484073944091797,4.715224742889404,-0.013613927364671295,-0.008444404602250492,0.568717193616964,0.008215447425842286,0.0022934095859527587,0.4,-0.02546823024749756,None,None,None,None
cf1,4982.88,-0.0032731969356536864,0.01982653045654297,0.2593016052246094,4.715224742889404,-0.0125277161595471,-0.014384555816336457,0.5447105407595944,0.008215447425842286,0.0022934095859527587,0.4,-0.02546823024749756,None,None,None,None
cf1,4982.9,-0.0033930337429046633,0.01945029640197754,0.26952508544921877,4.6913957595825195,-0.005991840362690533,-0.018811702728716247,0.5111740112425573,0.008215447425842286,0.0022934095859527587,0.4,-0.02546823024749756,None,None,None,None
cf1,4982.92,-0.0034475131034851073,0.01893487548828125,0.27914492797851564,4.6913957595825195,-0.002723968028962744,-0.02577104568425204,0.48099212645434464,0.008215447425842286,0.0022934095859527587,0.4,-0.02546823024749756,None,None,None,None
cf1,4982.94,-0.003478491544723511,0.018340288162231447,0.28824246215820315,4.6913957595825195,-0.001548922061956804,-0.029729366303193124,0.45487670899513166,0.008215447425842286,0.0022934095859527587,0.4,-0.02546823024749756,None,None,None,None
cf1,4982.96,-0.0034439988136291504,0.01763017272949219,0.2966749572753906,4.620873928070068,0.0017246365546803805,-0.035505771636187906,0.4216247558501701,0.008215447425842286,0.0022934095859527587,0.4,-0.02546823024749756,None,None,None,None
cf1,4982.98,-0.0032965679168701174,0.016699230194091797,0.30449728393554687,4.620873928070068,0.007371544838125962,-0.04654712677112026,0.39111633301706134,0.008215447425842286,0.0022934095859527587,0.4,-0.02546823024749756,None,None,None,None
cf1,4983.0,-0.0031012468338012696,0.01586618900299072,0.3118690795898438,4.527742862701416,0.00976605415322922,-0.0416520595541446,0.36858978270679993,0.008215447425842286,0.0022934095859527587,0.4,-0.02546823024749756,None,None,None,None
cf1,4983.0199999999995,-0.0028388109207153323,0.014838570594787598,0.31857647705078124,4.527742862701416,0.013121795654607152,-0.05138092041137116,0.33536987305480337,0.008215447425842286,0.0022934095859527587,0.4,-0.02546823024749756,None,None,None,None
cf1,4983.04,-0.0025643301010131836,0.013714377403259278,0.32475048828125,4.527742862701416,0.01372404098480787,-0.056209659575189065,0.3087005615167012,0.008215447425842286,0.0022934095859527587,0.4,-0.02546823024749756,None,None,None,None
cf1,4983.0599999999995,-0.002225099325180054,0.012612224578857422,0.3303768310546875,4.435935974121094,0.016961538792057577,-0.05510764122139593,0.28131713867852665,0.008215447425842286,0.0022934095859527587,0.4,-0.02546823024749756,None,None,None,None
cf1,4983.08,-0.001759095311164856,0.011429863929748535,0.33565469360351563,4.435935974121094,0.023300200700251295,-0.05911803245415392,0.2638931274356456,0.008215447425842286,0.0022934095859527587,0.4,-0.02546823024749756,None,None,None,None
cf1,4983.099999999999,-0.0013979734182357787,0.010245230674743653,0.34047491455078127,4.330885887145996,0.018056094646880835,-0.05923166275164478,0.2410110473689812,0.008215447425842286,0.0022934095859527587,0.4,-0.02546823024749756,None,None,None,None
cf1,4983.12,-0.0009143452644348144,0.008965699195861817,0.3448821105957031,4.330885887145996,0.024181407689520387,-0.0639765739426953,0.22035980224128232,0.008215447425842286,0.0022934095859527587,0.4,-0.02546823024749756,None,None,None,None
cf1,4983.139999999999,-0.0003890264928340912,0.007740242004394531,0.34893463134765623,4.330885887145996,0.02626593858065727,-0.061272859574813196,0.2026260376024472,0.008215447425842286,0.0022934095859527587,0.4,-0.02546823024749756,None,None,None,None
cf1,4983.16,5.331248044967652e-05,0.00648948860168457,0.3526957092285156,4.241823673248291,0.02211694866370562,-0.062537670134133,0.18805389403886452,0.008215447425842286,0.0022934095859527587,0.4,-0.02546823024749756,None,None,None,None
cf1,4983.179999999999,0.0006869251132011414,0.00519906759262085,0.35614743041992186,4.241823673248291,0.031680631638322396,-0.06452105045471172,0.17258605957439327,5.331248044967652e-05,0.00648948860168457,0.4,4.241823673248291,None,None,None,None
cf1,4983.2,0.0011858896017074585,0.00401690673828125,0.35927496337890624,4.140631198883057,0.024948224424771286,-0.059108042715689785,0.15637664794580564,5.331248044967652e-05,0.00648948860168457,0.4,4.241823673248291,None,None,None,None
cf1,4983.219999999999,0.0017977766990661622,0.0027982323169708253,0.36230255126953126,4.140631198883057,0.03059435486865865,-0.060933721066962133,0.15137939453483046,5.331248044967652e-05,0.00648948860168457,0.4,4.241823673248291,None,None,None,None
cf1,4983.24,0.002334016561508179,0.0015831581354141236,0.36501828002929687,4.140631198883057,0.026811993121515585,-0.06075370907650896,0.13578643798531667,5.331248044967652e-05,0.00648948860168457,0.4,4.241823673248291,None,None,None,None
cf1,4983.26,0.0028751165866851805,0.0004517088532447815,0.3675818786621094,4.546135902404785,0.027055001258259527,-0.05657246410723225,0.12817993163782834,5.331248044967652e-05,0.00648948860168457,0.4,4.241823673248291,None,None,None,None
cf1,4983.28,0.0034399964809417724,-0.0006709468364715577,0.3700484008789063,4.546135902404785,0.028243994713497474,-0.05613278448714432,0.12332611084276052,5.331248044967652e-05,0.00648948860168457,0.4,4.241823673248291,None,None,None,None
cf1,4983.3,0.003961689710617065,-0.0016629351377487184,0.37237756347656253,5.204090118408203,0.02608466148319527,-0.04959941506277539,0.11645812988027064,5.331248044967652e-05,0.00648948860168457,0.4,4.241823673248291,None,None,None,None
cf1,4983.32,0.004483500480651856,-0.0026892263889312746,0.3745296020507813,5.204090118408203,0.02609053850235648,-0.05131456256034124,0.107601928713482,5.331248044967652e-05,0.00648948860168457,0.4,4.241823673248291,None,None,None,None
cf1,4983.34,0.004953932285308838,-0.003559248685836792,0.37659524536132816,5.204090118408203,0.023521590232335673,-0.04350111484432633,0.10328216552508916,5.331248044967652e-05,0.00648948860168457,0.4,4.241823673248291,None,None,None,None
cf1,4983.36,0.00539063024520874,-0.0043973374366760255,0.3786437377929688,5.841797351837158,0.021834897995511447,-0.04190443754295258,0.10242462158445327,5.331248044967652e-05,0.00648948860168457,0.4,4.241823673248291,None,None,None,None
cf1,4983.38,0.005782812118530273,-0.005161589622497559,0.3806301574707031,5.841797351837158,0.019609093665648638,-0.038212609290242575,0.09932098388454855,5.331248044967652e-05,0.00648948860168457,0.4,4.241823673248291,None,None,None,None
cf1,4983.4,0.006114014625549316,-0.005812259197235108,0.3825546264648438,6.346738815307617,0.01656012535134375,-0.032533478737646754,0.09622344970930895,5.331248044967652e-05,0.00648948860168457,0.4,4.241823673248291,None,None,None,None
cf1,4983.42,0.006395684719085693,-0.0064315123558044435,0.38433944702148437,6.346738815307617,0.014083504676511434,-0.03096265792779094,0.08924102783008142,5.331248044967652e-05,0.00648948860168457,0.4,4.241823673248291,None,None,None,None
cf1,4983.44,0.006622579574584961,-0.006968076705932617,0.38619561767578126,6.346738815307617,0.01134474277523166,-0.026828217507043086,0.09280853271703887,5.331248044967652e-05,0.00648948860168457,0.4,4.241823673248291,None,None,None,None
cf1,4983.46,0.006825943470001221,-0.007367552757263184,0.3879740905761719,6.779560089111328,0.010168194770591053,-0.01997380256609235,0.0889236450175903,5.331248044967652e-05,0.00648948860168457,0.4,4.241823673248291,None,None,None,None
cf1,4983.48,0.00698505163192749,-0.007711481094360352,0.38964520263671876,6.779560089111328,0.007955408096501575,-0.01719641685526505,0.0835556030293196,5.331248044967652e-05,0.00648948860168457,0.4,4.241823673248291,None,None,None,None
cf1,4983.5,0.007014481544494629,-0.00796741771697998,0.3913075256347656,7.131292819976807,0.0014714956283248368,-0.01279683113070206,0.08311614990052882,5.331248044967652e-05,0.00648948860168457,0.4,4.241823673248291,None,None,None,None
cf1,4983.5199999999995,0.0070513916015625,-0.00814005470275879,0.39290551757812503,7.131292819976807,0.0018455028534371722,-0.008631849289144596,0.07989959716985995,5.331248044967652e-05,0.00648948860168457,0.4,4.241823673248291,None,None,None,None
cf1,4983.54,0.0070089206695556645,-0.00827933692932129,0.39448425292968753,7.131292819976807,-0.0021235466002954275,-0.0069641113279730205,0.07893676757640193,5.331248044967652e-05,0.00648948860168457,0.4,4.241823673248291,None,None,None,None
cf1,4983.5599999999995,0.006925019264221192,-0.00831285572052002,0.39602127075195315,7.429366111755371,-0.004195070266822826,-0.0016759395599761076,0.0768508911150982,5.331248044967652e-05,0.00648948860168457,0.4,4.241823673248291,None,None,None,None
cf1,4983.58,0.006827770233154297,-0.008269671440124512,0.3975295715332031,7.429366111755371,-0.0048624515532386305,0.0021592140197282234,0.07541503906085242,5.331248044967652e-05,0.00648948860168457,0.4,4.241823673248291,None,None,None,None
cf1,4983.599999999999,0.006646085262298584,-0.008223588943481446,0.3989230651855469,7.675755977630615,-0.00908424854300043,0.0023041248322078016,0.06967468261883548,5.331248044967652e-05,0.00648948860168457,0.4,4.241823673248291,None,None,None,None
cf1,4983.62,0.006453463077545166,-0.008116475105285645,0.40035653686523437,7.675755977630615,-0.009631109237460685,0.00535569190967318,0.07167358398281014,5.331248044967652e-05,0.00648948860168457,0.4,4.241823673248291,None,None,None,None
cf1,4983.639999999999,0.006161597728729248,-0.007918153762817383,0.4017163696289063,7.675755977630615,-0.014593267441140968,0.009916067123647567,0.06799163818520322,5.331248044967652e-05,0.00648948860168457,0.4,4.241823673248291,None,None,None,None
cf1,4983.66,0.005826302528381348,-0.007654745101928711,0.4030585632324219,7.817348480224609,-0.0167647600170291,0.013170433044146099,0.06710968017431604,5.331248044967652e-05,0.00648948860168457,0.4,4.241823673248291,None,None,None,None
cf1,4983.679999999999,0.00552048921585083,-0.00733316707611084,0.40433181762695314,7.817348480224609,-0.015290665626887445,0.016078901291273796,0.06366271972806754,5.331248044967652e-05,0.00648948860168457,0.4,4.241823673248291,None,None,None,None
cf1,4983.7,0.005153563976287842,-0.007044577598571778,0.405551025390625,7.9005022048950195,-0.018346261977748943,0.014429473876638125,0.06096038818226176,5.331248044967652e-05,0.00648948860168457,0.4,4.241823673248291,None,None,None,None
cf1,4983.719999999999,0.0047049827575683595,-0.006671173572540283,0.4067601928710938,7.9005022048950195,-0.022429060936504507,0.018670201302016222,0.06045837402486899,5.331248044967652e-05,0.00648948860168457,0.4,4.241823673248291,None,None,None,None
cf1,4983.74,0.004242431640625,-0.006296694278717041,0.4078456726074219,7.9005022048950195,-0.023127555846663164,0.01872396469075341,0.05427398681522081,5.331248044967652e-05,0.00648948860168457,0.4,4.241823673248291,None,None,None,None
cf1,4983.76,0.00378942346572876,-0.005901506423950195,0.40898599243164063,7.950057029724121,-0.02265040874431758,0.019759392737910986,0.05701599120969294,5.331248044967652e-05,0.00648948860168457,0.4,4.241823673248291,None,None,None,None
cf1,4983.78,0.003338963508605957,-0.0055097537040710454,0.4099750671386719,7.950057029724121,-0.022522997856672736,0.019587635994420673,0.049453735352731704,5.331248044967652e-05,0.00648948860168457,0.4,4.241823673248291,None,None,None,None
cf1,4983.8,0.002823014259338379,-0.005067402362823486,0.4110129089355469,8.009047508239746,-0.02579746246281581,0.02211756706189519,0.05189208984261702,5.331248044967652e-05,0.00648948860168457,0.4,4.241823673248291,None,None,None,None
cf1,4983.82,0.002347877502441406,-0.0046786580085754394,0.41196771240234376,8.009047508239746,-0.02375683784541041,0.01943721771286196,0.04774017334097305,5.331248044967652e-05,0.00648948860168457,0.4,4.241823673248291,None,None,None,None
cf1,4983.84,0.0018240669965744018,-0.004249477863311767,0.4127836608886719,8.009047508239746,-0.026190525292778533,0.021459007262715202,0.040797424315517236,5.331248044967652e-05,0.00648948860168457,0.4,4.241823673248291,None,None,None,None
cf1,4983.86,0.001286430835723877,-0.003781162977218628,0.41361465454101565,8.043559074401855,-0.02688180804316192,0.023415744305210682,0.041549682618169353,5.331248044967652e-05,0.00648948860168457,0.4,4.241823673248291,None,None,None,None
cf1,4983.88,0.0007925457358360291,-0.0034008584022521974,0.414357177734375,8.043559074401855,-0.024694254993853366,0.019015228747906465,0.03712615966715856,5.331248044967652e-05,0.00648948860168457,0.4,4.241823673248291,None,None,None,None
cf1,4983.9,0.000268758237361908,-0.0030366225242614746,0.41504223632812504,8.068561553955078,-0.02618937492432535,0.01821179389996679,0.034252929688310466,5.331248044967652e-05,0.00648948860168457,0.4,4.241823673248291,None,None,None,None
cf1,4983.92,-0.0002653036117553711,-0.002626988172531128,0.415684814453125,8.068561553955078,-0.02670309245528108,0.020481717586070255,0.03212890624929667,5.331248044967652e-05,0.00648948860168457,0.4,4.241823673248291,None,None,None,None
cf1,4983.94,-0.0007501118183135987,-0.002311527729034424,0.41628619384765625,8.068561553955078,-0.024240410328484587,0.015773022175208196,0.030068969727273735,5.331248044967652e-05,0.00648948860168457,0.4,4.241823673248291,None,None,None,None
cf1,4983.96,-0.0012250602245330812,-0.002004810094833374,0.41682498168945314,8.079109191894531,-0.02374742031045577,0.015335881709717747,0.02693939208925672,5.331248044967652e-05,0.00648948860168457,0.4,4.241823673248291,None,None,None,None
cf1,4983.98,-0.001705683708190918,-0.0016616629362106324,0.41727786254882815,8.079109191894531,-0.0240311741834601,0.017157357931542792,0.022644042969285683,5.331248044967652e-05,0.00648948860168457,0.4,4.241823673248291,None,None,None,None
cf1,4984.0,-0.0021528353691101076,-0.0013569557666778564,0.4177054138183594,8.056252479553223,-0.022357583045471464,0.015235358476306247,0.021377563476096206,5.331248044967652e-05,0.00648948860168457,0.4,4.241823673248291,None,None,None,None
cf1,4984.0199999999995,-0.00254521918296814,-0.0011115380525588989,0.4181075439453125,8.056252479553223,-0.019619190693365544,0.012270885706238042,0.020106506348131218,5.331248044967652e-05,0.00648948860168457,0.4,4.241823673248291,None,None,None,None
cf1,4984.04,-0.0029625604152679445,-0.0008688873648643494,0.4184881591796875,8.056252479553223,-0.020867061614534752,0.012132534384462648,0.019030761718334222,5.331248044967652e-05,0.00648948860168457,0.4,4.241823673248291,None,None,None,None
cf1,4984.0599999999995,-0.003362266778945923,-0.0006269221305847168,0.41882192993164064,8.013402938842773,-0.019985318184371513,0.012098261714267717,0.016688537598050727,5.331248044967652e-05,0.00648948860168457,0.4,4.241823673248291,None,None,None,None
cf1,4984.08,-0.003753665685653687,-0.0004175712466239929,0.41916201782226564,8.013402938842773,-0.019569945334961023,0.01046754419780771,0.017004394530879187,5.331248044967652e-05,0.00648948860168457,0.4,4.241823673248291,None,None,None,None
cf1,4984.099999999999,-0.004066315650939942,-0.0002663025259971619,0.4194500732421875,7.963267803192139,-0.015632498264682406,0.007563436031520402,0.014402770996434796,5.331248044967652e-05,0.00648948860168457,0.4,4.241823673248291,None,None,None,None
cf1,4984.12,-0.004341022491455078,-0.00015454423427581788,0.4197303466796875,7.963267803192139,-0.013735342025456997,0.005587914585945228,0.014013671874693023,5.331248044967652e-05,0.00648948860168457,0.4,4.241823673248291,None,None,None,None
cf1,4984.139999999999,-0.004587691307067871,-5.4315276443958285e-05,0.41999835205078123,7.963267803192139,-0.012333440780931288,0.005011447891711485,0.01340026855500322,5.331248044967652e-05,0.00648948860168457,0.4,4.241823673248291,None,None,None,None
cf1,4984.16,-0.004863911628723145,-8.509008213877679e-06,0.42028823852539066,7.925705909729004,-0.013811016082462246,0.0022903134114540375,0.014494323730154834,5.331248044967652e-05,0.00648948860168457,0.4,4.241823673248291,None,None,None,None
cf1,4984.179999999999,-0.005078355312347412,5.2761875092983244e-05,0.4205218811035156,7.925705909729004,-0.010722184181466914,0.0030635441654154895,0.01168212890652478,5.331248044967652e-05,0.00648948860168457,0.4,4.241823673248291,None,None,None,None
cf1,4984.2,-0.005304858684539795,9.397049248218536e-05,0.42077035522460937,7.909250259399414,-0.011325168609371907,0.002060430869415131,0.012423706054416051,5.331248044967652e-05,0.00648948860168457,0.4,4.241823673248291,None,None,None,None
cf1,4984.219999999999,-0.005494750499725342,0.0001053621992468834,0.4210339965820313,7.909250259399414,-0.009494590759501903,0.0005695853382483707,0.01318206787140704,5.331248044967652e-05,0.00648948860168457,0.4,4.241823673248291,None,None,None,None
cf1,4984.24,-0.0056458706855773925,8.07102769613266e-05,0.42123681640625,7.909250259399414,-0.007556009292437576,-0.0012325961142509348,0.010140991210714346,5.331248044967652e-05,0.00648948860168457,0.4,4.241823673248291,None,None,None,None
cf1,4984.26,-0.005818902015686035,5.056922137737274e-05,0.42149392700195315,7.898447513580322,-0.008651566505243274,-0.0015070527791647972,0.012855529784877306,5.331248044967652e-05,0.00648948860168457,0.4,4.241823673248291,None,None,None,None
cf1,4984.28,-0.005932292938232422,-3.0080774798989297e-05,0.4217403564453125,7.898447513580322,-0.0056695461274534195,-0.004032499808913458,0.012321472168258449,5.331248044967652e-05,0.00648948860168457,0.4,4.241823673248291,None,None,None,None
cf1,4984.3,-0.006031900882720947,-0.00012444988638162614,0.4220057678222656,7.8919854164123535,-0.004980397224317559,-0.004718455579028848,0.01327056884736676,5.331248044967652e-05,0.00648948860168457,0.4,4.241823673248291,None,None,None,None
cf1,4984.32,-0.006088551044464111,-0.00025089505314826964,0.4222677612304688,7.8919854164123535,-0.002832508087225185,-0.006322258338481677,0.01309967041046746,5.331248044967652e-05,0.00648948860168457,0.4,4.241823673248291,None,None,None,None
cf1,4984.34,-0.006151981353759765,-0.0003650186657905579,0.42250192260742186,7.8919854164123535,-0.003171515464713469,-0.005706180631989858,0.011708068847398955,5.331248044967652e-05,0.00648948860168457,0.4,4.241823673248291,None,None,None,None
cf1,4984.36,-0.00618057918548584,-0.0005184157490730286,0.42275027465820314,7.857560157775879,-0.0014298915863375271,-0.007669854164304903,0.012417602539357402,5.331248044967652e-05,0.00648948860168457,0.4,4.241823673248291,None,None,None,None
cf1,4984.38,-0.006191655158996582,-0.0006776939630508424,0.42301690673828124,7.857560157775879,-0.0005537986755250444,-0.007963910698716853,0.013331604003613984,5.331248044967652e-05,0.00648948860168457,0.4,4.241823673248291,None,None,None,None
cf1,4984.4,-0.006181310653686524,-0.000853029727935791,0.4232474365234375,7.790410995483398,0.0005172252655151487,-0.00876678824445474,0.011526489258085198,5.331248044967652e-05,0.00648948860168457,0.4,4.241823673248291,None,None,None,None
cf1,4984.42,-0.006184739589691162,-0.0010301209688186647,0.423491455078125,7.790410995483398,-0.0001714468002281649,-0.008854562043950406,0.012200927734110212,5.331248044967652e-05,0.00648948860168457,0.4,4.241823673248291,None,None,None,None
cf1,4984.44,-0.006149470806121826,-0.0012074272632598877,0.42372723388671873,7.790410995483398,0.0017634391785084952,-0.00886531472227079,0.011788940429964362,5.331248044967652e-05,0.00648948860168457,0.4,4.241823673248291,None,None,None,None
cf1,4984.46,-0.006116976737976074,-0.0014186607599258423,0.42399795532226564,7.716752529144287,0.0016247034072521442,-0.01056167483306719,0.013536071777049819,5.331248044967652e-05,0.00648948860168457,0.4,4.241823673248291,None,None,None,None
cf1,4984.48,-0.006061415195465088,-0.0015966049432754516,0.4242184448242188,7.716752529144287,0.002778077125614981,-0.008897209167690857,0.0110244750979175,5.331248044967652e-05,0.00648948860168457,0.4,4.241823673248291,None,None,None,None
cf1,4984.5,-0.006064165115356446,-0.0017884596586227417,0.42446475219726565,7.665561676025391,-0.0001374959945648657,-0.009592735767155114,0.012315368652074799,5.331248044967652e-05,0.00648948860168457,0.4,4.241823673248291,None,None,None,None
cf1,4984.5199999999995,-0.006024651050567627,-0.0019464467763900758,0.4247083435058594,7.665561676025391,0.0019757032394876416,-0.007899355888553502,0.012179565429975465,5.331248044967652e-05,0.00648948860168457,0.4,4.241823673248291,None,None,None,None
cf1,4984.54,-0.0059584474563598635,-0.0021038436889648437,0.42491409301757815,7.665561676025391,0.003310179710315928,-0.007869845628566612,0.010287475585713236,5.331248044967652e-05,0.00648948860168457,0.4,4.241823673248291,None,None,None,None
cf1,4984.5599999999995,-0.005905541419982911,-0.002257509469985962,0.42519833374023436,7.637044906616211,0.002645301818910193,-0.007683289051237601,0.01421203613314626,5.331248044967652e-05,0.00648948860168457,0.4,4.241823673248291,None,None,None,None
cf1,4984.58,-0.005841737747192383,-0.002394454002380371,0.4254194030761719,7.637044906616211,0.003190183639456744,-0.0068472266195709845,0.011053466796634636,5.331248044967652e-05,0.00648948860168457,0.4,4.241823673248291,None,None,None,None
cf1,4984.599999999999,-0.005779330253601074,-0.0025288851261138917,0.42565283203125,7.598772048950195,0.003120374679639231,-0.006721556186834983,0.011671447754181377,5.331248044967652e-05,0.00648948860168457,0.4,4.241823673248291,None,None,None,None
cf1,4984.62,-0.005711071014404297,-0.0026693124771118163,0.42586932373046876,7.598772048950195,0.003412961959764361,-0.007021367549742967,0.010824584960702687,5.331248044967652e-05,0.00648948860168457,0.4,4.241823673248291,None,None,None,None
cf1,4984.639999999999,-0.005653950214385987,-0.0028123109340667724,0.42612710571289064,7.598772048950195,0.002856040000983046,-0.007149922847916881,0.012889099121398715,5.331248044967652e-05,0.00648948860168457,0.4,4.241823673248291,None,None,None,None
cf1,4984.66,-0.005582364559173584,-0.002969192028045654,0.42637982177734374,7.573416709899902,0.003579282760541994,-0.007844054698772867,0.012635803222378972,5.331248044967652e-05,0.00648948860168457,0.4,4.241823673248291,None,None,None,None
cf1,4984.679999999999,-0.00553180742263794,-0.0030920116901397704,0.42663327026367187,7.573416709899902,0.0025278568268419987,-0.0061409831048510255,0.012672424316706357,5.331248044967652e-05,0.00648948860168457,0.4,4.241823673248291,None,None,None,None
cf1,4984.7,-0.005500079154968262,-0.0031596314907073974,0.4268871459960938,7.517356872558594,0.0015864133834492746,-0.0033809900283075524,0.012693786620818692,5.331248044967652e-05,0.00648948860168457,0.4,4.241823673248291,None,None,None,None
cf1,4984.719999999999,-0.005469908237457275,-0.0032657690048217775,0.4271273193359375,7.517356872558594,0.0015085458755850138,-0.005306875705844493,0.012008666992469913,5.331248044967652e-05,0.00648948860168457,0.4,4.241823673248291,None,None,None,None
cf1,4984.74,-0.005455379962921143,-0.003340355396270752,0.42733685302734375,7.517356872558594,0.0007264137267907593,-0.003729319572367324,0.010476684570083794,5.331248044967652e-05,0.00648948860168457,0.4,4.241823673248291,None,None,None,None
cf1,4984.76,-0.005421716690063477,-0.0033929810523986815,0.4275302734375,7.434958457946777,0.001683163642846555,-0.002631282806339039,0.009671020507601002,5.331248044967652e-05,0.00648948860168457,0.4,4.241823673248291,None,None,None,None
cf1,4984.78,-0.005432433128356934,-0.003409733295440674,0.42775280761718754,7.434958457946777,-0.0005358219146855259,-0.0008376121521194285,0.011126708984640066,5.331248044967652e-05,0.00648948860168457,0.4,4.241823673248291,None,None,None,None
cf1,4984.8,-0.005443963050842286,-0.003456389427185059,0.42795523071289066,7.361049175262451,-0.0005764961242550014,-0.002332806587168324,0.010121154784935037,5.331248044967652e-05,0.00648948860168457,0.4,4.241823673248291,None,None,None,None
cf1,4984.82,-0.005447095394134522,-0.003496720790863037,0.42814306640625,7.361049175262451,-0.0001566171646155081,-0.0020165681839465926,0.00939178466818906,5.331248044967652e-05,0.00648948860168457,0.4,4.241823673248291,None,None,None,None
cf1,4984.84,-0.005476493358612061,-0.0034877567291259765,0.42831652832031253,7.361049175262451,-0.0014698982238448694,0.0004482030868432435,0.008673095702937372,5.331248044967652e-05,0.00648948860168457,0.4,4.241823673248291,None,None,None,None
cf1,4984.86,-0.0055242362022399905,-0.0034834008216857912,0.4284705810546875,7.294373512268066,-0.002387142181452928,0.00021779537201441104,0.007702636718930411,5.331248044967652e-05,0.00648948860168457,0.4,4.241823673248291,None,None,None,None
cf1,4984.88,-0.005567982196807862,-0.0034835405349731446,0.42861285400390625,7.294373512268066,-0.0021872997283458153,-6.9856643675153195e-06,0.007113647460782624,5.331248044967652e-05,0.00648948860168457,0.4,4.241823673248291,None,None,None,None
cf1,4984.9,-0.005582459449768066,-0.003452561140060425,0.4287430725097656,7.246805667877197,-0.0007238626480273463,0.0015489697456726134,0.006510925293122446,5.331248044967652e-05,0.00648948860168457,0.4,4.241823673248291,None,None,None,None
cf1,4984.92,-0.005672502040863037,-0.0034106550216674806,0.42888076782226564,7.246805667877197,-0.004502129554650276,0.0020953059196014787,0.006884765624850675,5.331248044967652e-05,0.00648948860168457,0.4,4.241823673248291,None,None,None,None
cf1,4984.94,-0.005745944499969483,-0.003351343870162964,0.4290001220703125,7.246805667877197,-0.0036721229554091102,0.002965557575295959,0.005967712402484957,5.331248044967652e-05,0.00648948860168457,0.4,4.241823673248291,None,None,None,None
cf1,4984.96,-0.005800602436065674,-0.0032859308719635012,0.4291179504394531,7.212481498718262,-0.002732896804749922,0.0032706499099017434,0.005891418456901077,5.331248044967652e-05,0.00648948860168457,0.4,4.241823673248291,None,None,None,None
cf1,4984.98,-0.005902067184448243,-0.0032143447399139405,0.42924563598632814,7.212481498718262,-0.005073237419248391,0.0035793066025626764,0.006384277343902655,5.331248044967652e-05,0.00648948860168457,0.4,4.241823673248291,None,None,None,None
cf1,4985.0,-0.006036929130554199,-0.0031406373977661134,0.42935876464843753,7.179365158081055,-0.006743097305150643,0.0036853671073109116,0.005656433105345793,5.331248044967652e-05,0.00648948860168457,0.4,4.241823673248291,None,None,None,None
cf1,4985.0199999999995,-0.006119275093078614,-0.0030228006839752197,0.42944586181640626,7.179365158081055,-0.004117298126318086,0.005891835689684006,0.004354858398539501,5.331248044967652e-05,0.00648948860168457,0.4,4.241823673248291,None,None,None,None
cf1,4985.04,-0.006217476844787598,-0.002951094627380371,0.4295470581054688,7.179365158081055,-0.0049100875853420305,0.0035853028296641675,0.005059814453015643,5.331248044967652e-05,0.00648948860168457,0.4,4.241823673248291,None,None,None,None
cf1,4985.0599999999995,-0.0063189930915832524,-0.0028553073406219483,0.42963247680664063,7.120278358459473,-0.0050758123399027525,0.004789364338034401,0.004270935058693323,5.331248044967652e-05,0.00648948860168457,0.4,4.241823673248291,None,None,None,None
cf1,4985.08,-0.0064025063514709475,-0.002766777276992798,0.429692138671875,7.120278358459473,-0.004175662994293606,0.004426503181360899,0.0029830932616535244,5.331248044967652e-05,0.00648948860168457,0.4,4.241823673248291,None,None,None,None
cf1,4985.099999999999,-0.006514879226684571,-0.002667105197906494,0.42974359130859374,7.079626560211182,-0.005618643760814027,0.004983603954433036,0.0025726318359978683,5.331248044967652e-05,0.00648948860168457,0.4,4.241823673248291,None,None,None,None
cf1,4985.12,-0.0066007571220397954,-0.002525543212890625,0.4298564453125,7.079626560211182,-0.004293894767667508,0.007078099250638945,0.0056427001951898205,5.331248044967652e-05,0.00648948860168457,0.4,4.241823673248291,None,None,None,None
cf1,4985.139999999999,-0.006732635021209717,-0.0024114406108856202,0.42994964599609375,7.079626560211182,-0.006593894958652002,0.005705130100385154,0.004660034179797828,5.331248044967652e-05,0.00648948860168457,0.4,4.241823673248291,None,None,None,None
cf1,4985.16,-0.006846635818481445,-0.002296330213546753,0.43001724243164063,7.019286632537842,-0.00570003986346199,0.00575551986681774,0.0033798217772701977,5.331248044967652e-05,0.00648948860168457,0.4,4.241823673248291,None,None,None,None
cf1,4985.179999999999,-0.0069390258789062504,-0.002173959970474243,0.4301118774414063,7.019286632537842,-0.0046195030213495,0.00611851215377017,0.004731750488394007,5.331248044967652e-05,0.00648948860168457,0.4,4.241823673248291,None,None,None,None
cf1,4985.2,-0.007061960697174073,-0.002030452728271484,0.43018182373046876,6.940962791442871,-0.006146740913256945,0.007175362109981322,0.0034973144530478393,5.331248044967652e-05,0.00648948860168457,0.4,4.241823673248291,None,None,None,None
cf1,4985.219999999999,-0.007171494483947754,-0.0018816629648208618,0.4302654724121094,6.940962791442871,-0.005476689338813563,0.007439488172707044,0.00418243408213013,5.331248044967652e-05,0.00648948860168457,0.4,4.241823673248291,None,None,None,None
cf1,4985.24,-0.0072808990478515625,-0.0017702054977416992,0.43033044433593753,6.940962791442871,-0.0054702281950710285,0.005572873353836486,0.0032485961913365836,5.331248044967652e-05,0.00648948860168457,0.4,4.241823673248291,None,None,None,None
cf1,4985.26,-0.007396531581878662,-0.0016351377964019776,0.4304255065917969,6.88291597366333,-0.005781626701228775,0.0067533850668386654,0.004753112792864667,5.331248044967652e-05,0.00648948860168457,0.4,4.241823673248291,None,None,None,None
cf1,4985.28,-0.0075356621742248536,-0.001520620584487915,0.4305266418457031,6.88291597366333,-0.006956529617474077,0.0057258605958385314,0.005056762695429767,5.331248044967652e-05,0.00648948860168457,0.4,4.241823673248291,None,None,None,None
cf1,4985.3,-0.007628361701965332,-0.0014025881290435792,0.4306182861328125,6.842299461364746,-0.00463497638692277,0.0059016227720879695,0.004582214355369663,5.331248044967652e-05,0.00648948860168457,0.4,4.241823673248291,None,None,None,None
cf1,4985.32,-0.007722360610961914,-0.0013129509687423706,0.43071655273437504,6.842299461364746,-0.004699945449940222,0.00448185801516641,0.004913330078242961,5.331248044967652e-05,0.00648948860168457,0.4,4.241823673248291,None,None,None,None
cf1,4985.34,-0.0077939796447753906,-0.00120306134223938,0.43081988525390624,6.842299461364746,-0.0035809516905956616,0.005494481325029603,0.005166625976447592,5.331248044967652e-05,0.00648948860168457,0.4,4.241823673248291,None,None,None,None
cf1,4985.36,-0.007900135040283203,-0.0010816833972930907,0.43094137573242186,6.78222131729126,-0.005307769775516133,0.006068897247457969,0.0060745239259245385,5.331248044967652e-05,0.00648948860168457,0.4,4.241823673248291,None,None,None,None
cf1,4985.38,-0.008005315780639649,-0.0009966545104980469,0.4310513610839844,6.78222131729126,-0.005259037017707514,0.0042514443396593935,0.005499267578006761,5.331248044967652e-05,0.00648948860168457,0.4,4.241823673248291,None,None,None,None
cf1,4985.4,-0.008073415756225586,-0.0008976848721504212,0.43112939453125,6.718569755554199,-0.0034049987793773663,0.0049484819174983015,0.0039016723633718024,5.331248044967652e-05,0.00648948860168457,0.4,4.241823673248291,None,None,None,None
cf1,4985.42,-0.008163488388061524,-0.000786103904247284,0.43123941040039065,6.718569755554199,-0.004503631591698585,0.0055790483950350815,0.005500793456913289,5.331248044967652e-05,0.00648948860168457,0.4,4.241823673248291,None,None,None,None
cf1,4985.44,-0.008265584945678712,-0.0006786755323410034,0.43134765625,6.718569755554199,-0.005104827880980112,0.005371418595441044,0.005412292480594691,5.331248044967652e-05,0.00648948860168457,0.4,4.241823673248291,None,None,None,None
cf1,4985.46,-0.008348205566406251,-0.0005696598887443543,0.4314519653320313,6.657796859741211,-0.004131031036286782,0.005450782179713478,0.005215454101450923,5.331248044967652e-05,0.00648948860168457,0.4,4.241823673248291,None,None,None,None
cf1,4985.48,-0.008422894477844238,-0.0004954883456230164,0.43158837890625,6.657796859741211,-0.003734445571987679,0.0037085771561545904,0.0068206787110977884,5.331248044967652e-05,0.00648948860168457,0.4,4.241823673248291,None,None,None,None
cf1,4985.5,-0.008474481582641602,-0.00040647679567337036,0.4316916198730469,6.594854831695557,-0.0025793552398118984,0.0044505774973851555,0.005162048339730785,-0.008474481582641602,-0.00040647679567337036,0.43158837890625,0.0,None,None,None,None
cf1,4985.5199999999995,-0.00857167148590088,-0.0003054772615432739,0.43178054809570315,6.594854831695557,-0.0048594951630787815,0.005049976706624238,0.004446411132918665,-0.00857167148590088,-0.0003054772615432739,0.43158837890625,0.0,None,None,None,None
cf1,4985.54,-0.008646531105041504,-0.00021135163307189943,0.4318924255371094,6.594854831695557,-0.00374298095694951,0.004706281423465996,0.005593872070189266,-0.008646531105041504,-0.00021135163307189943,0.43158837890625,0.0,None,None,None,None
cf1,4985.5599999999995,-0.008754032135009766,-0.00015584985911846162,0.43207852172851563,6.383321285247803,-0.005375051498540187,0.0027750886977375125,0.009304809570532462,-0.008754032135009766,-0.00015584985911846162,0.43158837890625,0.0,None,None,None,None
cf1,4985.58,-0.008862870216369629,-8.624099940061569e-05,0.43227191162109374,6.383321285247803,-0.005441904067874379,0.003480442985816326,0.009669494628694476,-0.008862870216369629,-8.624099940061569e-05,0.43158837890625,0.0,None,None,None,None
cf1,4985.599999999999,-0.008966286659240723,-4.238332808017731e-05,0.43258563232421876,5.748936653137207,-0.0051708221436769855,0.002192883566073774,0.015686035156621925,-0.008966286659240723,-4.238332808017731e-05,0.43158837890625,0.0,None,None,None,None
cf1,4985.62,-0.009054058074951172,-2.12605819106102e-05,0.43301373291015627,5.748936653137207,-0.004388570785426661,0.0010561373084553023,0.02140502929640815,-0.009054058074951172,-2.12605819106102e-05,0.43158837890625,0.0,None,None,None,None
cf1,4985.639999999999,-0.00918038272857666,-4.534225910902023e-06,0.433544921875,5.748936653137207,-0.006316232681423741,0.0008363178000051851,0.02655944824281408,-0.00918038272857666,-4.534225910902023e-06,0.43158837890625,0.0,None,None,None,None
cf1,4985.66,-0.00931386375427246,-1.0493941605091095e-05,0.43409320068359375,5.058220863342285,-0.006674051284644366,-0.00029798578470294917,0.027413940429089644,-0.00931386375427246,-1.0493941605091095e-05,0.43158837890625,0.0,None,None,None,None
cf1,4985.679999999999,-0.009480279922485351,-2.2482775151729584e-05,0.4348023071289063,5.058220863342285,-0.008320808410841292,-0.0005994416773460994,0.035455322266464605,-0.009480279922485351,-2.2482775151729584e-05,0.43158837890625,0.0,None,None,None,None
cf1,4985.7,-0.00972265911102295,-2.411893801763654e-06,0.43561108398437504,4.427811622619629,-0.012118959426615363,0.001003544067476391,0.040438842772555425,-0.00972265911102295,-2.411893801763654e-06,0.43158837890625,0.0,None,None,None,None
cf1,4985.719999999999,-0.009930023193359375,-4.47583869099617e-05,0.4365211181640625,4.427811622619629,-0.01036820411706646,-0.0021173246554599704,0.04550170898545053,-0.009930023193359375,-4.47583869099617e-05,0.43158837890625,0.0,None,None,None,None
cf1,4985.74,-0.010136358261108399,-6.924440711736679e-05,0.4375290832519531,4.427811622619629,-0.010316753387225987,-0.0012243010103435304,0.05039825439342908,-0.010136358261108399,-6.924440711736679e-05,0.43158837890625,0.0,None,None,None,None
cf1,4985.76,-0.010419696807861329,-0.00010801171511411667,0.4385788269042969,3.8829092979431152,-0.014166927337337288,-0.0019383653997951836,0.05248718261604342,-0.010419696807861329,-0.00010801171511411667,0.43158837890625,0.0,None,None,None,None
cf1,4985.78,-0.010692358016967773,-0.0001656259447336197,0.4397103576660156,3.8829092979431152,-0.013633060455644599,-0.002880711481043272,0.05657653808727463,-0.010692358016967773,-0.0001656259447336197,0.43158837890625,0.0,None,None,None,None
cf1,4985.8,-0.010983299255371094,-0.0002656469643115997,0.44092105102539064,3.434717893600464,-0.01454706191984851,-0.005001050978789839,0.06053466796742939,-0.010983299255371094,-0.0002656469643115997,0.43158837890625,0.0,None,None,None,None
cf1,4985.82,-0.011252041816711427,-0.0003141661286354065,0.4421631164550781,3.434717893600464,-0.01343712806733437,-0.002425958216247706,0.06210327148584188,-0.011252041816711427,-0.0003141661286354065,0.43158837890625,0.0,None,None,None,None
cf1,4985.84,-0.011600343704223633,-0.00040227800607681277,0.4434350280761719,3.434717893600464,-0.017415094375230197,-0.004405593871974148,0.06359558105330194,-0.011600343704223633,-0.00040227800607681277,0.43158837890625,0.0,None,None,None,None
cf1,4985.86,-0.011911569595336914,-0.0005267723202705384,0.4447720642089844,3.0561764240264893,-0.015561294556031998,-0.006224715709833476,0.06685180664220568,-0.011911569595336914,-0.0005267723202705384,0.43158837890625,0.0,None,None,None,None
cf1,4985.88,-0.012217069625854492,-0.0006345618963241578,0.44609756469726564,3.0561764240264893,-0.015275001525545492,-0.005389478802563327,0.06627502441261476,-0.012217069625854492,-0.0006345618963241578,0.43158837890625,0.0,None,None,None,None
cf1,4985.9,-0.012536309242248536,-0.00077437162399292,0.447417724609375,2.7087206840515137,-0.015961980820079658,-0.006990486383603414,0.06600799560702965,-0.012536309242248536,-0.00077437162399292,0.43158837890625,0.0,None,None,None,None
cf1,4985.92,-0.012891562461853027,-0.0009002723097801209,0.4487876892089844,2.7087206840515137,-0.017762660979836812,-0.006295034289222636,0.06849822997897301,-0.012891562461853027,-0.0009002723097801209,0.43158837890625,0.0,None,None,None,None
cf1,4985.94,-0.013261048316955567,-0.0010195218324661256,0.4500917663574219,2.7087206840515137,-0.018474292755563865,-0.005962476134441229,0.06520385742341682,-0.013261048316955567,-0.0010195218324661256,0.43158837890625,0.0,None,None,None,None
cf1,4985.96,-0.013602923393249512,-0.0011957104206085205,0.4513469848632813,2.427595376968384,-0.017093753814324143,-0.008809429406927454,0.06276092529160068,-0.013602923393249512,-0.0011957104206085205,0.43158837890625,0.0,None,None,None,None
cf1,4985.98,-0.013958186149597169,-0.001318475842475891,0.4526153869628906,2.427595376968384,-0.017763137817802876,-0.006138271093513682,0.06342010498196582,-0.013958186149597169,-0.001318475842475891,0.43158837890625,0.0,None,None,None,None
cf1,4986.0,-0.014310104370117187,-0.0014805147647857667,0.45380340576171874,2.204164743423462,-0.017595911025616848,-0.008101946115316932,0.05940093994010979,-0.014310104370117187,0.0012473631755793712,0.43158837890625,0.0,None,None,None,None
cf1,4986.0199999999995,-0.014662264823913574,-0.0016267446279525756,0.45493005371093753,2.204164743423462,-0.017608022690235703,-0.007311493158513343,0.05633239746227185,-0.014662264823913574,0.0026782178032337843,0.43158837890625,0.0,None,None,None,None
cf1,4986.04,-0.015063370704650879,-0.0017677979469299316,0.45603240966796876,2.204164743423462,-0.020055294036427477,-0.007052665948713853,0.05511779785035846,-0.015063370704650879,0.0033389309305841466,0.43158837890625,0.0,None,None,None,None
cf1,4986.0599999999995,-0.01542113208770752,-0.0019333603382110597,0.4570706787109375,2.063457489013672,-0.01788806915325509,-0.008278119564252158,0.0519134521496636,-0.01542113208770752,0.0037087096533178847,0.43158837890625,0.0,None,None,None,None
cf1,4986.08,-0.015771878242492675,-0.0020761632919311522,0.4580547790527344,2.063457489013672,-0.017537307738874908,-0.007140147685848771,0.04920501708877155,-0.015771878242492675,0.0035659066995977922,0.43158837890625,0.0,None,None,None,None
cf1,4986.099999999999,-0.016121673583984374,-0.0022388916015625,0.45897634887695316,1.9145115613937378,-0.017489767074998552,-0.008136415481759796,0.0460784912120276,-0.016121673583984374,0.0034031783899664443,0.43158837890625,0.0,None,None,None,None
cf1,4986.12,-0.01643494987487793,-0.0023512158393859863,0.45988201904296877,1.9145115613937378,-0.015663814544335943,-0.005616211891051719,0.045283508299792316,-0.01643494987487793,0.004035337301871321,0.43158837890625,0.0,None,None,None,None
cf1,4986.139999999999,-0.016832309722900392,-0.0024452092647552492,0.46064190673828126,1.9145115613937378,-0.019867992401592875,-0.004699671268574279,0.03799438476652289,-0.016832309722900392,0.005336018719146405,0.43158837890625,0.0,None,None,None,None
cf1,4986.16,-0.01717718505859375,-0.0025119729042053225,0.461379150390625,1.76615571975708,-0.01724376678429143,-0.0033381819724307973,0.036862182616382036,-0.01717718505859375,0.00710635304105935,0.43158837890625,0.0,None,None,None,None
cf1,4986.179999999999,-0.017536638259887695,-0.002603442192077637,0.4620567932128906,1.76615571975708,-0.017972660065122294,-0.004573464393723866,0.033882141114082345,-0.017536638259887695,0.016088280789740415,0.43158837890625,0.0,None,None,None,None
cf1,4986.2,-0.017895158767700196,-0.002647069454193115,0.46261221313476564,1.6689091920852661,-0.017926025390233784,-0.0021813631057262988,0.02777099609314493,-0.017895158767700196,0.02315199870965592,0.43158837890625,0.0,None,None,None,None
cf1,4986.219999999999,-0.018224061965942385,-0.0026363658905029295,0.4631416015625,1.6689091920852661,-0.0164451599124983,0.0005351781845219354,0.026469421387344292,-0.018224061965942385,0.03158308235599192,0.43158837890625,0.0,None,None,None,None
cf1,4986.24,-0.018529203414916994,-0.0026188104152679442,0.4636239013671875,1.6689091920852661,-0.015257072448397437,0.0008777737617301054,0.024114990233848756,-0.018529203414916994,0.04188776410437169,0.43158837890625,0.0,None,None,None,None
cf1,4986.26,-0.01888152313232422,-0.0025773954391479495,0.46404910278320316,1.605498194694519,-0.01761598586997669,0.002070748805954538,0.021260070800318564,-0.01888152313232422,0.06714620581640862,0.43158837890625,0.0,None,None,None,None
cf1,4986.28,-0.01920625114440918,-0.00249199652671814,0.4644572143554688,1.605498194694519,-0.016236400604632006,0.004269945621591453,0.020405578613763155,-0.01920625114440918,0.08267124899414098,0.43158837890625,0.0,None,None,None,None
cf1,4986.3,-0.01954227638244629,-0.0023129098415374757,0.46475881958007814,1.571831464767456,-0.01680126190148882,0.008954334258837751,0.01508026123013929,-0.0205288921381298,0.10132514034543144,0.43158837890625,0.0,None,None,None,None
cf1,4986.32,-0.019884422302246095,-0.002030315637588501,0.4649914245605469,1.571831464767456,-0.01710729599039475,0.014129710197782855,0.011630249023711587,-0.02209810246331271,0.10932673472424029,0.43158837890625,0.0,None,None,None,None
cf1,4986.34,-0.020214067459106446,-0.0016641963720321657,0.46514434814453126,1.571831464767456,-0.01648225784265778,0.01830596327741719,0.0076461791990524944,-0.02360274062104567,0.11433061991273076,0.43158837890625,0.0,None,None,None,None
cf1,4986.36,-0.020544740676879884,-0.001117635488510132,0.46528384399414063,1.5557825565338135,-0.01653366088906288,0.027328044176747907,0.006974792480633549,-0.025148605313905045,0.11883728630460598,0.43158837890625,0.0,None,None,None,None
cf1,4986.38,-0.02085647964477539,-0.0003700762689113617,0.4653140869140625,1.5557825565338135,-0.015586948394435056,0.03737796097912263,0.0015121459960607208,-0.02546034428180055,0.1292387972042756,0.43158837890625,0.0,None,None,None,None
cf1,4986.4,-0.021149707794189454,0.00045238202810287477,0.46538046264648436,1.554563045501709,-0.014661407471049897,0.04112291485168425,0.0033187866211711187,-0.024036230102709354,0.17316225744372496,0.43158837890625,0.0,None,None,None,None
cf1,4986.42,-0.021512142181396486,0.001519042134284973,0.46536538696289065,1.554563045501709,-0.018121719359956046,0.05333300530794077,-0.0007537841796691813,-0.022487296838658386,0.21439554873505856,0.43158837890625,0.0,None,None,None,None
cf1,4986.44,-0.021883302688598633,0.0028106129169464113,0.46534194946289065,1.554563045501709,-0.0185580253605462,0.06457853913459899,-0.0011718750000277555,-0.021883302688598633,0.25958555131308525,0.43158837890625,0.0,None,None,None,None
cf1,4986.46,-0.022236230850219727,0.004426809787750244,0.4652766418457031,1.5650056600570679,-0.017646408080669508,0.08080984353842773,-0.003265380859305611,-0.022236230850219727,0.27787349579888565,0.43158837890625,0.0,None,None,None,None
cf1,4986.48,-0.02261797904968262,0.006371572017669678,0.46523007202148436,1.5650056600570679,-0.01908740997359595,0.0972381114982711,-0.002328491210992317,-0.02261797904968262,0.2685172116225498,0.43158837890625,0.0,None,None,None,None
cf1,4986.5,-0.02299016571044922,0.00872081470489502,0.4651109924316406,1.6085197925567627,-0.018609333037923857,0.11746213435870312,-0.005953979492057604,-0.02299016571044922,0.25205220599568684,0.43158837890625,0.0,None,None,None,None
cf1,4986.5199999999995,-0.02336979103088379,0.0114244441986084,0.46499404907226566,1.6085197925567627,-0.01898126602217731,0.13518147468886563,-0.005847167968886002,-0.02336979103088379,0.23727453469121995,0.43158837890625,0.0,None,None,None,None
cf1,4986.54,-0.023845956802368163,0.014501011848449707,0.4647931823730469,1.6085197925567627,-0.02380828857369899,0.15382838248870764,-0.010043334960718787,-0.023217830679277712,0.23398887268618468,0.43158837890625,0.0,None,None,None,None
cf1,4986.5599999999995,-0.0242390079498291,0.018054220199584962,0.4646451110839844,1.6524970531463623,-0.019652557373511608,0.17766041756096385,-0.007403564453301248,-0.021854065496727148,0.23265492990518963,0.43158837890625,0.0,None,None,None,None
cf1,4986.58,-0.02464426612854004,0.021977838516235353,0.4644851379394531,1.6524970531463623,-0.02026290893510473,0.1961809158282373,-0.007998657226388196,-0.020992409045291628,0.23478547347518672,0.43158837890625,0.0,None,None,None,None
cf1,4986.599999999999,-0.02508824920654297,0.026406265258789065,0.4643198852539063,1.6828616857528687,-0.02219915390067139,0.22142133713292153,-0.008262634277537692,-0.020218025377791302,0.2318196592352259,0.43158837890625,0.0,None,None,None,None
cf1,4986.62,-0.02553895950317383,0.031173246383666992,0.4641646118164063,1.6828616857528687,-0.022535514831051037,0.2383490562386937,-0.007763671874830136,-0.02009084613733368,0.21682295669530854,0.43158837890625,0.0,None,None,None,None
cf1,4986.639999999999,-0.02597023582458496,0.036417404174804685,0.4640019836425781,1.6828616857528687,-0.021563816071066496,0.26220788956308505,-0.008131408691600886,-0.02017345259091722,0.18786088257369712,0.43158837890625,0.0,None,None,None,None
cf1,4986.66,-0.026466594696044923,0.04208710479736328,0.4638978881835938,1.6849204301834106,-0.02481794357245638,0.28348503112174184,-0.0052047729491024545,-0.01963085386932915,0.18146127161761896,0.43158837890625,0.0,None,None,None,None
cf1,4986.679999999999,-0.026903707504272463,0.04805406188964844,0.4638252258300781,1.6849204301834106,-0.021855640411893834,0.298347854621313,-0.003633117675869027,-0.01735276379708516,0.17786730433939973,0.43158837890625,0.0,None,None,None,None
cf1,4986.7,-0.027320898056030274,0.05422515106201172,0.46377273559570314,1.6765106916427612,-0.020859527587435225,0.30855445861142894,-0.0026245117186917133,-0.016654074904652556,0.1792497938309762,0.43158837890625,0.0,None,None,None,None
cf1,4986.719999999999,-0.02773922920227051,0.06071714401245117,0.46373342895507813,1.6765106916427612,-0.02091655731250642,0.3245996475296483,-0.0019653320312971847,-0.01739451282771135,0.08946695426126236,0.43158837890625,0.0,None,None,None,None
cf1,4986.74,-0.028144596099853515,0.06731623077392579,0.4637641906738281,1.6765106916427612,-0.020268344878707847,0.32995433806652863,0.0015380859374661382,-0.019508400570903136,0.08776398921202047,0.43158837890625,0.0,None,None,None,None
cf1,4986.76,-0.02853792953491211,0.074051513671875,0.4637211608886719,1.60098135471344,-0.019666671752500517,0.33676414489010964,-0.0021514892577653155,-0.02110266957886225,0.0878231305553383,0.43158837890625,0.0,None,None,None,None
cf1,4986.78,-0.028850696563720704,0.08078433990478516,0.46378967285156253,1.60098135471344,-0.015638351440799444,0.33664131165346856,0.003425598144613476,-0.02223270188492615,0.09227394251619454,0.43158837890625,0.0,None,None,None,None
cf1,4986.8,-0.0292658748626709,0.0874181137084961,0.4638747253417969,1.4943982362747192,-0.020758914947056707,0.331688690178307,0.004252624511626324,-0.02323967004867588,0.09706098140936331,0.43158837890625,0.0,None,None,None,None
cf1,4986.82,-0.029569549560546877,0.0940024642944336,0.46393551635742186,1.4943982362747192,-0.015183734894157851,0.32921752930465975,0.0030395507813193888,-0.024131581655582626,0.10271568907223991,0.43158837890625,0.0,None,None,None,None
cf1,4986.84,-0.02983197021484375,0.10031023406982421,0.46408346557617186,1.4943982362747192,-0.013121032714557243,0.31538848876264663,0.007397460937338463,-0.0243940023098795,0.10902345884763052,0.43158837890625,0.0,None,None,None,None
cf1,4986.86,-0.030114830017089846,0.10646815490722657,0.4641634216308594,1.3477756977081299,-0.014142990112639229,0.30789604187739844,0.003997802734470757,-0.024676862112125594,0.11474596624347036,0.43158837890625,0.0,None,None,None,None
cf1,4986.88,-0.030354455947875978,0.11227427673339845,0.46431817626953126,1.3477756977081299,-0.011981296539045096,0.29030609130225715,0.007737731933424719,-0.024916488042911727,0.12055208806964224,0.43158837890625,0.0,None,None,None,None
cf1,4986.9,-0.03051056480407715,0.11771046447753906,0.46444091796875003,1.244528889656067,-0.007805442810243125,0.2718093872134584,0.0061370849610839105,-0.025072596899112898,0.12598827581378286,0.43158837890625,0.0,None,None,None,None
cf1,4986.92,-0.030692955017089844,0.1228092041015625,0.4645041809082031,1.244528889656067,-0.009119510650435706,0.25493698119560704,0.0031631469725849183,-0.025729561831320868,0.1310870154378063,0.43158837890625,0.0,None,None,None,None
cf1,4986.94,-0.030861770629882813,0.12747518157958984,0.46460479736328125,1.244528889656067,-0.008440780639848017,0.23329887390688386,0.005030822754025946,-0.025898377444113836,0.13575299291583365,0.43158837890625,0.0,None,None,None,None
cf1,4986.96,-0.03097563362121582,0.1316835174560547,0.46459146118164063,1.1854230165481567,-0.005693149566526132,0.2104167938186497,-0.0006668090820165396,-0.026457850919264298,0.13955635607533484,0.43158837890625,0.0,None,None,None,None
cf1,4986.98,-0.03104728889465332,0.13544139099121094,0.4646028137207031,1.1854230165481567,-0.0035827636719596547,0.18789367676225546,0.00056762695313749,-0.026529506192701797,0.1433142296104911,0.43158837890625,0.0,None,None,None,None
cf1,4987.0,-0.031090044021606447,0.13880992126464844,0.46461306762695315,1.1246826648712158,-0.00213775634760969,0.16842651366819877,0.0005126953124905631,-0.026572261319654924,0.1459933418381712,0.43158837890625,0.0,None,None,None,None
cf1,4987.0199999999995,-0.031135963439941405,0.14169723510742188,0.4645847778320313,1.1246826648712158,-0.0022959709168022353,0.14436569214208564,-0.0014144897461267098,-0.026618180737989883,0.14724714902352334,0.43158837890625,0.0,None,None,None,None
cf1,4987.04,-0.0311623477935791,0.14422129821777344,0.46448895263671874,1.1246826648712158,-0.0013192176818560212,0.12620315551482297,-0.004791259765522304,-0.02664456509162758,0.14838629412333187,0.43158837890625,0.0,None,None,None,None
cf1,4987.0599999999995,-0.03117168998718262,0.1463470458984375,0.46438442993164064,1.0916146039962769,-0.00046710968018692686,0.10628738403571657,-0.0052261352540287215,-0.02714969689073174,0.14850086521380362,0.43158837890625,0.0,None,None,None,None
cf1,4987.08,-0.031155258178710937,0.14798788452148437,0.464246337890625,1.0916146039962769,0.0008215904235662035,0.08204193115055268,-0.006904602050629982,-0.027133265082260057,0.14933196406407306,0.43158837890625,0.0,None,None,None,None
