Crazyflie name,QTM packet timestamp (s),QTM_x (m),QTM_y (m),QTM_z (m),cf_yaw (°),QTM_vx (m/s),QTM_vy (m/s),QTM_vz (m/s),x_g (m),y_g (m),z_g (m),yaw_g (°),roll_c (°),pitch_c (°),yaw_rate_c (°/s),thrust_c (PWM)
cf1,4852.679999999999,0.7605618896484375,0.7367232666015625,0.01664082145690918,0.01271833200007677,0.0015472412109728884,-0.0003417968750111022,-0.00018548965454537412,0.7605309448242188,0.7367301025390626,0.4,0.01271833200007677,None,None,None,None
cf1,4852.7,0.7605396118164063,0.7367086181640625,0.01668221664428711,0.01271833200007677,-0.00111389160153752,-0.0007324218749833467,0.0020697593688512603,0.7605309448242188,0.7367301025390626,0.4,0.01271833200007677,None,None,None,None
cf1,4852.719999999999,0.7605383911132813,0.7367417602539063,0.016703256607055666,0.013358192518353462,-6.103515625277556e-05,0.0016571044922256638,0.0010519981384526926,0.7605309448242188,0.7367301025390626,0.4,0.01271833200007677,None,None,None,None
cf1,4852.74,0.7605446777343751,0.7367164306640626,0.01666415596008301,0.013358192518353462,0.00031433105468361424,-0.0012664794921569689,-0.0019550323485901383,0.7605309448242188,0.7367301025390626,0.4,0.01271833200007677,None,None,None,None
cf1,4852.76,0.76054638671875,0.7367154541015625,0.01674642562866211,0.013358192518353462,8.544921874333866e-05,-4.882812500333067e-05,0.004113483428865272,0.7605309448242188,0.7367301025390626,0.4,0.01271833200007677,None,None,None,None
cf1,4852.78,0.7605087890625,0.73675439453125,0.01677198028564453,0.00404644850641489,-0.001879882812544409,0.0019470214844235722,0.0012777328491512345,0.7605309448242188,0.7367301025390626,0.4,0.01271833200007677,None,None,None,None
cf1,4852.8,0.7604480590820313,0.7367969360351563,0.016922258377075197,0.00404644850641489,-0.003036499023368111,0.002127075195266426,0.007513904571369254,0.7605309448242188,0.7367301025390626,0.4,0.01271833200007677,None,None,None,None
cf1,4852.82,0.7606113891601562,0.737156005859375,0.01697262191772461,-0.08606181293725967,0.008166503906441514,0.017953491211361465,0.002518177032530139,0.7605309448242188,0.7367301025390626,0.4,0.01271833200007677,None,None,None,None
cf1,4852.84,0.7602197265625,0.7370595703125,0.01785284233093262,-0.08606181293725967,-0.0195831298823834,-0.004821777343644529,0.044011020659439855,0.7605309448242188,0.7367301025390626,0.4,0.01271833200007677,None,None,None,None
cf1,4852.86,0.7603317260742187,0.7374840087890625,0.019251676559448243,-0.08606181293725967,0.005599975586067257,0.021221923828625987,0.06994171142743513,0.7605309448242188,0.7367301025390626,0.4,0.01271833200007677,None,None,None,None
cf1,4852.88,0.7598314208984375,0.737369384765625,0.022549230575561525,0.15157318115234375,-0.025015258788516827,-0.005731201171751766,0.16487770080206518,0.7605309448242188,0.7367301025390626,0.4,0.01271833200007677,None,None,None,None
cf1,4852.9,0.7595784912109376,0.7374993896484375,0.027218208312988282,0.15157318115234375,-0.012646484375294208,0.006500244140781819,0.23344888687685814,0.7605309448242188,0.7367301025390626,0.4,0.01271833200007677,None,None,None,None
cf1,4852.92,0.7592757568359375,0.7376671142578125,0.03371859359741211,1.1729061603546143,-0.015136718749672484,0.008386230468565703,0.325019264214097,0.7605309448242188,0.7367301025390626,0.4,0.01271833200007677,None,None,None,None
cf1,4852.94,0.7587847290039063,0.7378900756835938,0.041859867095947266,1.1729061603546143,-0.024551391602143285,0.011148071289326872,0.4070636749363835,0.7605309448242188,0.7367301025390626,0.4,0.01271833200007677,None,None,None,None
cf1,4852.96,0.75823876953125,0.7380791625976563,0.051757476806640626,1.1729061603546143,-0.027297973632215755,0.009454345702918499,0.4948804855238658,0.7605309448242188,0.7367301025390626,0.4,0.01271833200007677,None,None,None,None
cf1,4852.98,0.7578045654296875,0.7382847290039063,0.06270414733886719,2.0853095054626465,-0.02171020507863709,0.01027832031274425,0.5473335266242707,0.7605309448242188,0.7367301025390626,0.4,0.01271833200007677,None,None,None,None
cf1,4853.0,0.7573294677734376,0.7384400634765625,0.07504719543457031,2.0853095054626465,-0.023754882811980415,0.007766723632643191,0.617152404771685,0.7605309448242188,0.7367301025390626,0.4,0.01271833200007677,None,None,None,None
cf1,4853.0199999999995,0.7567355346679687,0.7385716552734375,0.08831240081787109,2.6463847160339355,-0.029696655274144574,0.0065795898439026555,0.6632602691807231,0.7605309448242188,0.7367301025390626,0.4,0.01271833200007677,None,None,None,None
cf1,4853.04,0.756156005859375,0.738591552734375,0.10229962158203125,2.6463847160339355,-0.028976440429051897,0.0009948730468561263,0.6993610381927424,0.7605309448242188,0.7367301025390626,0.4,0.01271833200007677,None,None,None,None
cf1,4853.0599999999995,0.7556136474609375,0.7384317626953125,0.11674726867675782,2.6463847160339355,-0.027117919922517542,-0.007989501953315126,0.7223823547534105,0.7605309448242188,0.7367301025390626,0.4,0.01271833200007677,None,None,None,None
cf1,4853.08,0.75523486328125,0.7382717285156251,0.13150686645507811,3.0158331394195557,-0.018939208983961998,-0.008001708984198474,0.7379798888999063,0.7605309448242188,0.7367301025390626,0.4,0.01271833200007677,None,None,None,None
cf1,4853.099999999999,0.7547451171875,0.7380154418945313,0.1465375213623047,3.0158331394195557,-0.024487304688077315,-0.012814331054992117,0.7515327453791002,0.7605309448242188,0.7367301025390626,0.4,0.01271833200007677,None,None,None,None
cf1,4853.12,0.75433740234375,0.7377763671875001,0.1615716552734375,3.355638265609741,-0.02038574218705591,-0.011953735351299932,0.7517066955402325,0.7605309448242188,0.7367301025390626,0.4,0.01271833200007677,None,None,None,None
cf1,4853.139999999999,0.75394287109375,0.7374912109375,0.1765133056640625,3.355638265609741,-0.019726562500466293,-0.014257812500338618,0.7470825195489165,0.7605309448242188,0.7367301025390626,0.4,0.01271833200007677,None,None,None,None
cf1,4853.16,0.7535701293945313,0.7370930175781251,0.19124574279785156,3.355638265609741,-0.018637084960530605,-0.01990966796831368,0.7366218566733737,0.7605309448242188,0.7367301025390626,0.4,0.01271833200007677,None,None,None,None
cf1,4853.179999999999,0.75324560546875,0.73670361328125,0.20555758666992188,3.654172658920288,-0.016226196289448998,-0.019470214844213518,0.7155921936204377,0.7605309448242188,0.7367301025390626,0.4,0.01271833200007677,None,None,None,None
cf1,4853.2,0.7529310913085938,0.7362107543945313,0.21940325927734375,3.654172658920288,-0.015725708007464444,-0.024642944335396266,0.6922836303559823,0.7605309448242188,0.7367301025390626,0.4,0.01271833200007677,None,None,None,None
cf1,4853.219999999999,0.7527119140625,0.7357583618164063,0.23279359436035157,3.849949359893799,-0.01095886230494771,-0.022619628906785684,0.6695167541662232,0.7605309448242188,0.7367301025390626,0.4,0.01271833200007677,None,None,None,None
cf1,4853.24,0.7524820556640626,0.7352273559570313,0.24562417602539063,3.849949359893799,-0.01149291992162298,-0.026550292968172684,0.6415290832379498,0.7605309448242188,0.7367301025390626,0.4,0.01271833200007677,None,None,None,None
cf1,4853.26,0.75233203125,0.7347383422851562,0.2577686462402344,3.849949359893799,-0.007501220702962908,-0.024450683593218205,0.6072235107289329,0.7605309448242188,0.7367301025390626,0.4,0.01271833200007677,None,None,None,None
cf1,4853.28,0.7522041015625001,0.7342711791992188,0.26935406494140623,3.912623643875122,-0.00639648437514988,-0.023358154297423172,0.5792709350722908,0.7605309448242188,0.7367301025390626,0.4,0.01271833200007677,None,None,None,None
cf1,4853.3,0.752142333984375,0.7337634887695312,0.28013632202148436,3.912623643875122,-0.003088378906184497,-0.025384521483824328,0.5391128539921387,0.7605309448242188,0.7367301025390626,0.4,0.01271833200007677,None,None,None,None
cf1,4853.32,0.7521576538085938,0.7333642578125,0.29034051513671877,3.8725953102111816,0.0007659912109562351,-0.019961547852032264,0.5102096557737852,0.7605309448242188,0.7367301025390626,0.4,0.01271833200007677,None,None,None,None
cf1,4853.34,0.752184326171875,0.73289990234375,0.2997057189941406,3.8725953102111816,0.0013336181640330792,-0.023217773436993737,0.4682601928608711,0.7605309448242188,0.7367301025390626,0.4,0.01271833200007677,None,None,None,None
cf1,4853.36,0.75223486328125,0.7324942016601562,0.30845452880859375,3.8725953102111816,0.0025268554688082866,-0.020285034180169755,0.4374404907330011,0.7605309448242188,0.7367301025390626,0.4,0.01271833200007677,None,None,None,None
cf1,4853.38,0.752342041015625,0.7321602783203125,0.31644253540039063,3.77382230758667,0.005358886718631206,-0.016696166991821682,0.399400329581126,0.7605309448242188,0.7367301025390626,0.4,0.01271833200007677,None,None,None,None
cf1,4853.4,0.75248974609375,0.7318239135742187,0.32363186645507813,3.77382230758667,0.00738525390642486,-0.016818237305086487,0.35946655274287515,0.7605309448242188,0.7367301025390626,0.4,0.01271833200007677,None,None,None,None
cf1,4853.42,0.75264599609375,0.7315165405273437,0.33021356201171875,3.6435816287994385,0.0078124999998334665,-0.015368652343414713,0.32908477782484785,0.7605309448242188,0.7367301025390626,0.4,0.01271833200007677,None,None,None,None
cf1,4853.44,0.75288134765625,0.7312548828125001,0.3362215270996094,3.6435816287994385,0.011767578125277556,-0.013082885742492117,0.30039825440163564,0.7605309448242188,0.7367301025390626,0.4,0.01271833200007677,None,None,None,None
cf1,4853.46,0.7531649780273437,0.7310675659179687,0.34176092529296875,3.6435816287994385,0.014181518554374972,-0.009365844726362104,0.2769699096619222,0.7605309448242188,0.7367301025390626,0.4,0.01271833200007677,None,None,None,None
cf1,4853.48,0.753400634765625,0.7309197998046875,0.34676699829101565,3.5576589107513428,0.011782836914343526,-0.007388305664238054,0.25030364990826365,0.7605309448242188,0.7367301025390626,0.4,0.01271833200007677,None,None,None,None
cf1,4853.5,0.7537455444335938,0.7307843017578125,0.351278564453125,3.5576589107513428,0.01724548339806058,-0.00677490234360012,0.22557830810054352,0.7605309448242188,0.7367301025390626,0.4,0.01271833200007677,None,None,None,None
cf1,4853.5199999999995,0.7541305541992188,0.7306556396484375,0.3552923889160156,3.482699155807495,0.019250488281707966,-0.006433105468902656,0.20069122314927643,0.7537455444335938,0.7307843017578125,0.4,3.5576589107513428,None,None,None,None
cf1,4853.54,0.754503662109375,0.7305945434570312,0.3588917846679688,3.482699155807495,0.01865539550740338,-0.0030548095702464416,0.17996978759373022,0.7537455444335938,0.7307843017578125,0.4,3.5576589107513428,None,None,None,None
cf1,4853.5599999999995,0.7548793334960938,0.73057666015625,0.36213790893554687,3.482699155807495,0.01878356933638367,-0.0008941650390826228,0.16230621338274243,0.7537455444335938,0.7307843017578125,0.4,3.5576589107513428,None,None,None,None
cf1,4853.58,0.7553187255859375,0.73056787109375,0.36511111450195316,3.579981803894043,0.021969604491703997,-0.0004394531249911182,0.14866027831706954,0.7537455444335938,0.7307843017578125,0.4,3.5576589107513428,None,None,None,None
cf1,4853.599999999999,0.7558158569335938,0.7306261596679687,0.3679003601074219,3.579981803894043,0.024856567383401612,0.002914428711006195,0.13946228027673416,0.7537455444335938,0.7307843017578125,0.4,3.5576589107513428,None,None,None,None
cf1,4853.62,0.7562955322265625,0.7305857543945312,0.3703133850097656,4.123513698577881,0.02398376464791514,-0.0020202636718317014,0.1206512451145535,0.7537455444335938,0.7307843017578125,0.4,3.5576589107513428,None,None,None,None
cf1,4853.639999999999,0.75678369140625,0.7306709594726563,0.3726332092285156,4.123513698577881,0.024407958984950927,0.0042602539063526955,0.11599121094024226,0.7537455444335938,0.7307843017578125,0.4,3.5576589107513428,None,None,None,None
cf1,4853.66,0.75725048828125,0.7307109985351563,0.37488699340820314,4.123513698577881,0.023339843749488186,0.0020019531249589216,0.11268920898191641,0.7537455444335938,0.7307843017578125,0.4,3.5576589107513428,None,None,None,None
cf1,4853.679999999999,0.7578043212890625,0.7308040161132813,0.37688165283203123,4.679521083831787,0.02769165039128142,0.004650878906358247,0.09973297119376305,0.7537455444335938,0.7307843017578125,0.4,3.5576589107513428,None,None,None,None
cf1,4853.7,0.7582907714843751,0.7308968505859376,0.37882266235351564,4.679521083831787,0.024322509765097644,0.004641723632713135,0.09705047607210184,0.7537455444335938,0.7307843017578125,0.4,3.5576589107513428,None,None,None,None
cf1,4853.719999999999,0.7587592163085938,0.7308811645507812,0.38056640625,5.179605007171631,0.023422241211489142,-0.0007843017578353983,0.08718719482627925,0.7537455444335938,0.7307843017578125,0.4,3.5576589107513428,None,None,None,None
cf1,4853.74,0.7592810668945312,0.730920654296875,0.38236575317382815,5.179605007171631,0.026092529296303235,0.001974487304646977,0.08996734618944421,0.7537455444335938,0.7307843017578125,0.4,3.5576589107513428,None,None,None,None
cf1,4853.76,0.7597980346679688,0.7309923706054687,0.38407885742187503,5.599125862121582,0.025848388671314337,0.003585815429607009,0.08565521240047441,0.7537455444335938,0.7307843017578125,0.4,3.5576589107513428,None,None,None,None
cf1,4853.78,0.76022998046875,0.7309492797851562,0.3855065612792969,5.599125862121582,0.021597290039571122,-0.0021545410156763476,0.07138519287278094,0.7537455444335938,0.7307843017578125,0.4,3.5576589107513428,None,None,None,None
cf1,4853.8,0.7606627197265625,0.7309104614257813,0.3871680908203125,5.599125862121582,0.021636962890153155,-0.0019409179687033707,0.08307647704896742,0.7537455444335938,0.7307843017578125,0.4,3.5576589107513428,None,None,None,None
cf1,4853.82,0.7610776977539062,0.7307996215820313,0.388565673828125,5.981459617614746,0.020748901367675304,-0.005541992187633227,0.06987915039227785,0.7537455444335938,0.7307843017578125,0.4,3.5576589107513428,None,None,None,None
cf1,4853.84,0.7614913330078125,0.7307520141601562,0.39000064086914066,5.981459617614746,0.020681762694861196,-0.00238037109370004,0.07174835204921612,0.7537455444335938,0.7307843017578125,0.4,3.5576589107513428,None,None,None,None
cf1,4853.86,0.7618262329101563,0.7306232910156251,0.3913330688476563,5.981459617614746,0.016744995117586488,-0.006436157226710299,0.06662139892735673,0.7537455444335938,0.7307843017578125,0.4,3.5576589107513428,None,None,None,None
cf1,4853.88,0.7622118530273437,0.730482421875,0.3927591552734375,6.272939682006836,0.019281005858952004,-0.00704345703109901,0.07130432128750541,0.7537455444335938,0.7307843017578125,0.4,3.5576589107513428,None,None,None,None
cf1,4853.9,0.7624590454101563,0.7303113403320313,0.39393585205078124,6.272939682006836,0.012359619140920597,-0.008554077148639422,0.05883483886857736,0.7537455444335938,0.7307843017578125,0.4,3.5576589107513428,None,None,None,None
cf1,4853.92,0.7627462158203125,0.7300950317382813,0.39533056640625003,6.496836185455322,0.014358520507498862,-0.010815429687263522,0.06973571777191705,0.7537455444335938,0.7307843017578125,0.4,3.5576589107513428,None,None,None,None
cf1,4853.94,0.7629955444335937,0.729825927734375,0.39638619995117186,6.496836185455322,0.012466430664354627,-0.013455200195629607,0.05278167724733963,0.7537455444335938,0.7307843017578125,0.4,3.5576589107513428,None,None,None,None
cf1,4853.96,0.7632432250976563,0.7295365600585938,0.39760952758789064,6.496836185455322,0.012384033202857437,-0.014468383788746642,0.06116638183460412,0.7537455444335938,0.7307843017578125,0.4,3.5576589107513428,None,None,None,None
cf1,4853.98,0.763348388671875,0.7292531127929688,0.39868267822265624,6.6883931159973145,0.0052581787110617065,-0.014172363281585842,0.05365753173954864,0.7537455444335938,0.7307843017578125,0.4,3.5576589107513428,None,None,None,None
cf1,4854.0,0.7634900512695313,0.7288473510742187,0.39972866821289066,6.6883931159973145,0.007083129882657624,-0.02028808593706035,0.052299499510579384,0.7537455444335938,0.7307843017578125,0.4,3.5576589107513428,None,None,None,None
cf1,4854.0199999999995,0.7636012573242188,0.7285265502929688,0.40080450439453125,6.822344779968262,0.005560302734506839,-0.016040039062877477,0.05379180908330142,0.7537455444335938,0.7307843017578125,0.4,3.5576589107513428,None,None,None,None
cf1,4854.04,0.7636915893554688,0.728062255859375,0.40177297973632814,6.822344779968262,0.00451660156240008,-0.023214721679180685,0.04842376708878765,0.7537455444335938,0.7307843017578125,0.4,3.5576589107513428,None,None,None,None
cf1,4854.0599999999995,0.7637098388671875,0.7276444702148438,0.40260379028320314,6.934458255767822,0.000912475585956235,-0.020889282227054468,0.04154052734473255,0.7537455444335938,0.7307843017578125,0.4,3.5576589107513428,None,None,None,None
cf1,4854.08,0.76374560546875,0.7271777954101563,0.4036355895996094,6.934458255767822,0.001788330078089473,-0.02333374023386763,0.051589965819185624,0.7537455444335938,0.7307843017578125,0.4,3.5576589107513428,None,None,None,None
cf1,4854.099999999999,0.7637996215820313,0.7267225952148437,0.40453057861328123,6.934458255767822,0.0027008056641270317,-0.022760009766164845,0.04474945068465089,0.7537455444335938,0.7307843017578125,0.4,3.5576589107513428,None,None,None,None
cf1,4854.12,0.7637368774414063,0.7262077026367187,0.40531182861328124,7.035450458526611,-0.0031372070311822763,-0.025744628905687118,0.039062499999147904,0.7537455444335938,0.7307843017578125,0.4,3.5576589107513428,None,None,None,None
cf1,4854.139999999999,0.7636682739257813,0.7256557006835938,0.4061778564453125,7.035450458526611,-0.0034301757813304913,-0.027600097656902255,0.04330139160258738,0.7537455444335938,0.7307843017578125,0.4,3.5576589107513428,None,None,None,None
cf1,4854.16,0.7635772094726563,0.7251021728515625,0.4069804992675781,7.035450458526611,-0.00455322265615119,-0.027676391600956873,0.04013214111240445,0.7537455444335938,0.7307843017578125,0.4,3.5576589107513428,None,None,None,None
cf1,4854.179999999999,0.7635358276367188,0.7245167846679688,0.40786721801757814,7.098474979400635,-0.002069091796923572,-0.029269409180380696,0.04433593750104916,0.7537455444335938,0.7307843017578125,0.4,3.5576589107513428,None,None,None,None
cf1,4854.2,0.7634847412109376,0.7239519653320312,0.40860958862304686,7.098474979400635,-0.0025543212890053236,-0.028240966796261046,0.037118530272625926,0.7537455444335938,0.7307843017578125,0.4,3.5576589107513428,None,None,None,None
cf1,4854.219999999999,0.7633382568359375,0.7233558349609375,0.40927777099609375,7.135247230529785,-0.007324218750177636,-0.0298065185553918,0.03340911865313444,0.7537455444335938,0.7307843017578125,0.4,3.5576589107513428,None,None,None,None
cf1,4854.24,0.7632308349609375,0.7227056884765625,0.4099780578613281,7.135247230529785,-0.005371093749883427,-0.03250732421804057,0.035014343260954636,0.7537455444335938,0.7307843017578125,0.4,3.5576589107513428,None,None,None,None
cf1,4854.26,0.7631566772460938,0.7221001586914063,0.4107818603515625,7.135247230529785,-0.0037078857421014577,-0.030276489257146922,0.0401901245108414,0.7537455444335938,0.7307843017578125,0.4,3.5576589107513428,None,None,None,None
cf1,4854.28,0.7630352172851562,0.7215599365234375,0.4115057678222656,7.1140217781066895,-0.006072998047023492,-0.02701110839907796,0.03619537353601147,0.7537455444335938,0.7307843017578125,0.4,3.5576589107513428,None,None,None,None
cf1,4854.3,0.7628511962890625,0.7209568481445313,0.4121466369628906,7.1140217781066895,-0.009201049804484884,-0.030154418944652473,0.03204345703055056,0.7537455444335938,0.7307843017578125,0.4,3.5576589107513428,None,None,None,None
cf1,4854.32,0.7627215576171875,0.7203298950195313,0.4128024291992188,7.059798717498779,-0.006481933593902656,-0.03134765625074385,0.032789611817183754,0.7537455444335938,0.7307843017578125,0.4,3.5576589107513428,None,None,None,None
cf1,4854.34,0.7625911254882812,0.7197341918945312,0.41345654296875,7.059798717498779,-0.0065216064451720564,-0.02978515624935052,0.03270568847584752,0.7537455444335938,0.7307843017578125,0.4,3.5576589107513428,None,None,None,None
cf1,4854.36,0.7624658203125,0.719212646484375,0.41398321533203125,7.059798717498779,-0.006265258789210299,-0.026077270508429368,0.026333618164684918,0.7537455444335938,0.7307843017578125,0.4,3.5576589107513428,None,None,None,None
cf1,4854.38,0.7623236694335938,0.7186522827148437,0.41458529663085936,7.00199031829834,-0.007107543945156514,-0.028018188475952433,0.030104064940748167,0.7537455444335938,0.7307843017578125,0.4,3.5576589107513428,None,None,None,None
cf1,4854.4,0.7622034301757813,0.7181437377929688,0.41539663696289064,7.00199031829834,-0.006011962890765166,-0.025427246094346746,0.040567016602523535,0.7537455444335938,0.7307843017578125,0.4,3.5576589107513428,None,None,None,None
cf1,4854.42,0.7620885620117188,0.717635498046875,0.4160252685546875,6.946479320526123,-0.005743408202998434,-0.025411987304136276,0.03143157958915791,0.7537455444335938,0.7307843017578125,0.4,3.5576589107513428,None,None,None,None
cf1,4854.44,0.7619577636718751,0.7171761474609375,0.4165245056152344,6.946479320526123,-0.006539916992342238,-0.022967529297417622,0.024961853027934598,0.7537455444335938,0.7307843017578125,0.4,3.5576589107513428,None,None,None,None
cf1,4854.46,0.7618341064453125,0.7167444458007812,0.41701373291015625,6.946479320526123,-0.006182861327995104,-0.02158508300734232,0.024461364745558344,0.7537455444335938,0.7307843017578125,0.4,3.5576589107513428,None,None,None,None
cf1,4854.48,0.7617081909179688,0.716275390625,0.41751895141601564,6.880059719085693,-0.0062957763673311355,-0.02345275878961553,0.025260925293566536,0.7537455444335938,0.7307843017578125,0.4,3.5576589107513428,None,None,None,None
cf1,4854.5,0.7615899047851563,0.7158557739257813,0.4180374450683594,6.880059719085693,-0.0059143066404962145,-0.020980834960479533,0.025924682616621286,0.7537455444335938,0.7307843017578125,0.4,3.5576589107513428,None,None,None,None
cf1,4854.5199999999995,0.7614971923828125,0.7155101318359375,0.41851345825195313,6.774523735046387,-0.004635620117297829,-0.017282104492597587,0.023800659180250244,0.7537455444335938,0.7307843017578125,0.4,3.5576589107513428,None,None,None,None
cf1,4854.54,0.7613700561523438,0.715205810546875,0.419046630859375,6.774523735046387,-0.006356811523300388,-0.015216064452789713,0.02665863037051116,0.7537455444335938,0.7307843017578125,0.4,3.5576589107513428,None,None,None,None
cf1,4854.5599999999995,0.7612827758789062,0.7149000854492188,0.4196139831542969,6.674651145935059,-0.004364013671979083,-0.015286254883174016,0.028367614746765087,0.7537455444335938,0.7307843017578125,0.4,3.5576589107513428,None,None,None,None
cf1,4854.58,0.7612302246093751,0.714639892578125,0.42004904174804686,6.674651145935059,-0.0026275634765019927,-0.013009643554406059,0.021752929687024268,0.7537455444335938,0.7307843017578125,0.4,3.5576589107513428,None,None,None,None
cf1,4854.599999999999,0.761167236328125,0.7143927612304688,0.4204697570800781,6.674651145935059,-0.0031494140625777157,-0.012356567383101851,0.021035766602060017,0.7537455444335938,0.7307843017578125,0.4,3.5576589107513428,None,None,None,None
cf1,4854.62,0.7611077270507812,0.7142371826171875,0.4208695068359375,6.611029624938965,-0.002975463867123662,-0.007778930663895412,0.01998748779253271,0.7537455444335938,0.7307843017578125,0.4,3.5576589107513428,None,None,None,None
cf1,4854.639999999999,0.7610056762695313,0.7140510864257813,0.4212430419921875,6.611029624938965,-0.005102539062616573,-0.009304809570529687,0.018676757812941314,0.7537455444335938,0.7307843017578125,0.4,3.5576589107513428,None,None,None,None
cf1,4854.66,0.7608829345703125,0.7139144897460937,0.4216628112792969,6.601978302001953,-0.006137084960804828,-0.006829833984229561,0.02098846435501217,0.7537455444335938,0.7307843017578125,0.4,3.5576589107513428,None,None,None,None
cf1,4854.679999999999,0.7608018798828126,0.7137859497070312,0.4221878662109375,6.601978302001953,-0.004052734375094369,-0.006427001953276268,0.026252746582651934,0.7537455444335938,0.7307843017578125,0.4,3.5576589107513428,None,None,None,None
cf1,4854.7,0.7607838745117188,0.713723876953125,0.4227349548339844,6.601978302001953,-0.0009002685546680711,-0.0031036376952442214,0.027354431151746173,0.7537455444335938,0.7307843017578125,0.4,3.5576589107513428,None,None,None,None
cf1,4854.719999999999,0.7607119750976563,0.7136732177734375,0.42315316772460937,6.631531238555908,-0.0035949707032096544,-0.0025329589844346745,0.02091064453174405,0.7537455444335938,0.7307843017578125,0.4,3.5576589107513428,None,None,None,None
cf1,4854.74,0.7606809082031251,0.7136414794921875,0.42348413085937503,6.631531238555908,-0.0015533447265286382,-0.0015869140624666933,0.016548156737921815,0.7537455444335938,0.7307843017578125,0.4,3.5576589107513428,None,None,None,None
cf1,4854.76,0.7606559448242187,0.7136220092773438,0.4238486328125,6.631531238555908,-0.0012481689452897404,-0.0009735107421647404,0.01822509765585143,0.7537455444335938,0.7307843017578125,0.4,3.5576589107513428,None,None,None,None
cf1,4854.78,0.7605748291015625,0.713699951171875,0.42418505859375,6.657072067260742,-0.004055786132907563,0.0038970947266547874,0.016821289062896906,0.7537455444335938,0.7307843017578125,0.4,3.5576589107513428,None,None,None,None
cf1,4854.8,0.7604630126953125,0.7137684326171875,0.42453909301757814,6.657072067260742,-0.005590820312378985,0.0034240722655483947,0.017701721191020724,0.7537455444335938,0.7307843017578125,0.4,3.5576589107513428,None,None,None,None
cf1,4854.82,0.7603943481445312,0.7138754272460938,0.42494537353515627,6.693822383880615,-0.003433227539143685,0.00534973144544087,0.020314025879386768,0.7537455444335938,0.7307843017578125,0.4,3.5576589107513428,None,None,None,None
cf1,4854.84,0.7603577270507813,0.71396728515625,0.42539736938476563,6.693822383880615,-0.001831054687455591,0.004592895507709804,0.022599792479974977,0.7537455444335938,0.7307843017578125,0.4,3.5576589107513428,None,None,None,None
cf1,4854.86,0.7602835083007813,0.7140898437500001,0.4257358093261719,6.73862886428833,-0.0037109375000888177,0.0061279296876498805,0.016921997070712874,0.7537455444335938,0.7307843017578125,0.4,3.5576589107513428,None,None,None,None
cf1,4854.88,0.7601911010742187,0.7142407836914063,0.4261000671386719,6.73862886428833,-0.0046203613280273005,0.007546997070147632,0.018212890624601984,0.7537455444335938,0.7307843017578125,0.4,3.5576589107513428,None,None,None,None
cf1,4854.9,0.760123779296875,0.714433837890625,0.4264228820800781,6.73862886428833,-0.0033660888672645216,0.009652709961161627,0.016140747070693445,0.7537455444335938,0.7307843017578125,0.4,3.5576589107513428,None,None,None,None
cf1,4854.92,0.7600601196289063,0.7145989990234375,0.42671673583984376,6.794525623321533,-0.0031829833983670008,0.008258056640445145,0.014692687987961783,0.7537455444335938,0.7307843017578125,0.4,3.5576589107513428,None,None,None,None
cf1,4854.94,0.7599769897460937,0.7148265380859375,0.42694754028320314,6.794525623321533,-0.0041564941407263075,0.011376953125272005,0.011540222168241795,0.7537455444335938,0.7307843017578125,0.4,3.5576589107513428,None,None,None,None
cf1,4854.96,0.7598814086914063,0.7150469970703125,0.4272380981445313,6.794525623321533,-0.004779052734267308,0.01102294921850686,0.014527893066090114,0.7537455444335938,0.7307843017578125,0.4,3.5576589107513428,None,None,None,None
cf1,4854.98,0.7598035888671875,0.7153458862304688,0.4275823974609375,6.789575099945068,-0.0038909912110339506,0.014944458008168465,0.017214965820718426,0.7537455444335938,0.7307843017578125,0.4,3.5576589107513428,None,None,None,None
cf1,4855.0,0.7597310791015626,0.7156871337890626,0.4279555969238281,6.789575099945068,-0.003625488281165623,0.01706237792931613,0.018659973144122967,0.7537455444335938,0.7307843017578125,0.4,3.5576589107513428,None,None,None,None
cf1,4855.0199999999995,0.7596443481445313,0.7160228881835937,0.42814025878906253,6.7368574142456055,-0.004336547851665889,0.016787719726954548,0.00923309326193906,0.7537455444335938,0.7307843017578125,0.4,3.5576589107513428,None,None,None,None
cf1,4855.04,0.7596064453125,0.716310791015625,0.4282583923339844,6.7368574142456055,-0.0018951416015241973,0.014395141601249972,0.005906677245963577,0.7537455444335938,0.7307843017578125,0.4,3.5576589107513428,None,None,None,None
cf1,4855.0599999999995,0.759536865234375,0.7166278076171875,0.42844375610351565,6.668639183044434,-0.003479003906330491,0.015850830078498312,0.009268188476782463,0.7537455444335938,0.7307843017578125,0.4,3.5576589107513428,None,None,None,None
cf1,4855.08,0.7594225463867188,0.7169413452148438,0.42858740234375003,6.668639183044434,-0.00571594238268649,0.015676879882472218,0.007182312011562486,0.7537455444335938,0.7307843017578125,0.4,3.5576589107513428,None,None,None,None
cf1,4855.099999999999,0.75931640625,0.7172349853515625,0.42875119018554686,6.668639183044434,-0.0053070068360672575,0.014682006836283751,0.008189392090034917,0.7537455444335938,0.7307843017578125,0.4,3.5576589107513428,None,None,None,None
cf1,4855.12,0.7592157592773437,0.7175562133789063,0.42888229370117187,6.614768981933594,-0.005032348632700923,0.016061401366839444,0.006555175781107337,0.7537455444335938,0.7307843017578125,0.4,3.5576589107513428,None,None,None,None
cf1,4855.139999999999,0.759138427734375,0.7178856811523437,0.42894155883789065,6.614768981933594,-0.0038665771485283996,0.01647338867226219,0.0029632568360089704,0.7537455444335938,0.7307843017578125,0.4,3.5576589107513428,None,None,None,None
cf1,4855.16,0.7590235595703125,0.7182322998046875,0.4290210266113281,6.614768981933594,-0.005743408202998434,0.01733093261680947,0.003973388671787292,0.7537455444335938,0.7307843017578125,0.4,3.5576589107513428,None,None,None,None
cf1,4855.179999999999,0.7589210205078125,0.7185768432617188,0.429080810546875,6.557728290557861,-0.0051269531251221245,0.0172271728519712,0.0029891967774155676,0.7537455444335938,0.7307843017578125,0.4,3.5576589107513428,None,None,None,None
cf1,4855.2,0.7588577270507812,0.718920654296875,0.42910791015625,6.557728290557861,-0.0031646728514942214,0.017190551757436688,0.0013549804687189137,0.7537455444335938,0.7307843017578125,0.4,3.5576589107513428,None,None,None,None
cf1,4855.219999999999,0.75876953125,0.7192366943359375,0.4292573852539063,6.512722015380859,-0.0044097900391658895,0.01580200195349831,0.00747375488299083,0.7537455444335938,0.7307843017578125,0.4,3.5576589107513428,None,None,None,None
cf1,4855.24,0.7586997680664063,0.7195625610351563,0.4293106689453125,6.512722015380859,-0.0034881591796114496,0.016293334960581673,0.002664184570253103,0.7537455444335938,0.7307843017578125,0.4,3.5576589107513428,None,None,None,None
cf1,4855.26,0.758646484375,0.7198434448242188,0.42932925415039064,6.520607948303223,-0.002664184570253103,0.014044189452820799,0.0009292602538865435,0.7537455444335938,0.7307843017578125,0.4,3.5576589107513428,None,None,None,None
cf1,4855.28,0.75856640625,0.7201497802734376,0.429342041015625,6.520607948303223,-0.004003906250094369,0.015316772461300403,0.0006393432617336686,0.7537455444335938,0.7307843017578125,0.4,3.5576589107513428,None,None,None,None
cf1,4855.3,0.7585000610351562,0.7204654541015625,0.4293487854003906,6.520607948303223,-0.0033172607421192214,0.01578369140590139,0.0003372192382732009,0.7537455444335938,0.7307843017578125,0.4,3.5576589107513428,None,None,None,None
cf1,4855.32,0.7583753051757812,0.7207611694335938,0.42938119506835937,6.519866943359375,-0.006237792968897105,0.01478576660191569,0.001620483398475664,0.7537455444335938,0.7307843017578125,0.4,3.5576589107513428,None,None,None,None
cf1,4855.34,0.7583081665039063,0.7210988159179688,0.42946557617187503,6.519866943359375,-0.0033569335936722844,0.016882324218379187,0.004219055175691044,0.7537455444335938,0.7307843017578125,0.4,3.5576589107513428,None,None,None,None
cf1,4855.36,0.7582449340820313,0.7213887329101563,0.42939114379882815,6.519866943359375,-0.00316162109382494,0.014495849609717781,-0.003721618652432221,0.7537455444335938,0.7307843017578125,0.4,3.5576589107513428,None,None,None,None
cf1,4855.38,0.7581303100585938,0.7216893310546875,0.42939248657226564,6.569606304168701,-0.005731201171751766,0.015029907226232209,6.713867187333467e-05,0.7537455444335938,0.7307843017578125,0.4,3.5576589107513428,None,None,None,None
cf1,4855.4,0.758063232421875,0.7219387817382813,0.42937417602539063,6.569606304168701,-0.0033538818360172975,0.012472534179986566,-0.0009155273437722045,0.7537455444335938,0.7307843017578125,0.4,3.5576589107513428,None,None,None,None
cf1,4855.42,0.7580072021484375,0.7221494750976563,0.4293604125976563,6.615912914276123,-0.0028015136718128274,0.010534667968517963,-0.0006881713867023742,0.7537455444335938,0.7307843017578125,0.4,3.5576589107513428,None,None,None,None
cf1,4855.44,0.7579228515625,0.7223837890625,0.4293063049316406,6.615912914276123,-0.004217529296973532,0.011715698242464361,-0.0027053833008468227,0.7537455444335938,0.7307843017578125,0.4,3.5576589107513428,None,None,None,None
cf1,4855.46,0.7578812866210938,0.7225943603515625,0.4293114929199219,6.685784816741943,-0.002078247070268646,0.010528564452897404,0.0002593994140569489,0.7537455444335938,0.7307843017578125,0.4,3.5576589107513428,None,None,None,None
cf1,4855.48,0.7578579711914063,0.7227769165039063,0.4293609313964844,6.685784816741943,-0.0011657714844013679,0.0091278076174033,0.0024719238281846745,0.7537455444335938,0.7307843017578125,0.4,3.5576589107513428,None,None,None,None
cf1,4855.5,0.7578036499023437,0.722977783203125,0.42939532470703123,6.685784816741943,-0.002716064453069489,0.010043334960716011,0.0017196655273040596,0.7537455444335938,0.7307843017578125,0.4,3.5576589107513428,None,None,None,None
cf1,4855.5199999999995,0.7577777709960938,0.7231384887695312,0.4294356689453125,6.743316173553467,-0.0012939453125277555,0.008035278320501932,0.002017211914110378,0.7537455444335938,0.7307843017578125,0.4,3.5576589107513428,None,None,None,None
cf1,4855.54,0.7577120971679687,0.7232965698242187,0.4294849243164063,6.743316173553467,-0.003283691406181166,0.007904052734202915,0.0024627685546358747,0.7537455444335938,0.7307843017578125,0.4,3.5576589107513428,None,None,None,None
cf1,4855.5599999999995,0.7576488647460937,0.7234526977539063,0.429547119140625,6.743316173553467,-0.00316162109382494,0.0078063964845623505,0.0031097412110089708,0.7537455444335938,0.7307843017578125,0.4,3.5576589107513428,None,None,None,None
cf1,4855.58,0.7575931396484376,0.7235986328125,0.4296065673828125,6.77755069732666,-0.002786254882747552,0.007296752929527073,0.0029724121093106072,0.7537455444335938,0.7307843017578125,0.4,3.5576589107513428,None,None,None,None
cf1,4855.599999999999,0.7575504150390625,0.72369970703125,0.42965921020507813,6.77755069732666,-0.0021362304688027356,0.005053710937616573,0.002632141113344047,0.7537455444335938,0.7307843017578125,0.4,3.5576589107513428,None,None,None,None
cf1,4855.62,0.757492431640625,0.7238399658203125,0.4297265625,6.805509567260742,-0.0028991699218139377,0.00701293945297401,0.0033676147460207527,0.7537455444335938,0.7307843017578125,0.4,3.5576589107513428,None,None,None,None
cf1,4855.639999999999,0.7574751586914062,0.723922607421875,0.4298240051269531,6.805509567260742,-0.000863647460956235,0.004132080078220757,0.004872131347770395,0.7537455444335938,0.7307843017578125,0.4,3.5576589107513428,None,None,None,None
cf1,4855.66,0.757428466796875,0.7240263671875,0.42987063598632813,6.7975754737854,-0.0023345947265097644,0.005187988281138978,0.002331542968699485,0.7537455444335938,0.7307843017578125,0.4,3.5576589107513428,None,None,None,None
cf1,4855.679999999999,0.7573892822265625,0.724095458984375,0.42994705200195316,6.7975754737854,-0.001959228515670797,0.0034545898438304913,0.0038208007813415935,0.7537455444335938,0.7307843017578125,0.4,3.5576589107513428,None,None,None,None
cf1,4855.7,0.7573759765625,0.7241514892578125,0.4300065002441406,6.7975754737854,-0.0006652832031127876,0.0028015136718128274,0.0029724121093078317,0.7537455444335938,0.7307843017578125,0.4,3.5576589107513428,None,None,None,None
cf1,4855.719999999999,0.7573452148437501,0.7241849365234375,0.43009121704101566,6.770815849304199,-0.0015380859375333066,0.0016723632812916333,0.004235839843852696,0.7537455444335938,0.7307843017578125,0.4,3.5576589107513428,None,None,None,None
cf1,4855.74,0.75731103515625,0.7242467041015626,0.4301789245605469,6.770815849304199,-0.0017089843749666933,0.003088378906184497,0.004385375976466465,0.7537455444335938,0.7307843017578125,0.4,3.5576589107513428,None,None,None,None
cf1,4855.76,0.7573181762695312,0.7242449951171875,0.4302295837402344,6.770815849304199,0.00035705566405528353,-8.544921874888977e-05,0.002532958984319489,0.7537455444335938,0.7307843017578125,0.4,3.5576589107513428,None,None,None,None
cf1,4855.78,0.7572786254882813,0.724244140625,0.4303266296386719,6.712989807128906,-0.001977539062544409,-4.2724609379163334e-05,0.004852294921990186,0.7537455444335938,0.7307843017578125,0.4,3.5576589107513428,None,None,None,None
cf1,4855.8,0.7572344970703125,0.7242411499023438,0.43039385986328127,6.712989807128906,-0.002206420898389205,-0.00014953613280639378,0.003361511230394643,0.7537455444335938,0.7307843017578125,0.4,3.5576589107513428,None,None,None,None
cf1,4855.82,0.7572290649414063,0.7242511596679687,0.43046096801757816,6.638050079345703,-0.000271606445318745,0.0005004882812583266,0.0033554077149238943,0.7537455444335938,0.7307843017578125,0.4,3.5576589107513428,None,None,None,None
cf1,4855.84,0.7572015380859375,0.724231201171875,0.43052685546875,6.638050079345703,-0.0013763427734102996,-0.0009979248046636303,0.003294372558521308,0.7537455444335938,0.7307843017578125,0.4,3.5576589107513428,None,None,None,None
cf1,4855.86,0.7571895751953125,0.7242264404296875,0.4306090087890625,6.570619583129883,-0.0005981445312638778,-0.00023803710937916333,0.0041076660157207566,0.7537455444335938,0.7307843017578125,0.4,3.5576589107513428,None,None,None,None
cf1,4855.88,0.7571668701171875,0.7241983032226562,0.4306698913574219,6.570619583129883,-0.0011352539062233547,-0.0014068603515352996,0.0030441284179035244,0.7537455444335938,0.7307843017578125,0.4,3.5576589107513428,None,None,None,None
cf1,4855.9,0.7571141967773438,0.7242135009765626,0.4307301025390625,6.570619583129883,-0.0026336669922478683,0.0007598876953353983,0.003010559082102374,0.7537455444335938,0.7307843017578125,0.4,3.5576589107513428,None,None,None,None
cf1,4855.92,0.7570874633789063,0.7241631469726563,0.43078936767578124,6.504962921142578,-0.0013366699218461341,-0.0025177001952597644,0.0029632568358714416,0.7537455444335938,0.7307843017578125,0.4,3.5576589107513428,None,None,None,None
cf1,4855.94,0.7570618896484376,0.7241336059570312,0.430796142578125,6.504962921142578,-0.0012786865234673372,-0.0014770507812860822,0.00033874511719513277,0.7537455444335938,0.7307843017578125,0.4,3.5576589107513428,None,None,None,None
cf1,4855.96,0.7570020141601562,0.7241453857421876,0.4308713684082031,6.504962921142578,-0.0029937744140019927,0.0005889892578030631,0.003761291503824371,0.7537455444335938,0.7307843017578125,0.4,3.5576589107513428,None,None,None,None
cf1,4855.98,0.7570162963867187,0.7241070556640625,0.43089776611328123,6.435293674468994,0.0007141113281430411,-0.0019165039062971844,0.001319885253937128,0.7537455444335938,0.7307843017578125,0.4,3.5576589107513428,None,None,None,None
cf1,4856.0,0.7569686279296876,0.7240562133789062,0.43093338012695315,6.435293674468994,-0.002383422851507544,-0.002542114257758654,0.0017807006835568351,0.7537455444335938,0.7307843017578125,0.4,3.5576589107513428,None,None,None,None
cf1,4856.0199999999995,0.7569213256835937,0.7240330200195313,0.43093359375,6.378017902374268,-0.0023651123047478684,-0.00115966796877498,1.0681152343403055e-05,0.7537455444335938,0.7307843017578125,0.4,3.5576589107513428,None,None,None,None
cf1,4856.04,0.7568665771484375,0.7240250244140625,0.4309384460449219,6.378017902374268,-0.0027374267577497725,-0.000399780273432504,0.00024261474608792133,0.7537455444335938,0.7307843017578125,0.4,3.5576589107513428,None,None,None,None
cf1,4856.0599999999995,0.7568342895507812,0.7240045166015625,0.4309367980957031,6.316244125366211,-0.0016143798828520517,-0.0010253906250222045,-8.239746093958167e-05,0.7537455444335938,0.7307843017578125,0.4,3.5576589107513428,None,None,None,None
cf1,4856.08,0.7568096313476562,0.72398291015625,0.43091864013671877,6.316244125366211,-0.0012329101562244648,-0.0010803222655994648,-0.0009078979491979333,0.7537455444335938,0.7307843017578125,0.4,3.5576589107513428,None,None,None,None
cf1,4856.099999999999,0.7567701416015625,0.72398779296875,0.4309306640625,6.316244125366211,-0.001974487304731215,0.0002441406250055511,0.0006011962890770717,0.7537455444335938,0.7307843017578125,0.4,3.5576589107513428,None,None,None,None
cf1,4856.12,0.7567474975585937,0.7239830932617187,0.43091262817382814,6.2278008460998535,-0.0011322021484158507,-0.00023498535156083467,-0.0009017944335745987,0.7537455444335938,0.7307843017578125,0.4,3.5576589107513428,None,None,None,None
cf1,4856.139999999999,0.7567136840820312,0.7239765014648437,0.4309342041015625,6.2278008460998535,-0.0016906738281652455,-0.0003295898437583267,0.001078796386744771,0.7537455444335938,0.7307843017578125,0.4,3.5576589107513428,None,None,None,None
cf1,4856.16,0.756686279296875,0.723964111328125,0.43091415405273437,6.120486736297607,-0.0013702392577786382,-0.000619506835922512,-0.0010025024413859885,0.7537455444335938,0.7307843017578125,0.4,3.5576589107513428,None,None,None,None
cf1,4856.179999999999,0.7566473388671875,0.7239696655273438,0.43089105224609375,6.120486736297607,-0.0019470214844235722,0.00027770996094513277,-0.0011550903320579648,0.7537455444335938,0.7307843017578125,0.4,3.5576589107513428,None,None,None,None
cf1,4856.2,0.7566388549804688,0.72397021484375,0.4309071960449219,6.120486736297607,-0.00042419433592584267,2.746582031194489e-05,0.0008071899413893191,0.7537455444335938,0.7307843017578125,0.4,3.5576589107513428,None,None,None,None
cf1,4856.219999999999,0.7566464233398438,0.723983642578125,0.430894287109375,5.985922336578369,0.0003784179687583267,0.0006713867187638778,-0.0006454467773600564,0.7537455444335938,0.7307843017578125,0.4,3.5576589107513428,None,None,None,None
cf1,4856.24,0.7566571044921875,0.7240086059570313,0.43088861083984376,5.985922336578369,0.0005340576171736222,0.0012481689452897404,-0.0002838134765558387,0.7537455444335938,0.7307843017578125,0.4,3.5576589107513428,None,None,None,None
cf1,4856.26,0.7566248168945313,0.7240211181640626,0.43088824462890624,5.857499599456787,-0.001614379882773087,0.0006256103515486222,-1.831054687555511e-05,0.7537455444335938,0.7307843017578125,0.4,3.5576589107513428,None,None,None,None
cf1,4856.28,0.7566109619140625,0.72401416015625,0.4308600769042969,5.857499599456787,-0.000692749023456235,-0.00034790039063749,-0.001408386230500322,0.7537455444335938,0.7307843017578125,0.4,3.5576589107513428,None,None,None,None
cf1,4856.3,0.7566051635742188,0.7240592651367188,0.43082720947265624,5.857499599456787,-0.00028991699217917333,0.002255249023392536,-0.0016433715819971107,0.7537455444335938,0.7307843017578125,0.4,3.5576589107513428,None,None,None,None
cf1,4856.32,0.7566170043945313,0.7240919189453126,0.430825927734375,5.732315540313721,0.00059204101563749,0.001632690429725664,-6.408691406319389e-05,0.7537455444335938,0.7307843017578125,0.4,3.5576589107513428,None,None,None,None
cf1,4856.34,0.7566072387695313,0.7241241455078126,0.4307887573242188,5.732315540313721,-0.00048828124998889777,0.001611328124965583,-0.0018585205077703115,0.7537455444335938,0.7307843017578125,0.4,3.5576589107513428,None,None,None,None
cf1,4856.36,0.75662109375,0.7241417236328125,0.4307240905761719,5.637889385223389,0.0006927490234506839,0.0008789062500166534,-0.0032333374024211188,0.7537455444335938,0.7307843017578125,0.4,3.5576589107513428,None,None,None,None
cf1,4856.38,0.7566124267578125,0.7241846923828125,0.4306787109375,5.637889385223389,-0.00043334960936500797,0.0021484374999522606,-0.0022689819335457327,0.7537455444335938,0.7307843017578125,0.4,3.5576589107513428,None,None,None,None
cf1,4856.4,0.7566347045898437,0.7241865234375,0.43062152099609374,5.637889385223389,0.001113891601588174,9.155273437916334e-05,-0.0028594970703798074,0.7537455444335938,0.7307843017578125,0.4,3.5576589107513428,None,None,None,None
cf1,4856.42,0.75660888671875,0.724236572265625,0.43056423950195316,5.580437660217285,-0.0012908935546558586,0.002502441406194489,-0.0028640747069665793,0.7537455444335938,0.7307843017578125,0.4,3.5576589107513428,None,None,None,None
cf1,4856.44,0.7566322021484375,0.7242911987304688,0.4304688415527344,5.580437660217285,0.0011657714844013679,0.0027313232422534195,-0.004769897461050604,0.7566322021484375,0.7242911987304688,0.43056423950195316,0.0,None,None,None,None
cf1,4856.46,0.7566622924804688,0.7242874755859375,0.430340576171875,5.5400471687316895,0.0015045166015308586,-0.00018615722655750399,-0.006413269042830805,0.7566622924804688,0.7242874755859375,0.43056423950195316,0.0,None,None,None,None
cf1,4856.48,0.756644775390625,0.7243031616210938,0.43022894287109376,5.5400471687316895,-0.0008758544922090105,0.0007843017578298472,-0.005581665039193645,0.756644775390625,0.7243031616210938,0.43056423950195316,0.0,None,None,None,None
cf1,4856.5,0.7566090698242187,0.7243551025390625,0.43014270019531253,5.5400471687316895,-0.0017852783202764178,0.002597045898382544,-0.004312133788967021,0.7566090698242187,0.7243551025390625,0.43056423950195316,0.0,None,None,None,None
cf1,4856.5199999999995,0.7566296997070313,0.7243556518554688,0.4301055603027344,5.074097156524658,0.0010314941406541433,2.746582031319389e-05,-0.001856994628951006,0.7566296997070313,0.7243556518554688,0.43056423950195316,0.0,None,None,None,None
cf1,4856.54,0.756574462890625,0.72437744140625,0.4301493225097656,5.074097156524658,-0.0027618408202542133,0.0010894775390386303,0.0021881103515136503,0.756574462890625,0.72437744140625,0.43056423950195316,0.0,None,None,None,None
cf1,4856.5599999999995,0.7565682983398437,0.7244193725585938,0.43026477050781253,5.074097156524658,-0.00030822753907152055,0.0020965576172367662,0.005772399902482181,0.7565682983398437,0.7244193725585938,0.43056423950195316,0.0,None,None,None,None
cf1,4856.58,0.7565484619140626,0.724427734375,0.43047485351562503,4.453935146331787,-0.00099182128903752,0.0004180908202997324,0.010504150390395739,0.7565484619140626,0.724427734375,0.43056423950195316,0.0,None,None,None,None
cf1,4856.599999999999,0.7565427856445313,0.7244218139648437,0.4307779541015625,4.453935146331787,-0.0002838134765715206,-0.000296020507818745,0.01515502929723166,0.7565427856445313,0.7244218139648437,0.43056423950195316,0.0,None,None,None,None
cf1,4856.62,0.7564912109375,0.7244674072265626,0.43128619384765626,3.8211231231689453,-0.0025787353515042133,0.002279663085891426,0.0254119873041335,0.7564912109375,0.7244674072265626,0.43056423950195316,0.0,None,None,None,None
cf1,4856.639999999999,0.7565198974609375,0.7244282836914062,0.43192315673828124,3.8211231231689453,0.001434326171906919,-0.0019561767578631538,0.03184814453200217,0.7565198974609375,0.7244282836914062,0.43056423950195316,0.0,None,None,None,None
cf1,4856.66,0.75652001953125,0.7244061889648438,0.4325553283691406,3.8211231231689453,6.103515626110223e-06,-0.0011047363280983547,0.031608581542279024,0.75652001953125,0.7244061889648438,0.43056423950195316,0.0,None,None,None,None
cf1,4856.679999999999,0.756529296875,0.7243928222656251,0.43331549072265624,3.282902956008911,0.0004638671875111022,-0.0006683349609506839,0.03800811767667949,0.756529296875,0.7243928222656251,0.43056423950195316,0.0,None,None,None,None
cf1,4856.7,0.7565025634765625,0.7243544921875,0.4342661437988281,3.282902956008911,-0.0013366699218461341,-0.0019165039062100319,0.04753265380755597,0.7565025634765625,0.7243544921875,0.43056423950195316,0.0,None,None,None,None
cf1,4856.719999999999,0.7565087890625,0.724269287109375,0.4352398376464844,2.826188802719116,0.0003112792968791633,-0.0042602539063526955,0.04868469238396505,0.7565087890625,0.724269287109375,0.43056423950195316,0.0,None,None,None,None
cf1,4856.74,0.756494384765625,0.72423681640625,0.43618441772460936,2.826188802719116,-0.0007202148437311263,-0.0016235351562122525,0.047229003905218045,0.756494384765625,0.72423681640625,0.43056423950195316,0.0,None,None,None,None
cf1,4856.76,0.7565511474609375,0.724201904296875,0.43738916015625,2.4297192096710205,0.0028381347655639377,-0.0017456054687122525,0.060237121580717576,0.7565511474609375,0.724201904296875,0.43056423950195316,0.0,None,None,None,None
cf1,4856.78,0.756561767578125,0.7241010131835938,0.4385018005371094,2.4297192096710205,0.0005310058593847144,-0.005044555664182543,0.055632019044285407,0.756561767578125,0.7241010131835938,0.43056423950195316,0.0,None,None,None,None
cf1,4856.8,0.7565673828125,0.7240429077148438,0.439786865234375,2.4297192096710205,0.0002807617187455591,-0.002905273437434497,0.06425323486187653,0.7565673828125,0.7240429077148438,0.43056423950195316,0.0,None,None,None,None
cf1,4856.82,0.756662353515625,0.7239559326171875,0.44091015625,2.0907182693481445,0.004748535156363798,-0.004348754882918665,0.056164550782579495,0.756662353515625,0.7239559326171875,0.43056423950195316,0.0,None,None,None,None
cf1,4856.84,0.7566483764648437,0.723868408203125,0.44212918090820313,2.0907182693481445,-0.0006988525390508426,-0.0043762207030273005,0.06095123290882537,0.7566483764648437,0.723868408203125,0.43056423950195316,0.0,None,None,None,None
cf1,4856.86,0.7567432250976562,0.72375439453125,0.4433445434570313,1.832984447479248,0.00474243164073741,-0.005700683593886003,0.060768127442844336,0.7567432250976562,0.72375439453125,0.43056423950195316,0.0,None,None,None,None
cf1,4856.88,0.75678369140625,0.7236713256835937,0.4443864440917969,1.832984447479248,0.0020233154296447563,-0.004153442382724237,0.05209503173714355,0.75678369140625,0.7236713256835937,0.43056423950195316,0.0,None,None,None,None
cf1,4856.9,0.7568861694335938,0.7236184692382812,0.4457496337890625,1.832984447479248,0.005123901367308931,-0.00264282226568745,0.0681594848648928,0.7568861694335938,0.7236184692382812,0.43056423950195316,0.0,None,None,None,None
cf1,4856.92,0.7569202270507812,0.72346484375,0.4467308959960938,1.6160767078399658,0.0017028808593350319,-0.007681274413894301,0.049063110350492246,0.7569202270507812,0.72346484375,0.43056423950195316,0.0,None,None,None,None
cf1,4856.94,0.757073486328125,0.7234005737304687,0.44798367309570314,1.6160767078399658,0.007662963867369993,-0.003213500976638134,0.06263885498194917,0.757073486328125,0.7234005737304687,0.43056423950195316,0.0,None,None,None,None
cf1,4856.96,0.7571987915039062,0.723298095703125,0.44894186401367187,1.4563108682632446,0.006265258788925388,-0.005123901367075923,0.04790954589739056,0.7571987915039062,0.723298095703125,0.43056423950195316,0.0,None,None,None,None
cf1,4856.98,0.7572696533203125,0.7231650390625001,0.4498258056640625,1.4563108682632446,0.0035430908203964604,-0.006652832031402656,0.044197082520576594,0.7572696533203125,0.7231650390625001,0.43056423950195316,0.0,None,None,None,None
cf1,4857.0,0.7574367675781251,0.7231227416992188,0.45091934204101564,1.4563108682632446,0.008355712890446254,-0.0021148681640197563,0.054676818846463596,0.7574367675781251,0.7231227416992188,0.43056423950195316,0.0,None,None,None,None
cf1,4857.0199999999995,0.7575130615234376,0.7230374145507813,0.45170718383789066,1.3732774257659912,0.0038146972657152056,-0.004266357421973533,0.039392089844682586,0.7575130615234376,0.7230374145507813,0.43056423950195316,0.0,None,None,None,None
cf1,4857.04,0.7576340942382813,0.7229452514648438,0.45239785766601565,1.3732774257659912,0.006051635742055939,-0.00460815429677508,0.0345336914054956,0.7576340942382813,0.7229452514648438,0.43056423950195316,0.0,None,None,None,None
cf1,4857.0599999999995,0.7577889404296875,0.7228930664062501,0.4531893310546875,1.3228724002838135,0.007742309570490829,-0.0026092529297478684,0.039573669434528766,0.7577889404296875,0.7228930664062501,0.43056423950195316,0.0,None,None,None,None
cf1,4857.08,0.7578873901367188,0.7228761596679688,0.4539056396484375,1.3228724002838135,0.0049224853514586945,-0.0008453369140441813,0.035815429686717845,0.7578873901367188,0.7228761596679688,0.43056423950195316,0.0,None,None,None,None
cf1,4857.099999999999,0.75804541015625,0.7228496704101562,0.45448309326171876,1.3228724002838135,0.007901000976749156,-0.0013244628906596944,0.028872680664745982,0.75804541015625,0.7228496704101562,0.43056423950195316,0.0,None,None,None,None
cf1,4857.12,0.7582047119140625,0.7228389892578125,0.45502008056640625,1.306209921836853,0.007965087890447364,-0.0005340576171736222,0.026849365233788246,0.7582047119140625,0.7228389892578125,0.43056423950195316,0.0,None,None,None,None
cf1,4857.139999999999,0.758362548828125,0.7228291015625,0.45555776977539064,1.306209921836853,0.007891845703315126,-0.00049438476563749,0.026884460449855395,0.758362548828125,0.7228291015625,0.43056423950195316,0.0,None,None,None,None
cf1,4857.16,0.758515380859375,0.7228589477539062,0.45597869873046876,1.3177706003189087,0.007641601562330136,0.0014923095702786382,0.02104644775344634,0.758515380859375,0.7228589477539062,0.3402050843836787,0.0,None,None,None,None
cf1,4857.179999999999,0.7586751098632812,0.722901123046875,0.4563898010253906,1.3177706003189087,0.007986450195501931,0.0021087646484895415,0.020555114746579124,0.7586751098632812,0.722901123046875,0.32990508743552965,0.0,None,None,None,None
cf1,4857.2,0.7588473510742187,0.7229147338867188,0.4567591552734375,1.3177706003189087,0.008612060546687372,0.000680541992172512,0.018467712401942126,0.7588473510742187,0.7229147338867188,0.3195898312326426,0.0,None,None,None,None
cf1,4857.219999999999,0.7590255126953125,0.7229639282226563,0.4569343872070313,1.3276532888412476,0.008908081054897748,0.0024597167969346743,0.008761596679894974,0.7590255126953125,0.7229639282226563,0.3195898312326426,0.0,None,None,None,None
cf1,4857.24,0.7591915893554688,0.7230125122070312,0.4569755554199219,1.3276532888412476,0.00830383300763542,0.0024291992186922682,0.0020584106444865636,0.7591915893554688,0.7230125122070312,0.3195898312326426,0.0,None,None,None,None
cf1,4857.26,0.7593447875976562,0.7230966186523438,0.4567350158691406,1.404874563217163,0.007659912109202915,0.004205322265535072,-0.012026977538802153,0.7593447875976562,0.7230966186523438,0.3195898312326426,0.0,None,None,None,None
cf1,4857.28,0.7594994506835938,0.7231846313476563,0.45624322509765625,1.404874563217163,0.00773315429706235,0.004400634765731859,-0.024589538574799882,0.7594994506835938,0.7231846313476563,0.3195898312326426,0.0,None,None,None,None
cf1,4857.3,0.759684814453125,0.72327978515625,0.45514520263671876,1.404874563217163,0.009268188476355443,0.004757690429581474,-0.05490112304567596,0.759684814453125,0.72327978515625,0.3195898312326426,0.0,None,None,None,None
cf1,4857.32,0.7598759155273438,0.7234068603515625,0.45388580322265626,1.4660253524780273,0.009555053711167178,0.0063537597657762675,-0.06296997070461409,0.7598759155273438,0.7234068603515625,0.3195898312326426,0.0,None,None,None,None
cf1,4857.34,0.7600980224609375,0.7235065307617188,0.4520367431640625,1.4660253524780273,0.011105346679442695,0.004983520507703143,-0.09245300292766967,0.7600980224609375,0.7235065307617188,0.3092745750297555,0.0,None,None,None,None
cf1,4857.36,0.760268310546875,0.7236728515625,0.4497791442871094,1.4960840940475464,0.008514404297079003,0.008316040039260258,-0.1128799438503239,0.760268310546875,0.7236728515625,0.3092745750297555,0.0,None,None,None,None
cf1,4857.38,0.76050439453125,0.7238240356445312,0.4470846862792969,1.4960840940475464,0.011804199218487988,0.007559204101394301,-0.13472290038768625,0.76050439453125,0.7238240356445312,0.3092745750297555,0.0,None,None,None,None
cf1,4857.4,0.7606963500976562,0.724002685546875,0.4441170349121094,1.4960840940475464,0.00959777832054079,0.008932495117397748,-0.1483825683628819,0.7606963500976562,0.724002685546875,0.3092745750297555,0.0,None,None,None,None
cf1,4857.42,0.7609342041015625,0.7241956176757812,0.4408390808105469,1.4915235042572021,0.011892700195055483,0.009646606445102113,-0.16389770507454787,0.7609342041015625,0.7241956176757812,0.3092745750297555,0.0,None,None,None,None
cf1,4857.44,0.7611159057617187,0.724368408203125,0.4368749694824219,1.4915235042572021,0.009085083008024136,0.008639526367392198,-0.19820556641093792,0.7611159057617187,0.724368408203125,0.3092745750297555,0.0,None,None,None,None
cf1,4857.46,0.7613599243164063,0.7245946044921875,0.4329754943847656,1.4556642770767212,0.012200927734112988,0.011309814452878531,-0.194973754878557,0.7613599243164063,0.7245946044921875,0.3092745750297555,0.0,None,None,None,None
cf1,4857.48,0.7615543212890625,0.7248092041015625,0.4285294189453125,1.4556642770767212,0.00971984863304079,0.010729980469002576,-0.2223037719779135,0.7615543212890625,0.7248092041015625,0.2989745780816065,0.0,None,None,None,None
cf1,4857.5,0.7617882080078126,0.725074462890625,0.4241765441894531,1.4556642770767212,0.011694335937245759,0.013262939452839673,-0.21764373778821838,0.7617882080078126,0.725074462890625,0.2989745780816065,0.0,None,None,None,None
cf1,4857.5199999999995,0.7619854736328125,0.72524951171875,0.41940179443359377,1.4127222299575806,0.009863281250233146,0.008752441406452616,-0.2387374877986125,0.7619854736328125,0.72524951171875,0.2989745780816065,0.0,None,None,None,None
cf1,4857.54,0.7621361083984375,0.7254152221679687,0.41447225952148437,1.4127222299575806,0.007531738281082357,0.008285522460757089,-0.24647674560009,0.7621361083984375,0.7254152221679687,0.28865932187871945,0.0,None,None,None,None
cf1,4857.5599999999995,0.7623793334960938,0.72570458984375,0.40975079345703125,1.396977186203003,0.012161254883101852,0.014468383789404588,-0.23607330322823825,0.7623793334960938,0.72570458984375,0.28865932187871945,0.0,None,None,None,None
cf1,4857.58,0.7625813598632812,0.7259110717773438,0.4047973022460938,1.396977186203003,0.010101318359152955,0.010324096679467121,-0.2476745605414671,0.7625813598632812,0.7259110717773438,0.28865932187871945,0.0,None,None,None,None
cf1,4857.599999999999,0.7627412109375,0.726135498046875,0.39970635986328124,1.396977186203003,0.007992553711128319,0.011221313476826872,-0.25454711914664657,0.7627412109375,0.726135498046875,0.28865932187871945,0.0,None,None,None,None
cf1,4857.62,0.7629247436523438,0.7263551635742188,0.39462478637695314,1.4204893112182617,0.009176635741985994,0.010983276366948246,-0.25407867431085873,0.7629247436523438,0.7263551635742188,0.28865932187871945,0.0,None,None,None,None
cf1,4857.639999999999,0.7630995483398437,0.7265896606445312,0.3896809997558594,1.4204893112182617,0.00874023437520539,0.011724853515898392,-0.24718933106053212,0.7630995483398437,0.7265896606445312,0.2835016937772759,0.0,None,None,None,None
cf1,4857.66,0.7633291625976563,0.7268441772460937,0.38490020751953125,1.5138038396835327,0.01148071289037631,0.012725830077847444,-0.23903961181119016,0.7633291625976563,0.7268441772460937,0.2835016937772759,0.0,None,None,None,None
cf1,4857.679999999999,0.7634735107421875,0.7270924682617188,0.3799603271484375,1.5138038396835327,0.007217407226732503,0.012414550781546985,-0.24699401856052658,0.7634735107421875,0.7270924682617188,0.2835016937772759,0.0,None,None,None,None
cf1,4857.7,0.76361376953125,0.7273206787109375,0.37509869384765626,1.5138038396835327,0.00701293945297401,0.011410522460687144,-0.2430816650337573,0.76361376953125,0.7273206787109375,0.2835016937772759,0.0,None,None,None,None
cf1,4857.719999999999,0.7637626953125,0.7276020507812501,0.3706156616210938,1.574174404144287,0.007446289062672085,0.014068603515959455,-0.22415161133342493,0.7637626953125,0.7276020507812501,0.2989745780816065,0.0,None,None,None,None
cf1,4857.74,0.7639173583984376,0.7278795166015625,0.36593118286132814,1.574174404144287,0.007733154296710687,0.013873291015317469,-0.23422393798316896,0.7639173583984376,0.7278795166015625,0.3092745750297555,0.0,None,None,None,None
cf1,4857.76,0.7641004638671876,0.7282194824218751,0.3616760559082031,1.6051969528198242,0.00915527343730016,0.016998291015258626,-0.21275634765160706,0.7641004638671876,0.7282194824218751,0.3092745750297555,0.0,None,None,None,None
