Crazyflie name,QTM packet timestamp (s),QTM_x (m),QTM_y (m),QTM_z (m),cf_yaw (°),QTM_vx (m/s),QTM_vy (m/s),QTM_vz (m/s),x_g (m),y_g (m),z_g (m),yaw_g (°),roll_c (°),pitch_c (°),yaw_rate_c (°/s),thrust_c (PWM)
cf1_sim,1.4400000000000008,0.0,0.0,0.4,0.0,0.0,0.0,0.0,0.4999000033332889,0.00999933334666654,0.5,0.0,-0.2291678394833671,11.456864147829297,0,42062
cf1_sim,1.4600000000000009,0.0007846430452319304,1.5694953620927805e-05,0.4,0.0,0.03923215226159652,0.0007847476810463902,0.0,0.49960005333048896,0.01999466709331708,0.5,0.0,-0.4398992210029634,10.532872407851073,0,42875
cf1_sim,1.4800000000000009,0.0022906479722577984,6.151716195215228e-05,0.4,0.0,0.07530024635129341,0.0022911104165612237,0.0,0.4991002699676021,0.029982003239722298,0.5,0.0,-0.6332186463874998,9.660283299839413,0,43688
cf1_sim,1.5000000000000009,0.0044582540152945695,0.0001507064383212103,0.4,0.0,0.10838030215183853,0.0044594638184529,0.0,0.4984008531513097,0.03995734698458635,0.5,0.0,-0.8100976176826739,8.836436942625179,0,44500
cf1_sim,1.520000000000001,0.0072310386396777036,0.0002953766432822424,0.4,0.0,0.13863923121915672,0.007233510248051605,0.0,0.4975020826390129,0.04991670832341408,0.5,0.0,-0.9714573083249498,8.05880752593542,0,45312
cf1_sim,1.540000000000001,0.010555744557400607,0.0005065787727630677,0.4,0.0,0.16623529588614513,0.01056010647404126,0.0,0.4964043179269331,0.05985610364445969,0.5,0.0,-1.1181711036334336,7.324996750456706,0,46125
cf1_sim,1.560000000000001,0.014382115475461435,0.0007943607733608528,0.4,0.0,0.19131854590304137,0.014389100029889254,0.0,0.49510799810631856,0.06977155732211825,0.5,0.0,-1.2510670168735702,6.632727581850121,0,46938
cf1_sim,1.580000000000001,0.01866274014925024,0.0011678242502546534,0.4,0.0,0.21403123368944035,0.018673173844690028,0.0,0.49361364168781346,0.07965910330712299,0.5,0.0,-1.3709299868509317,5.979838303884009,0,47750
cf1_sim,1.600000000000001,0.02335290433369503,0.001635178225089489,0.4,0.0,0.23450820922223953,0.023367698741741782,0.0,0.4919218463940607,0.08951478671291209,0.5,0.0,-1.4785040627117252,5.364276856545498,0,48562
cf1_sim,1.620000000000001,0.028410450244402544,0.0022037900934617732,0.4,0.0,0.2528772955353757,0.028430593418614203,0.0,0.4900332889206208,0.0993346653975306,0.5,0.0,-1.5744944813582444,4.7840954456545335,0,49375
cf1_sim,1.640000000000001,0.033795643159623925,0.0028802339242814667,0.4,0.0,0.26925964576106903,0.03382219154098468,0.0,0.48794872466530276,0.10911481154043465,0.5,0.0,-1.659569642631619,4.2374454111357664,0,50188
cf1_sim,1.660000000000001,0.03947104481159004,0.003670336236284745,0.4,0.0,0.283770082598306,0.039505115600163905,0.0,0.48566898742601483,0.11885131321356728,0.5,0.0,-1.7343629871703885,3.722572341706138,0,51000
cf1_sim,1.680000000000001,0.04540139323263746,0.004579219380305548,0.4,0.0,0.296517421052371,0.045444157201040176,0.0,0.4831949890672566,0.12854027594607753,0.5,0.0,-1.7994747816210188,3.237811424310148,0,51812
cf1_sim,1.700000000000001,0.051553488737623096,0.005611342649569235,0.4,0.0,0.3076047752492818,0.05160616346318433,0.0,0.4805277191553855,0.13817782428205685,0.5,0.0,-1.855473815654958,2.7815830171824776,0,52625
cf1_sim,1.720000000000001,0.05789608573944118,0.00677054123423146,0.4,0.0,0.31712985009090416,0.05795992923311125,0.0,0.477668244562803,0.14776010333066977,0.5,0.0,-1.9028990150357448,2.3523884359394476,0,53438
cf1_sim,1.740000000000001,0.06439979010904573,0.008060063130635963,0.4,0.0,0.32518521848022747,0.06447609482022516,0.0,0.4746177090412204,0.15728328030805888,0.5,0.0,-1.9422609747784851,1.9488059425986974,0,54250
cf1_sim,1.7600000000000011,0.07103696180527966,0.009482604110292324,0.4,0.0,0.3318585848116963,0.07112704898281805,0.0,0.4713773327641731,0.1667435460704072,0.5,0.0,-1.9740434162522515,1.5694869279007448,0,55062
cf1_sim,1.7800000000000011,0.07778162251305022,0.01104034084836585,0.4,0.0,0.33723303538852833,0.0778868369036763,0.0,0.4679484118389674,0.176137116637545,0.5,0.0,-1.998704571893262,1.2131522777585544,0,55875
cf1_sim,1.8000000000000012,0.08460936804100092,0.012734962306514061,0.4,0.0,0.34138727639753463,0.08473107290741057,0.0,0.4643323177882551,0.18546023470649137,0.5,0.0,-2.016678501022514,0.8785889150924309,0,56688
cf1_sim,1.8200000000000012,0.09149728524184132,0.014567699460185806,0.4,0.0,0.3443958600420206,0.0916368576835872,0.0,0.46053049700144255,0.1947091711543253,0.5,0.0,-2.0283763400956243,0.5646465087187041,0,57500
cf1_sim,1.8400000000000012,0.09842387322993765,0.016539353456008512,0.4,0.0,0.34632939940481633,0.09858269979113535,0.0,0.4565444701561541,0.20388022652978513,0.5,0.0,-2.0341874905544675,0.27023434135253765,0,58312
cf1_sim,1.8600000000000012,0.10536896868166357,0.018650322280615653,0.4,0.0,0.34725477258629583,0.10554844123035703,0.0,0.4523758316099817,0.21296973253299986,0.5,0.0,-2.034480747299492,-0.005681670841062003,0,59125
cf1_sim,1.8800000000000012,0.11231367501439032,0.020900626018199767,0.4,0.0,0.3472353166363377,0.11251518687920573,0.0,0.4480262487627626,0.22197405348275995,0.5,0.0,-2.0296053706579875,-0.2640818143579225,0,59938
cf1_sim,1.9000000000000012,0.11924029524988013,0.023289930770206652,0.4,0.0,0.3463310117744902,0.11946523760034435,0.0,0.4434974613896421,0.2308895877707415,0.5,0.0,-2.019892104586736,-0.5058952769972819,0,60750
cf1_sim,1.9200000000000013,0.12613226837726166,0.02581757130690408,0.4,0.0,0.3445986563690767,0.1263820268348713,0.0,0.4387912809451863,0.23971276930210156,0.5,0.0,-2.005654143717074,-0.732002715582878,0,61562
cf1_sim,1.9400000000000013,0.1329741090397329,0.028482572517054754,0.4,0.0,0.3420920331235623,0.13325006050753369,0.0,0.43390958983882494,0.2484400689218684,0.5,0.0,-1.987188051726109,-0.9432386990005932,0,62375
cf1_sim,1.9600000000000013,0.13975135037767564,0.0312836697185898,0.4,0.0,0.3388620668971379,0.14005486007675222,0.0,0.428854340681912,0.2570679958265566,0.5,0.0,-1.9647746333995004,-1.1403940324965844,0,63188
cf1_sim,1.9800000000000013,0.14645048986899817,0.03421932789000744,0.4,0.0,0.334956974566127,0.14678290857088194,0.0,0.423627555506708,0.26559309896044175,0.5,0.0,-1.9386797626383272,-1.324217968899427,0,64000
cf1_sim,2.0000000000000013,0.15305893801526665,0.03728775987920437,0.4,0.0,0.3304224073134248,0.15342159945984682,0.0,0.4182313249575934,0.27401196839593683,0.5,0.0,-1.9091551685551253,-1.4954203121626262,0,64812
cf1_sim,2.0200000000000014,0.15956496972956066,0.040486943643576995,0.4,0.0,0.325301585714701,0.1599591882186312,0.0,0.4126678074548391,0.28232123669751774,0.5,0.0,-1.8764391817017585,-1.6546734183690213,0,65000
cf1_sim,2.0400000000000014,0.16595767828901048,0.04381463857249912,0.4,0.0,0.3196354279724911,0.1663847464461063,0.0,0.4069392283312669,0.29051758026865265,0.5,0.0,-1.840757442374161,-1.8026140990958481,0,65000
cf1_sim,2.0600000000000014,0.172226931721661,0.04726840094068572,0.4,0.0,0.3134626716325263,0.17268811840933,0.0,0.4010478789421462,0.2985977206811961,0.5,0.0,-1.802323572846091,-1.9398454318077532,0,65000
cf1_sim,2.0800000000000014,0.1783633315036744,0.05084559853848174,0.4,0.0,0.3068199891006693,0.17885987988980104,0.0,0.3949961157486825,0.306558425986717,0.5,0.0,-1.76133981529541,-2.066938481724461,0,65000
cf1_sim,2.1000000000000014,0.18435817344894634,0.05454342452276548,0.4,0.0,0.299742097263597,0.18489129921418695,0.0,0.3887863593754639,0.31439651200923435,0.5,0.0,-1.7179976371020096,-2.184433939399513,0,65000
cf1_sim,2.1200000000000014,0.1902034106789836,0.05835891052992139,0.4,0.0,0.292261861501863,0.19077430035779563,0.0,0.38242109364224414,0.3221088436188456,0.5,0.0,-1.6724783051161678,-2.292843678046084,0,65000
cf1_sim,2.1400000000000015,0.19589161856638668,0.06228893909021208,0.4,0.0,0.2844103943701535,0.1965014280145346,0.0,0.3759028645704474,0.3296923359857367,0.5,0.0,-1.624953430419451,-2.3926522344548875,0,65000
cf1_sim,2.1600000000000015,0.20141596155051433,0.06633025538085838,0.4,0.0,0.2762171492063825,0.2020658145323147,0.0,0.36923427936479386,0.33714395581407264,0.5,0.0,-1.5755854850273936,-2.484318217167088,0,65000
cf1_sim,2.1800000000000015,0.20677016172888893,0.07047947835321472,0.4,0.0,0.26771000891873026,0.2074611486178173,0.0,0.3624180053704525,0.34446072255527577,0.5,0.0,-1.5245282919135963,-2.5682756453916533,0,65000
cf1_sim,2.2000000000000015,0.2119484691326445,0.0747331112676001,0.4,0.0,0.2589153701877782,0.21268164571926876,0.0,0.35545676900613854,0.35163970960020524,0.5,0.0,-1.4719274896687522,-2.644935221991206,0,65000
cf1_sim,2.2200000000000015,0.21694563359883476,0.07908755166760736,0.4,0.0,0.24985822330951318,0.2177220200003634,0.0,0.3483533546735826,0.3586780454497615,0.5,0.0,-1.4179209730449598,-2.714685543702793,0,65000
cf1_sim,2.2400000000000015,0.22175687815671732,0.08353910082406253,0.4,0.0,0.2405622278941288,0.22257745782275834,0.0,0.34111060364380663,0.36557291486344806,0.5,0.0,-1.3626393105756616,-2.777894251609857,0,65000
cf1_sim,2.2600000000000016,0.2263778738492218,0.08808397267723532,0.4,0.0,0.23104978462522432,0.22724359265863925,0.0,0.3337314129206539,0.3723215599854298,0.5,0.0,-1.3062061404042842,-2.834909124738468,0,65000
cf1_sim,2.2800000000000016,0.23080471591470506,0.09271830230441004,0.4,0.0,0.2213421032741627,0.23171648135873635,0.0,0.3262187340820258,0.37892128144763865,0.5,0.0,-1.2487385454001272,-2.8860591195145138,0,65000
cf1_sim,2.3000000000000016,0.2350339012578046,0.09743815393850731,0.4,0.0,0.21145926715497776,0.2359925817048633,0.0,0.31857557209928994,0.38536943944948476,0.5,0.0,-1.1903474085881625,-2.931655357688534,0,65000
cf1_sim,2.3200000000000016,0.2390623071417305,0.10223952856209866,0.4,0.0,0.20142029419629487,0.24006873117956715,0.0,0.31080498413533203,0.3916634548137418,0.5,0.0,-1.1311377498699335,-2.9719920652109635,0,65000
cf1_sim,2.3400000000000016,0.24288717103769503,0.10711837109987513,0.4,0.0,0.1912431947982275,0.24394212688882366,0.0,0.3029100783217312,0.3978008100181832,0.5,0.0,-1.0712090449656024,-3.007347464422549,0,65000
cf1_sim,2.3600000000000017,0.2465060715703773,0.11207057723141307,0.4,0.0,0.18094502663411377,0.2476103065768976,0.0,0.2948940125155489,0.4037790502025573,0.5,0.0,-1.0106555274623885,-3.037984621812156,0,65000
cf1_sim,2.3800000000000017,0.2499169105013622,0.11709199984492344,0.4,0.0,0.1705419465492456,0.25107113067551806,0.0,0.2867599930362281,0.4095957841504993,0.5,0.0,-0.9495664748118813,-3.0641522534869896,0,65000
cf1_sim,2.4000000000000017,0.2531178956953901,0.12217845515157154,0.4,0.0,0.16004925970139708,0.254322765332405,0.0,0.27851127338310844,0.4152486852459854,0.5,0.0,-0.8880264790779945,-3.0860854903981463,0,65000
cf1_sim,2.4200000000000017,0.2561075250170094,0.12732572847891008,0.4,0.0,0.14948146608096358,0.2573636663669275,0.0,0.27015115293406966,0.42073549240394836,0.5,0.0,-0.8261157031986281,-3.1040066052670126,0,65000
cf1_sim,2.4400000000000017,0.25888457110784663,0.13252957976097585,0.4,0.0,0.13885230454186046,0.260192564103288,0.0,0.2616829756258246,0.4260540109746816,0.5,0.0,-0.7639101234871423,-3.118125703065327,0,65000
cf1_sim,2.4600000000000017,0.26144806699720635,0.1377857487416581,0.4,0.0,0.12817479446798616,0.2628084490341136,0.0,0.253110128616389,0.4312021136216693,0.5,0.0,-0.7014817590646114,-3.128641376813343,0,65000
cf1_sim,2.4800000000000018,0.2637972925010866,0.1430899599070521,0.4,0.0,0.11746127519401206,0.26521055826969964,0.0,0.24443604093026355,0.43617774117249325,0.5,0.0,-0.6388988888804139,-3.135741330376318,0,65000
cf1_sim,2.5000000000000018,0.26593176136695673,0.1484379271616602,0.4,0.0,0.1067234432935078,0.26739836273040546,0.0,0.2356641820868698,0.44097890344247387,0.5,0.0,-0.5762262569467297,-3.1396029698593475,0,65000
cf1_sim,2.520000000000002,0.2678512091237954,0.15382535826249705,0.4,0.0,0.09597238784193209,0.2693715550418415,0.0,0.22679806071278846,0.44560368003071776,0.5,0.0,-0.5135252663822768,-3.140393965124105,0,65000
cf1_sim,2.540000000000002,0.26955558159893145,0.1592479590243876,0.4,0.0,0.08521862375680143,0.27113003809452774,0.0,0.21784122313835583,0.4500502210882526,0.5,0.0,-0.4508541628316485,-3.138272782878263,0,65000
cf1_sim,2.560000000000002,0.2710450240651791,0.16470143730902043,0.4,0.0,0.07447212331238168,0.27267391423164133,0.0,0.20879725197917878,0.45431674805794175,0.5,0.0,-0.3882682077991102,-3.13338919271895,0,65000
cf1_sim,2.580000000000002,0.27231987098360944,0.17018150680962676,0.4,0.0,0.06374234592151666,0.27400347503031747,0.0,0.1996697647031363,0.4584015543858836,0.5,0.0,-0.32581984240955303,-3.1258847474455314,0,65000
cf1_sim,2.600000000000002,0.2733806363090635,0.17568389064250123,0.4,0.0,0.0530382662727045,0.2751191916437228,0.0,0.1904624121834406,0.46230300620401027,0.5,0.0,-0.2635588420842813,-3.115893238894025,0,65000
cf1_sim,2.620000000000002,0.27422800432718836,0.18120432475595705,0.4,0.0,0.04236840090624376,0.27602170567279066,0.0,0.1811788772383365,0.4660195429836133,0.5,0.0,-0.20153246259564028,-3.10354113048546,0,65000
cf1_sim,2.640000000000002,0.2748628209933721,0.18673856116671897,0.4,0.0,0.03174083330918866,0.2767118205380965,0.0,0.17182287315802322,0.4695496781595339,0.5,0.0,-0.13978557794178822,-3.0889479676233713,0,65000
cf1_sim,2.660000000000002,0.2752860857454714,0.19228237103319623,0.4,0.0,0.02116323760496535,0.2771904933238628,0.0,0.1623981422193878,0.4728919997247696,0.5,0.0,-0.07836081046149004,-3.0722267670211374,0,65000
cf1_sim,2.680000000000002,0.27549894376366746,0.19783154757454666,0.4,0.0,0.010642900909800626,0.27745882706752073,0.0,0.15290845418914434,0.476045170795258,0.5,0.0,-0.01729865358821192,-3.053484385988086,0,65000
cf1_sim,2.700000000000002,0.27550267865215927,0.2033819088439391,0.4,0.0,0.00018674442459089453,0.2775180634696231,0.0,0.14335760481597742,0.47900793014461257,0.5,0.0,0.043362412376636475,-3.032821872653807,0,65000
cf1_sim,2.720000000000002,0.275298705518709,0.2089293003639432,0.4,0.0,-0.010198656672514553,0.27736957600020395,0.0,0.13374941431229337,0.4817790927085966,0.5,0.0,0.10358581111010319,-3.010334798063141,0,65000
cf1_sim,2.740000000000002,0.27488856442929427,0.2144695976315215,0.4,0.0,-0.020507054470735107,0.27701486337891634,0.0,0.12408772582618613,0.4843575500591327,0.5,0.0,0.16333676739014025,-2.9861135710294358,0,65000
cf1_sim,2.760000000000002,0.27427391421630537,0.21999870849967068,0.4,0.0,-0.030732510649443746,0.2764555434074579,0.0,0.11437640390422937,0.48674227084765975,0.5,0.0,0.22258221016742366,-2.9602437365910124,0,65000
cf1_sim,2.780000000000002,0.27345652661984604,0.2255125754423489,0.4,0.0,-0.04086937982296712,0.2756933471339108,0.0,0.10461933294570931,0.4889323012176582,0.5,0.0,0.2812906812757969,-2.932806258875111,0,65000
cf1_sim,2.800000000000002,0.2724382807427659,0.23100717770894266,0.4,0.0,-0.05091229385400692,0.2747301133296878,0.0,0.0948204156489168,0.49092676518617995,0.5,0.0,0.33943224948592293,-2.903877789134857,0,65000
cf1_sim,2.820000000000002,0.2712211578010677,0.23647853337415842,0.4,0.0,-0.06085614708490973,0.27356778326078746,0.0,0.08498357145012007,0.4927248649942302,0.5,0.0,0.3969784296211857,-2.873530919687932,0,65000
cf1_sim,2.840000000000002,0.2698072361522975,0.2419227012888789,0.4,0.0,-0.07069608243850839,0.27220839573602407,0.0,0.07511273495584249,0.49432588142586,0.5,0.0,0.45390210646873114,-2.8418344244504654,0,65000
cf1_sim,2.860000000000002,0.2681986865854449,0.24733578293719513,0.4,0.0,-0.08042747834263204,0.2706540824158112,0.0,0.06521185436907233,0.4957291740958433,0.5,0.0,0.5101774632316851,-2.808853486726267,0,65000
cf1_sim,2.880000000000002,0.266397767856752,0.2527139242045141,0.4,0.0,-0.0900459364346432,0.26890706336594905,0.0,0.05528488991003435,0.4969341817058225,0.5,0.0,0.5657799142810879,-2.77464991487962,0,65000
cf1_sim,2.900000000000002,0.2644068224566618,0.25805331706134793,0.4,0.0,-0.0995472700045108,0.26696964284169206,0.0,0.045335812232154396,0.49794042226882007,0.5,0.0,0.6206860419780074,-2.7392823464895426,0,65000
cf1_sim,2.920000000000002,0.2622282725939223,0.2633502011671111,0.4,0.0,-0.10892749313697614,0.2648442052881585,0.0,0.03536860083385101,0.4987474933020272,0.5,0.0,0.6748735373476237,-2.7028064415545194,0,65000
cf1_sim,2.940000000000002,0.25986461638361597,0.26860086539798894,0.4,0.0,-0.11818281051531665,0.26253321154389203,0.0,0.025387242466789146,0.4993550719877915,0.5,0.0,0.7283211443978646,-2.66527506528924,0,65000
cf1_sim,2.960000000000002,0.2573184242265946,0.27380164930269085,0.4,0.0,-0.12730960785106718,0.2600391952350951,0.0,0.015395729541232616,0.49976291530273953,0.5,0.0,0.781008607885457,-2.6267384610286055,0,65000
cf1_sim,2.980000000000002,0.2545923353684782,0.27894894448966545,0.4,0.0,-0.13630444290582264,0.25736475934872866,0.0,0.005398058529133252,0.49997086011498315,0.5,0.0,0.8329166243419848,-2.58724441372943,0,65000
cf1_sim,3.000000000000002,0.2516890546270197,0.28403919594913174,0.4,0.0,-0.14516403707292547,0.25451257297331537,0.0,-0.004601771634404612,0.49997882324937004,0.5,0.0,0.8840267961818906,-2.5468384045364036,0,65000
cf1_sim,3.0200000000000022,0.2486113492772509,0.28906890331306956,0.4,0.0,-0.15388526748843886,0.25148536819689227,0.0,-0.014599761150644852,0.49978680152075255,0.5,0.0,0.934321588723174,-2.505563756856396,0,65000
cf1_sim,3.0400000000000023,0.24536204608440434,0.29403462205611236,0.4,0.0,-0.16246515964232744,0.24828593715213912,0.0,-0.024591910957085718,0.499394871735262,0.5,0.0,0.9837842899599546,-2.4634617743635197,0,65000
cf1_sim,3.0600000000000023,0.24194402847516008,0.29893296464009755,0.4,0.0,-0.17090088046221372,0.2449171291992589,0.0,-0.03457422432703153,0.4988031906595868,0.5,0.0,1.0323989729341,-2.4205718713369975,0,65000
cf1_sim,3.0800000000000023,0.23836023383829097,0.30376060160485174,0.4,0.0,-0.17918973184345519,0.24138184823771058,0.0,-0.04454270846823003,0.4980119949582683,0.5,0.0,1.0801504605607137,-2.376931695714289,0,65000
cf1_sim,3.1000000000000023,0.23461365094627903,0.30851426260761955,0.4,0.0,-0.1873291446005966,0.2376830501383912,0.0,-0.054493376119936106,0.4970216010990379,0.5,0.0,1.1270242927695477,-2.3325772452233955,0,65000
cf1_sim,3.1200000000000023,0.23070731748994908,0.31319073741338627,0.4,0.0,-0.19531667281649834,0.23382374028833677,0.0,-0.06442224714776287,0.49583240522623423,0.5,0.0,1.1730066958312826,-2.2875429769405575,0,65000
cf1_sim,3.1400000000000023,0.22664431771861654,0.31778687683819545,0.4,0.0,-0.2031499885666272,0.2298069712404604,0.0,-0.07432535013568237,0.4944448830023506,0.5,0.0,1.218084553744199,-2.2418619106027458,0,65000
cf1_sim,3.1600000000000024,0.22242778017867407,0.3222995936474209,0.4,0.0,-0.21082687699712366,0.22563584046127197,0.0,-0.08419872397453905,0.49285958941777663,0.5,0.0,1.2622453815630006,-2.1955657259883186,0,65000
cf1_sim,3.1800000000000024,0.2180608755439474,0.32672586341081944,0.4,0.0,-0.21834523173633355,0.22131348816992885,0.0,-0.0940384194464406,0.4910771585688091,0.5,0.0,1.305477300557482,-2.1486848546639514,0,65000
cf1_sim,3.2000000000000024,0.21354681453153718,0.33106272531606645,0.4,0.0,-0.22570305062051174,0.21684309526235188,0.0,-0.10384050080439244,0.4890983034040222,0.5,0.0,1.3477690150944008,-2.1012485663814626,0,65000
cf1_sim,3.2200000000000024,0.2088888458972296,0.33530728294235657,0.4,0.0,-0.23289843171537775,0.21222788131450526,0.0,-0.1136010473465441,0.48692381543909746,0.5,0.0,1.3891097911412602,-2.0532850503943085,0,65000
cf1_sim,3.2400000000000024,0.2040902545049071,0.3394567049955423,0.4,0.0,-0.23992956961612627,0.20747110265928712,0.0,-0.12331615498441754,0.48455456444022804,0.5,0.0,1.4294894362958637,-2.004821491950393,0,65000
cf1_sim,3.2600000000000025,0.1991543594647196,0.3435082260061784,0.4,0.0,-0.24679475200937487,0.2025760505318052,0.0,-0.13298193780449072,0.48199149807622393,0.5,0.0,1.4688982812503255,-1.955884144205308,0,65000
cf1_sim,3.2800000000000025,0.19408451233509227,0.34745914699174096,0.4,0.0,-0.25349235648136675,0.1975460492781263,0.0,-0.14259452962251096,0.4792356415394569,0.5,0.0,1.507327162602877,-1.9064983957882289,0,65000
cf1_sim,3.3000000000000025,0.18888409538394144,0.35130683608419866,0.4,0.0,-0.2600208475575418,0.1923844546228837,0.0,-0.15215008552991724,0.4762880971357975,0.5,0.0,1.544767406935178,-1.8566888342413481,0,65000
cf1_sim,3.3200000000000025,0.18355651990475452,0.35504872912402685,0.4,0.0,-0.26637877395934556,0.18709465199140926,0.0,-0.1616447834317523,0.47315004384370707,0.5,0.0,1.5812108160770848,-1.8064793055429136,0,65000
cf1_sim,3.3400000000000025,0.1781052245834572,0.35868233022167334,0.4,0.0,-0.2725647660648652,0.18168005488232397,0.0,-0.1710748255754497,0.46982273684266224,0.5,0.0,1.6166496534847343,-1.755892969913751,0,65000
cf1_sim,3.3600000000000025,0.1725336739122459,0.3622052122874088,0.4,0.0,-0.2785775335605656,0.1761441032867744,0.0,-0.1804364400698842,0.4663075070111,0.5,0.0,1.6510766316616405,-1.7049523540972815,0,65000
cf1_sim,3.3800000000000026,0.1668453566468049,0.3656150175304237,0.4,0.0,-0.28441586327205,0.17049026215074364,0.0,-0.18972588239407787,0.46260576039408385,0.5,0.0,1.6844849005561109,-1.6536794002938575,0,65000
cf1_sim,3.4000000000000026,0.16104378430355712,0.36890945792796553,0.4,0.0,-0.290078617162388,0.16472201987709334,0.0,-0.1989394368949586,0.45871897764090463,0.5,0.0,1.71686803687165,-1.6020955119213203,0,65000
cf1_sim,3.4200000000000026,0.15513248969381424,0.37208631566524974,0.4,0.0,-0.29556473048714327,0.15884288686421053,0.0,-0.2080734182735718,0.4546487134128406,0.5,0.0,1.7482200342303673,-1.550221596365304,0,65000
cf1_sim,3.4400000000000026,0.1491150254918984,0.3751434435468165,0.4,0.0,-0.3008732100957927,0.1528563940783382,0.0,-0.21712417305915083,0.45039659576131336,0.5,0.0,1.7785352941324215,-1.4980781048748253,0,65000
cf1_sim,3.4600000000000026,0.14299496283450316,0.3780787653799538,0.4,0.0,-0.3060031328697612,0.14676609165686394,0.0,-0.22608808107045658,0.4459643254766895,0.5,0.0,1.8078086176575348,-1.4456850697510326,0,65000
cf1_sim,3.4800000000000026,0.1367758899487471,0.3808902763307543,0.4,0.0,-0.3109536442878036,0.14057554754002508,0.0,-0.23496155686380168,0.4413536754079867,0.5,0.0,1.836035197857394,-1.393062138969815,0,65000
cf1_sim,3.5000000000000027,0.1304614108065482,0.3835760432533276,0.4,0.0,-0.3157239571099456,0.1342883461286651,0.0,-0.24374105116718028,0.4365664897537579,0.5,0.0,1.8632106127904164,-1.340228608372006,0,65000
cf1_sim,3.5200000000000027,0.12405514380311508,0.38613420499264445,0.4,0.0,-0.3203133501716553,0.12790808696584124,0.0,-0.25242305229992934,0.4316046833244365,0.5,0.0,1.8893308191529015,-1.2872034515484447,0,65000
cf1_sim,4.639999999999989,0.0,0.0,0.4,0.0,0.0,0.0,0.0,0.4999000033332889,0.00999933334666654,0.5,90.0,-0.2291678394833671,11.456864147829297,-180,65000
cf1_sim,4.659999999999989,0.0007846430452319304,1.5694953620927805e-05,0.4,3.6000000000000005,0.03923215226159652,0.0007847476810463902,0.0,0.49960005333048896,0.01999466709331708,0.5,1.1459155902616476,0.22233335024920572,10.53970969078733,12,65000
cf1_sim,4.679999999999988,0.0022906479722577984,6.151716195215228e-05,0.4,3.3600000000000003,0.0753002463512934,0.0022911104165612237,0.0,0.4991002699676021,0.029982003239722298,0.5,1.7427628403258273,-0.06594618412036553,9.680789760556163,8,65000
cf1_sim,4.699999999999988,0.004458254015294569,0.00015070643832121026,0.4,3.2,0.10838030215183851,0.0044594638184528995,0.0,0.4984008531513097,0.03995734698458635,0.5,2.3561883704849746,-0.31557127554656267,8.867879721850995,4,65000
cf1_sim,4.719999999999987,0.007231038639677703,0.00029537664328224233,0.4,3.12,0.1386392312191567,0.007233510248051605,0.0,0.4975020826390129,0.04991670832341408,0.5,2.986702544670338,-0.5313976921134074,8.099736078094635,1,65000
cf1_sim,4.739999999999987,0.010555744557400605,0.0005065787727630676,0.4,3.1,0.1662352958861451,0.01056010647404126,0.0,0.4964043179269331,0.05985610364445969,0.5,3.634833475068643,-0.7204077212950792,7.374747231349733,-3,65000
cf1_sim,4.7599999999999865,0.014382115475461433,0.0007943607733608526,0.4,3.16,0.19131854590304137,0.014389100029889253,0.0,0.49510799810631856,0.06977155732211825,0.5,4.301127539626815,-0.883539310341712,6.691606843115126,-6,65000
cf1_sim,4.779999999999986,0.01866274014925024,0.0011678242502546532,0.4,3.2800000000000002,0.21403123368944035,0.018673173844690028,0.0,0.49361364168781346,0.07965910330712299,0.5,4.986149875188406,-1.026544540819553,6.048480922939167,-9,65000
cf1_sim,4.799999999999986,0.02335290433369503,0.0016351782250894889,0.4,3.4600000000000004,0.23450820922223953,0.023367698741741782,0.0,0.4919218463940607,0.08951478671291209,0.5,5.690484837344041,-1.152065807038156,5.443728945619744,-11,65000
cf1_sim,4.819999999999985,0.028410450244402544,0.002203790093461773,0.4,3.6800000000000006,0.2528772955353757,0.028430593418614203,0.0,0.4900332889206208,0.0993346653975306,0.5,6.414736416581948,-1.2641857854748164,4.87528834067929,-14,65000
cf1_sim,4.839999999999985,0.033795643159623925,0.0028802339242814663,0.4,3.960000000000001,0.26925964576106903,0.03382219154098468,0.0,0.48794872466530276,0.10911481154043465,0.5,7.159528598635533,-1.3629693416103053,4.341938459367012,-16,65000
cf1_sim,4.859999999999984,0.03947104481159004,0.0036703362362847445,0.4,4.28,0.283770082598306,0.039505115600163905,0.0,0.48566898742601483,0.11885131321356728,0.5,7.925505655024743,-1.4517083216699613,3.841627618509673,-18,65000
cf1_sim,4.879999999999984,0.04540139323263746,0.004579219380305548,0.4,4.6400000000000015,0.296517421052371,0.045444157201040176,0.0,0.4831949890672566,0.12854027594607753,0.5,8.71333234766044,-1.5316551983407931,3.3727681009045005,-20,65000
cf1_sim,4.8999999999999835,0.051553488737623096,0.005611342649569235,0.4,5.040000000000002,0.3076047752492818,0.05160616346318433,0.0,0.4805277191553855,0.13817782428205685,0.5,9.523694029011132,-1.6039344322943199,2.9338339249111973,-22,65000
cf1_sim,4.919999999999983,0.05789608573944118,0.00677054123423146,0.4,5.480000000000002,0.31712985009090416,0.05795992923311125,0.0,0.477668244562803,0.14776010333066977,0.5,10.357296616707059,-1.6695529263139148,2.52336066411488,-24,65000
cf1_sim,4.939999999999983,0.06439979010904573,0.008060063130635963,0.4,5.960000000000003,0.3251852184802274,0.06447609482022516,0.0,0.4746177090412204,0.15728328030805888,0.5,11.214866418568153,-1.72940976024812,2.139944900508893,-26,65000
cf1_sim,4.959999999999982,0.07103696180527966,0.009482604110292324,0.4,6.480000000000002,0.3318585848116962,0.07112704898281805,0.0,0.4713773327641731,0.1667435460704072,0.5,12.097149780888639,-1.7843052450567292,1.7822433668170101,-28,65000
cf1_sim,4.979999999999982,0.07778162251305022,0.01104034084836585,0.4,7.040000000000004,0.3372330353885283,0.0778868369036763,0.0,0.4679484118389674,0.176137116637545,0.5,13.004912529395897,-1.8349493336413198,1.4489718277824026,-30,65000
cf1_sim,4.999999999999981,0.08460936804100092,0.012734962306514061,0.4,7.640000000000002,0.3413872763975346,0.08473107290741057,0.0,0.4643323177882551,0.18546023470649137,0.5,13.938939168641344,-1.881969425355259,1.1389037449397137,-31,65000
cf1_sim,5.019999999999981,0.09149728524184132,0.014567699460185806,0.4,8.260000000000002,0.34439586004202055,0.0916368576835872,0.0,0.46053049700144255,0.1947091711543253,0.5,14.900031801707481,-1.9262144920005282,0.8501964406389215,-33,65000
cf1_sim,5.0399999999999805,0.09842387322993765,0.016539353456008512,0.4,8.920000000000002,0.3463293994048163,0.09858269979113535,0.0,0.4565444701561541,0.20388022652978513,0.5,15.889008728075568,-1.9676843725599178,0.5823775029635032,-35,65000
cf1_sim,5.05999999999998,0.10536896868166357,0.018650322280615653,0.4,9.620000000000001,0.3472547725862958,0.10554844123035703,0.0,0.4523758316099817,0.21296973253299986,0.5,16.906702673366407,-2.0068208789092328,0.3343862325063935,-36,65000
cf1_sim,5.07999999999998,0.11231367501439032,0.020900626018199767,0.4,10.340000000000002,0.34723531663633767,0.11251518687920573,0.0,0.4480262487627626,0.22197405348275995,0.5,17.953958600542034,-2.0440443146619383,0.10449882763229924,-38,65000
cf1_sim,5.099999999999979,0.11924029524988013,0.023289930770206652,0.4,11.100000000000001,0.34633101177449016,0.11946523760034435,0.0,0.4434974613896421,0.2308895877707415,0.5,19.03163104817585,-2.079501257870506,-0.10755772392056383,-40,65000
cf1_sim,5.119999999999979,0.12613226837726166,0.02581757130690408,0.4,11.900000000000002,0.3445986563690767,0.1263820268348713,0.0,0.4387912809451863,0.23971276930210156,0.5,20.140580937740694,-2.113492624308659,-0.30269695542419345,-41,65000
cf1_sim,5.139999999999978,0.1329741090397329,0.028482572517054754,0.4,12.720000000000002,0.3420920331235623,0.13325006050753369,0.0,0.43390958983882494,0.2484400689218684,0.5,21.28167178875603,-2.1461066055104765,-0.48253708044008714,-43,65000
cf1_sim,5.159999999999978,0.13975135037767564,0.0312836697185898,0.4,13.580000000000002,0.3388620668971379,0.14005486007675222,0.0,0.428854340681912,0.2570679958265566,0.5,22.455765278360072,-2.177613206291597,-0.6471774356298187,-44,65000
cf1_sim,5.1799999999999775,0.14645048986899817,0.03421932789000744,0.4,14.460000000000003,0.334956974566127,0.14678290857088194,0.0,0.423627555506708,0.26559309896044175,0.5,23.66371608077745,-2.207929245967742,-0.7981734748911673,-46,65000
cf1_sim,5.199999999999977,0.15305893801526665,0.03728775987920437,0.4,15.380000000000004,0.3304224073134248,0.15342159945984682,0.0,0.4182313249575934,0.27401196839593683,0.5,24.906365922651172,-2.2373993139405663,-0.9355210727864972,-48,65000
cf1_sim,5.219999999999977,0.15956496972956066,0.040486943643576995,0.4,16.340000000000003,0.325301585714701,0.1599591882186312,0.0,0.4126678074548391,0.28232123669751774,0.5,26.18453679278342,-2.26616852119488,-1.059928468165659,-49,65000
cf1_sim,5.239999999999976,0.16595767828901048,0.04381463857249912,0.4,17.320000000000004,0.3196354279724911,0.1663847464461063,0.0,0.4069392283312669,0.29051758026865265,0.5,27.49902325003648,-2.2939447365723002,-1.172869599515327,-51,65000
cf1_sim,5.259999999999976,0.172226931721661,0.04726840094068572,0.4,18.340000000000003,0.3134626716325263,0.17268811840933,0.0,0.4010478789421462,0.2985977206811961,0.5,28.850583781593887,-2.321158877088291,-1.2742025066120093,-53,65000
cf1_sim,5.279999999999975,0.1783633315036744,0.05084559853848174,0.4,19.400000000000002,0.3068199891006693,0.17885987988980104,0.0,0.3949961157486825,0.306558425986717,0.5,30.239931176131467,-2.347892247755454,-1.3645345818659695,-54,65000
cf1_sim,5.299999999999975,0.18435817344894634,0.05454342452276548,0.4,20.48,0.299742097263597,0.18489129921418695,0.0,0.3887863593754639,0.31439651200923435,0.5,31.667721893372644,-2.3737011469372287,-1.4452717328300058,-56,65000
cf1_sim,5.3199999999999745,0.1902034106789836,0.05835891052992139,0.4,21.600000000000005,0.292261861501863,0.19077430035779563,0.0,0.38242109364224414,0.3221088436188456,0.5,33.13454443365645,-2.399083054611856,-1.5161518097190636,-58,65000
cf1_sim,5.339999999999974,0.19589161856638668,0.06228893909021208,0.4,22.760000000000005,0.2844103943701535,0.1965014280145346,0.0,0.3759028645704474,0.3296923359857367,0.5,34.640906739107535,-2.424073875692616,-1.577695855118625,-59,65000
cf1_sim,5.359999999999974,0.20141596155051433,0.06633025538085838,0.4,23.940000000000005,0.2762171492063825,0.2020658145323147,0.0,0.36923427936479386,0.33714395581407264,0.5,36.187222692193885,-2.448125312581162,-1.631253836371474,-61,65000
cf1_sim,5.379999999999973,0.20677016172888893,0.07047947835321472,0.4,25.160000000000004,0.26771000891873026,0.2074611486178173,0.0,0.3624180053704525,0.34446072255527577,0.5,37.77379781808435,-2.4717832390708168,-1.6764587446774446,-63,65000
cf1_sim,5.399999999999973,0.2119484691326445,0.0747331112676001,0.4,26.420000000000005,0.2589153701877782,0.21268164571926876,0.0,0.35545676900613854,0.35163970960020524,0.5,39.400814344124456,-2.4950523754698373,-1.713758007139441,-65,65000
cf1_sim,5.419999999999972,0.21694563359883476,0.07908755166760736,0.4,27.720000000000002,0.24985822330951318,0.2177220200003634,0.0,0.3483533546735826,0.3586780454497615,0.5,41.06831582233409,-2.5179269496290253,-1.74357717446678,-67,65000
cf1_sim,5.439999999999972,0.22175687815671732,0.08353910082406253,0.4,29.060000000000006,0.2405622278941288,0.22257745782275834,0.0,0.34111060364380663,0.36557291486344806,0.5,42.77619157791623,-2.540392131664022,-1.7663210866749932,-69,65000
cf1_sim,5.4599999999999715,0.2263778738492218,0.08808397267723532,0.4,30.440000000000005,0.23104978462522432,0.22724359265863925,0.0,0.3337314129206539,0.3723215599854298,0.5,44.524161306499025,-2.562425343060306,-1.7823749852367092,-70,65000
cf1_sim,5.479999999999971,0.23080471591470506,0.09271830230441004,0.4,31.840000000000007,0.2213421032741627,0.23171648135873635,0.0,0.3262187340820258,0.37892128144763865,0.5,46.31176020259919,-2.583371729149685,-1.793007447037262,-72,65000
cf1_sim,5.499999999999971,0.2350339012578046,0.09743815393850731,0.4,33.28,0.21145926715497776,0.2359925817048633,0.0,0.31857557209928994,0.38536943944948476,0.5,48.13832505819537,-2.60381946242091,-1.79768025424838,-74,65000
cf1_sim,5.51999999999997,0.2390623071417305,0.10223952856209866,0.4,34.76,0.20142029419629487,0.24006873117956715,0.0,0.31080498413533203,0.3916634548137418,0.5,50.002981819191,-2.623735351907722,-1.7967254236547665,-76,65000
cf1_sim,5.53999999999997,0.24288717103769503,0.10711837109987513,0.4,36.28,0.1912431947982275,0.24394212688882366,0.0,0.3029100783217312,0.3978008100181832,0.5,51.904635124185525,-2.643082170571935,-1.7904592230457532,-78,65000
cf1_sim,5.559999999999969,0.2465060715703773,0.11207057723141307,0.4,37.839999999999996,0.18094502663411377,0.2476103065768976,0.0,0.2948940125155489,0.4037790502025573,0.5,53.84196036926752,-2.6618194870353005,-1.7791830080114175,-80,65000
cf1_sim,5.579999999999969,0.2499169105013622,0.11709199984492344,0.4,39.440000000000005,0.1705419465492456,0.25107113067551806,0.0,0.2867599930362281,0.4095957841504993,0.5,55.81339883943781,-2.6799044153673224,-1.763184008301683,-82,65000
cf1_sim,5.599999999999969,0.2531178956953901,0.12217845515157154,0.4,41.08000000000001,0.16004925970139708,0.254322765332405,0.0,0.27851127338310844,0.4152486852459854,0.5,57.81715641723241,-2.6972922885140473,-1.742736064902624,-84,65000
cf1_sim,5.619999999999968,0.2561075250170094,0.12732572847891008,0.4,42.760000000000005,0.14948146608096358,0.2573636663669275,0.0,0.27015115293406966,0.42073549240394836,0.5,59.85120631871857,-2.7139372604600718,-1.7181003192186102,-85,65000
cf1_sim,5.639999999999968,0.25888457110784663,0.13252957976097585,0.4,44.46000000000001,0.13885230454186046,0.260192564103288,0.0,0.2616829756258246,0.4260540109746816,0.5,61.913296214568156,-2.7292029196851955,-1.6904786304667037,-87,65000
cf1_sim,5.659999999999967,0.26144806699720635,0.1377857487416581,0.4,46.20000000000001,0.12817479446798616,0.2628084490341136,0.0,0.253110128616389,0.4312021136216693,0.5,64.00095996993413,-2.7436547248979486,-1.659166138020552,-89,65000
cf1_sim,5.679999999999967,0.2637972925010866,0.1430899599070521,0.4,47.98000000000001,0.11746127519401206,0.26521055826969964,0.0,0.24443604093026355,0.43617774117249325,0.5,66.1115340846266,-2.7572498940087806,-1.624388655227386,-91,65000
cf1_sim,5.699999999999966,0.26593176136695673,0.1484379271616602,0.4,49.80000000000001,0.1067234432935078,0.26739836273040546,0.0,0.2356641820868698,0.44097890344247387,0.5,68.24217874075077,-2.769945947282762,-1.5863615466457452,-92,65000
cf1_sim,5.719999999999966,0.2678512091237954,0.15382535826249705,0.4,51.640000000000015,0.09597238784193209,0.2693715550418415,0.0,0.22679806071278846,0.44560368003071776,0.5,70.38990317742751,-2.7811614547859977,-1.546261109196477,-94,65000
cf1_sim,5.739999999999966,0.26955558159893145,0.1592479590243876,0.4,53.52000000000002,0.08521862375680143,0.27113003809452774,0.0,0.21784122313835583,0.4500502210882526,0.5,72.55159492263607,-2.791425364163939,-1.5033196507061728,-95,65000
cf1_sim,5.759999999999965,0.2710450240651791,0.16470143730902043,0.4,55.420000000000016,0.07447212331238168,0.27267391423164133,0.0,0.20879725197917878,0.45431674805794175,0.5,74.72405223317432,-2.8001916275872554,-1.4587004089345021,-97,65000
cf1_sim,5.779999999999965,0.27231987098360944,0.17018150680962676,0.4,57.36000000000002,0.06374234592151665,0.27400347503031747,0.0,0.1996697647031363,0.4584015543858836,0.5,76.90401893809006,-2.8079665063481727,-1.4116083462657874,-98,65000
cf1_sim,5.799999999999964,0.2733806363090635,0.17568389064250123,0.4,59.320000000000014,0.053038266272704485,0.2751191916437228,0.0,0.1904624121834406,0.46230300620401027,0.5,79.0882207605402,-2.814241995462289,-1.363193284315446,-99,65000
cf1_sim,5.819999999999964,0.27422800432718836,0.18120432475595705,0.4,61.300000000000004,0.04236840090624375,0.27602170567279066,0.0,0.1811788772383365,0.4660195429836133,0.5,81.27340211742575,-2.8190398205438436,-1.313619949712611,-100,65000
cf1_sim,5.839999999999963,0.2748628209933721,0.18673856116671897,0.4,63.30000000000001,0.03174083330918864,0.2767118205380965,0.0,0.17182287315802322,0.4695496781595339,0.5,83.45636237147906,-2.8223860502098916,-1.2630425717550762,-101,65000
cf1_sim,5.859999999999963,0.2752860857454714,0.19228237103319623,0.4,65.32000000000001,0.021163237604965336,0.2771904933238628,0.0,0.1623981422193878,0.4728919997247696,0.5,85.63399053877531,-2.824310645672605,-1.211605175524487,-102,65000
cf1_sim,5.879999999999963,0.27549894376366746,0.19783154757454666,0.4,67.36000000000001,0.010642900909800614,0.27745882706752073,0.0,0.15290845418914434,0.476045170795258,0.5,87.80329753357609,-2.824847019939675,-1.1594418712582952,-102,65000
cf1_sim,5.899999999999962,0.27550267865215927,0.2033819088439391,0.4,69.40000000000002,0.00018674442459088413,0.27751806346962316,0.0,0.14335760481597742,0.47900793014461257,0.5,89.96144515557681,-2.8236451314459248,-1.107662846590146,-103,65000
cf1_sim,5.919999999999962,0.275298705518709,0.2089293003639432,0.4,71.46000000000002,-0.01019865667251456,0.277369576000204,0.0,0.13374941431229337,0.4817790927085966,0.5,92.10577118228399,-2.82116732109847,-1.0553959271568512,-103,65000
cf1_sim,5.939999999999961,0.27488856442929427,0.2144695976315215,0.4,73.52000000000002,-0.020507054470735114,0.2770148633789164,0.0,0.12408772582618613,0.4843575500591327,0.5,94.23381010943405,-2.8171050134090603,-1.0037292972177165,-104,65000
cf1_sim,5.959999999999961,0.27427391421630537,0.21999870849967068,0.4,75.60000000000002,-0.030732510649443753,0.276455543407458,0.0,0.11437640390422937,0.48674227084765975,0.5,96.34330927220144,-2.811888291367113,-0.9517720615682473,-104,65000
cf1_sim,5.9799999999999605,0.27345652661984604,0.2255125754423489,0.4,77.68000000000002,-0.040869379822967136,0.27569334713391086,0.0,0.10461933294570931,0.4889323012176582,0.5,98.43224026691145,-2.805247719142038,-0.9005899364960838,-104,65000
cf1_sim,5.99999999999996,0.2724382807427659,0.23100717770894266,0.4,79.76000000000002,-0.05091229385400693,0.27473011332968783,0.0,0.0948204156489168,0.49092676518617995,0.5,100.4988057660421,-2.7972825873696827,-0.8502532520491691,-104,65000
cf1_sim,6.01999999999996,0.2712211578010677,0.23647853337415842,0.4,81.84000000000002,-0.060856147084909745,0.2735677832607875,0.0,0.08498357145012007,0.4927248649942302,0.5,102.54144196974667,-2.7880917517283397,-0.8008222049440644,-104,65000
cf1_sim,6.039999999999959,0.2698072361522975,0.2419227012888789,0.4,83.92000000000002,-0.0706960824385084,0.2722083957360241,0.0,0.07511273495584249,0.49432588142586,0.5,104.55881705901085,-2.7777731013660683,-0.7523474035148888,-103,65000
cf1_sim,6.059999999999959,0.2681986865854449,0.24733578293719513,0.4,85.98000000000002,-0.08042747834263206,0.27065408241581124,0.0,0.06521185436907233,0.4957291740958433,0.5,106.54982610580649,-2.7661768652617233,-0.7058360319328063,-103,65000
cf1_sim,6.079999999999958,0.266397767856752,0.2527139242045141,0.4,88.04000000000003,-0.09004593643464322,0.26890706336594905,0.0,0.05528488991003435,0.4969341817058225,0.5,108.51358295383405,-2.7536759189705595,-0.6603468746250303,-102,65000
cf1_sim,6.099999999999958,0.2644068224566618,0.25805331706134793,0.4,90.08000000000003,-0.09954727000451082,0.26696964284169206,0.0,0.045335812232154396,0.49794042226882007,0.5,110.4494096115023,-2.740146317226692,-0.6168606785041275,-102,65000
cf1_sim,6.1199999999999575,0.2622282725939223,0.2633502011671111,0.4,92.12000000000003,-0.10892749313697615,0.2648442052881585,0.0,0.03536860083385101,0.4987474933020272,0.5,112.35682370020335,-2.725921768497292,-0.5744279449620256,-101,65000
cf1_sim,6.139999999999957,0.25986461638361597,0.26860086539798894,0.4,94.14000000000003,-0.11818281051531666,0.26253321154389203,0.0,0.025387242466789146,0.4993550719877915,0.5,114.23552448028649,-2.7109006143410808,-0.5340044215123395,-100,65000
cf1_sim,6.159999999999957,0.2573184242265946,0.27380164930269085,0.4,96.14000000000003,-0.12730960785106718,0.2600391952350951,0.0,0.015395729541232616,0.49976291530273953,0.5,116.08537793949094,-2.6952055103861716,-0.4955770828257928,-100,65000
cf1_sim,6.179999999999956,0.2545923353684782,0.27894894448966545,0.4,98.14000000000003,-0.13630444290582264,0.25736475934872866,0.0,0.005398058529133252,0.49997086011498315,0.5,117.90640137904282,-2.679112686861158,-0.45819097609945625,-99,65000
cf1_sim,6.199999999999956,0.2516890546270197,0.28403919594913174,0.4,100.12000000000003,-0.14516403707292547,0.25451257297331537,0.0,-0.004601771634404612,0.49997882324937004,0.5,119.6987478758647,-2.6625471289372697,-0.42276710063232414,-98,65000
cf1_sim,6.219999999999955,0.2486113492772509,0.28906890331306956,0.4,102.08000000000003,-0.15388526748843886,0.25148536819689227,0.0,-0.014599761150644852,0.49978680152075255,0.5,121.46269093948234,-2.6456136674353488,-0.38927483030092314,-97,65000
cf1_sim,6.239999999999955,0.24536204608440434,0.29403462205611236,0.4,104.02000000000002,-0.16246515964232744,0.24828593715213912,0.0,-0.024591910957085718,0.499394871735262,0.5,123.19860962258849,-2.628410405410488,-0.35767888343057924,-96,65000
cf1_sim,6.2599999999999545,0.24194402847516008,0.29893296464009755,0.4,105.94000000000003,-0.17090088046221372,0.2449171291992589,0.0,-0.03457422432703153,0.4988031906595868,0.5,124.9069742873951,-2.611028758984501,-0.32793999966325493,-95,65000
cf1_sim,6.279999999999954,0.23836023383829097,0.30376060160485174,0.4,107.84000000000002,-0.17918973184345519,0.24138184823771058,0.0,-0.04454270846823003,0.4980119949582683,0.5,126.5883331776828,-2.5935535388761686,-0.30001557380180904,-94,65000
cf1_sim,6.299999999999954,0.23461365094627903,0.30851426260761955,0.4,109.72000000000003,-0.1873291446005966,0.2376830501383912,0.0,-0.054493376119936106,0.4970216010990379,0.5,128.24329989996608,-2.5760630672975795,-0.2738602467172786,-93,65000
cf1_sim,6.319999999999953,0.23070731748994908,0.31319073741338627,0.4,111.58000000000003,-0.19531667281649834,0.23382374028833677,0.0,-0.06442224714776287,0.49583240522623423,0.5,129.8725418770117,-2.5586293252423564,-0.24942645373924105,-91,65000
cf1_sim,6.339999999999953,0.22664431771861654,0.31778687683819545,0.4,113.40000000000002,-0.2031499885666272,0.2298069712404604,0.0,-0.07432535013568237,0.4944448830023506,0.5,131.47676980318704,-2.541238849734714,-0.22755200478260582,-90,65000
cf1_sim,6.359999999999952,0.22242778017867407,0.3222995936474209,0.4,115.20000000000002,-0.21082687699712366,0.22563584046127197,0.0,-0.08419872397453905,0.49285958941777663,0.5,133.056728103571,-2.524045208684606,-0.2072873486926355,-89,65000
cf1_sim,6.379999999999952,0.2180608755439474,0.32672586341081944,0.4,116.98,-0.21834523173633355,0.22131348816992885,0.0,-0.0940384194464406,0.4910771585688091,0.5,134.61318637698548,-2.5071008414124436,-0.18858143578336067,-88,65000
cf1_sim,6.3999999999999515,0.21354681453153718,0.33106272531606645,0.4,118.74000000000002,-0.22570305062051174,0.21684309526235188,0.0,-0.10384050080439244,0.4890983034040222,0.5,136.1469317865156,-2.4904527238760394,-0.17138286351644078,-87,65000
cf1_sim,6.419999999999951,0.2088888458972296,0.33530728294235657,0.4,120.48000000000002,-0.23289843171537775,0.21222788131450526,0.0,-0.1136010473465441,0.48692381543909746,0.5,137.6587623490277,-2.47414260553631,-0.1556402180905461,-86,65000
cf1_sim,6.439999999999951,0.2040902545049071,0.3394567049955423,0.4,122.20000000000002,-0.23992956961612627,0.20747110265928712,0.0,-0.12331615498441754,0.48455456444022804,0.5,139.14948106698745,-2.4582072532898764,-0.14130238122801253,-85,65000
cf1_sim,6.45999999999995,0.1991543594647196,0.3435082260061784,0.4,123.90000000000003,-0.24679475200937487,0.2025760505318052,0.0,-0.13298193780449072,0.48199149807622393,0.5,140.61989084087395,-2.442678699869688,-0.12831880383180194,-84,65000
cf1_sim,6.47999999999995,0.19408451233509227,0.34745914699174096,0.4,125.58000000000003,-0.25349235648136675,0.1975460492781263,0.0,-0.14259452962251096,0.4792356415394569,0.5,142.0707900980684,-2.4275844943883147,-0.116639748237742,-82,65000
cf1_sim,6.499999999999949,0.18888409538394144,0.35130683608419866,0.4,127.22000000000003,-0.2600208475575418,0.1923844546228837,0.0,-0.15215008552991724,0.4762880971357975,0.5,143.50296907372015,-2.4129107293994356,-0.10705877205915601,-81,65000
cf1_sim,6.519999999999949,0.18355651990475452,0.35504872912402685,0.4,128.84000000000003,-0.26637877395934556,0.18709465199140926,0.0,-0.1616447834317523,0.47315004384370707,0.5,144.917206680283,-2.3987201031307124,-0.09867620316242273,-80,65000
cf1_sim,6.5399999999999485,0.1781052245834572,0.35868233022167334,0.4,130.44000000000003,-0.2725647660648652,0.18168005488232397,0.0,-0.1710748255754497,0.46982273684266224,0.5,146.31426790475356,-2.3850269968519378,-0.09144642252310171,-79,65000
cf1_sim,6.559999999999948,0.1725336739122459,0.3622052122874088,0.4,132.02000000000004,-0.2785775335605656,0.17614410328677438,0.0,-0.1804364400698842,0.4663075070111,0.5,147.6949016757989,-2.37184235598035,-0.08532532882204258,-78,65000
cf1_sim,6.579999999999948,0.1668453566468049,0.3656150175304237,0.4,133.58000000000004,-0.28441586327205,0.17049026215074362,0.0,-0.18972588239407787,0.46260576039408385,0.5,149.05983914664534,-2.3591739221414505,-0.0802704444083007,-77,65000
cf1_sim,6.599999999999947,0.16104378430355712,0.36890945792796553,0.4,135.12000000000003,-0.290078617162388,0.1647220198770933,0.0,-0.1989394368949586,0.45871897764090463,0.5,150.40979234359384,-2.3470264581275195,-0.07624100077605954,-76,65000
cf1_sim,6.619999999999947,0.15513248969381424,0.37208631566524974,0.4,136.64000000000004,-0.29556473048714327,0.1588428868642105,0.0,-0.2080734182735718,0.4546487134128406,0.5,151.74545313415578,-2.3354019649646602,-0.07319800517104479,-76,65000
cf1_sim,6.639999999999946,0.1491150254918984,0.3751434435468165,0.4,138.16000000000005,-0.3008732100957927,0.15285639407833818,0.0,-0.21712417305915083,0.45039659576131336,0.5,153.067492472929,-2.3243245689231906,-0.07029295185200907,-75,65000
cf1_sim,6.659999999999946,0.14299496283450316,0.3780787653799538,0.4,139.66000000000005,-0.3060031328697612,0.1467660916568639,0.0,-0.22608808107045658,0.4459643254766895,0.5,154.37655988736333,-2.3137655813461953,-0.06830924941469628,-74,65000
cf1_sim,6.6799999999999455,0.1367758899487471,0.3808902763307543,0.4,141.14000000000004,-0.3109536442878036,0.14057554754002505,0.0,-0.23496155686380168,0.4413536754079867,0.5,155.67328316942329,-2.303720858342591,-0.06721292762310012,-73,65000
cf1_sim,6.699999999999945,0.1304614108065482,0.3835760432533276,0.4,142.60000000000005,-0.3157239571099456,0.13428834612866508,0.0,-0.24374105116718028,0.4365664897537579,0.5,156.95826824279686,-2.294184228368581,-0.06697190917435755,-72,65000
cf1_sim,6.719999999999945,0.12405514380311508,0.38613420499264445,0.4,144.04000000000005,-0.3203133501716553,0.12790808696584122,0.0,-0.25242305229992934,0.4316046833244365,0.5,158.23209917869636,-2.285147666074194,-0.06755600724484015,-71,65000
cf1_sim,6.739999999999944,0.11756072045750807,0.3885629726614493,0.4,145.46000000000004,-0.3247211672803507,0.12143838344024104,0.0,-0.26100408757735427,0.42647024077643775,0.5,159.49533833643025,-2.276601456192314,-0.06893691218559365,-70,65000
cf1_sim,6.759999999999944,0.11098178413337277,0.3908606298916396,0.4,146.86000000000004,-0.3289468162067648,0.11488286150951521,0.0,-0.2694807246997563,0.42116521581832245,0.5,160.74852660779416,-2.268534347448565,-0.07108816853732418,-69,65000
cf1_sim,6.779999999999943,0.10432198877809114,0.3930255330604751,0.4,148.24000000000004,-0.33298976776408185,0.10824515844177453,0.0,-0.2778495731253069,0.4156917303893412,0.5,161.99218374693257,-2.2609336965435283,-0.07398514346216405,-69,65000
cf1_sim,6.799999999999943,0.09758499767872843,0.3950561114919478,0.4,149.62000000000003,-0.3368495549681354,0.10152892157363347,0.0,-0.28610728542621894,0.4100519738106867,0.5,163.22680876967493,-2.253812554264834,-0.07681826331709869,-68,65000
cf1_sim,6.8199999999999426,0.09077448223328217,0.396950867633614,0.4,150.98000000000005,-0.3405257722723124,0.09473780708330934,0.0,-0.29425055862767346,0.40424820190979466,0.5,164.4528804084602,-2.247131678252563,-0.08035781527108105,-67,65000
cf1_sim,6.839999999999942,0.0838941207358592,0.3987083772091621,0.4,152.32000000000005,-0.3440180748711491,0.08787547877740588,0.0,-0.3022761355289654,0.3982827361180429,0.5,165.6708576108446,-2.2408757325631283,-0.08458393083126102,-67,65000
cf1_sim,6.859999999999942,0.0769475971745207,0.40032728934696454,0.4,153.66000000000005,-0.3473261780669248,0.08094560689012403,0.0,-0.3101808060063404,0.3921579625422095,0.5,166.88118007126434,-2.2350595415271592,-0.08869821711741155,-66,65000
cf1_sim,6.879999999999941,0.06993860004064337,0.40180632668483957,0.4,154.98000000000008,-0.3504498566938665,0.07395186689374993,0.0,-0.31796140829700187,0.3858763310100624,0.5,168.0842687872046,-2.2296384974985513,-0.09346802707146926,-66,65000
cf1_sim,6.899999999999941,0.06287082114874597,0.403144285451227,0.4,156.30000000000007,-0.3533889445948703,0.06689793831937192,0.0,-0.32561483026377347,0.37944035409046045,0.5,169.28052663223187,-2.2246297909718193,-0.0981013408578724,-65,65000
cf1_sim,6.91999999999994,0.05574795446582758,0.4043400355229645,0.4,157.60000000000008,-0.3561433341459194,0.05978750358687465,0.0,-0.3331380106399127,0.3728526060883596,0.5,170.47033893949498,-2.2199851147881935,-0.10336395814723268,-64,65000
cf1_sim,6.93999999999994,0.04857369494935466,0.4053925204598315,0.4,158.88000000000002,-0.35871297582364614,0.05262424684334893,0.0,-0.3405279402535769,0.3661157220151251,0.5,171.65407409030323,-2.2156866356180744,-0.1092429500428354,-64,65000
cf1_sim,6.95999999999994,0.04135173739312001,0.40630075751601435,0.4,160.16000000000005,-0.36109787781173247,0.045411852809142346,0.0,-0.34778166323145165,0.3592323965345625,0.5,172.83208410326668,-2.2117562297585085,-0.11495472684722056,-63,65000
cf1_sim,6.979999999999939,0.03408577528027833,0.40706383762863146,0.4,161.42000000000004,-0.3632981056420841,0.03815400563085651,0.0,-0.35489627818106084,0.35220538288508746,0.5,174.00470522024574,-2.2081394360886133,-0.12126363343355362,-63,65000
cf1_sim,6.999999999999939,0.02677949964293954,0.4076809253834449,0.4,162.68000000000004,-0.36531378186693925,0.030854387740673558,0.0,-0.3618689393512849,0.3450374917784676,0.5,175.17225848601697,-2.2048621683063225,-0.12739073173918017,-62,65000
cf1_sim,7.019999999999938,0.019436597927773767,0.40815125895787424,0.4,163.92000000000004,-0.3671450857582886,0.02351667872146688,0.0,-0.36869685777062333,0.33773159027557487,0.5,176.33505031913475,-2.2018656969051227,-0.1340996562721482,-62,65000
cf1_sim,7.039999999999938,0.012060752867150002,0.4084741500414186,0.4,165.16000000000005,-0.3687922530311883,0.0161445541772193,0.0,-0.375377302362746,0.3302906006395997,0.5,177.4933730719581,-2.1991804170990443,-0.14061549928310185,-62,65000
cf1_sim,7.059999999999937,0.004655641355395145,0.4086489837335854,0.4,166.40000000000006,-0.37025557558774286,0.008741684608336377,0.0,-0.3819076010388876,0.3227174991671847,0.5,178.64750557823592,-2.196794613100168,-0.14693463482960747,-61,65000
cf1_sim,7.079999999999937,-0.0027750666701792572,0.40867521841941545,0.4,167.62000000000006,-0.3715354012787201,0.0013117342915030094,0.0,-0.3882851417666471,0.31501531499794544,0.5,179.7977136870043,-2.1946431132930093,-0.15381999138814065,-61,65000
cf1_sim,7.099999999999937,-0.010227709343777995,0.40855238562269125,0.4,168.84000000000006,-0.3726321336799369,-0.006141639836211113,0.0,-0.3945073736147661,0.30718712890285516,0.5,-179.05574921814176,-2.1927635900643545,-0.16050148867190847,-61,65000
cf1_sim,7.119999999999936,-0.01769863398139245,0.4082800898369065,0.4,170.06000000000006,-0.3735462318807226,-0.013614789289238,0.0,-0.4005718077734674,0.29923607205197755,0.5,-177.91264171508004,-2.1911449082903167,-0.16697713137680634,-60,65000
cf1_sim,7.139999999999936,-0.025184198187030958,0.40785800833407493,0.4,171.26000000000005,-0.37427821028192554,-0.021104075141579828,0.0,-0.40647601854994553,0.2911653247620402,0.5,-176.77273385495135,-2.1897154827921996,-0.17400968928205443,-60,65000
cf1_sim,7.159999999999935,-0.03268077095505259,0.4072858909514509,0.4,172.46000000000004,-0.37482863840108155,-0.028605869131201927,0.0,-0.41221764433861163,0.2829781152243507,0.5,-175.63580668997847,-2.188520617150053,-0.18083277147597715,-60,65000
cf1_sim,7.179999999999935,-0.04018473376870272,0.40656355985623394,0.4,173.66000000000003,-0.3751981406825064,-0.036116554760848026,0.0,-0.41779438856570433,0.27467771821356257,0.5,-174.50165181743014,-2.1875499069252284,-0.187445764872877,-59,65000
cf1_sim,7.1999999999999345,-0.04769248169490696,0.40569090928832724,0.4,174.84000000000006,-0.375387396310212,-0.04363252839533352,0.0,-0.42320402060788825,0.2662674537778098,0.5,-173.37007093971476,-2.1867253427715734,-0.19461171133319244,-59,65000
cf1_sim,7.219999999999934,-0.05520042447534051,0.4046679052812206,0.4,176.02000000000004,-0.3753971390216773,-0.05115020035533316,0.0,-0.4284443766844741,0.2577506859107313,0.5,-172.24087544048533,-2.1861001273553793,-0.20156691060121376,-59,65000
cf1_sim,7.239999999999934,-0.06270498761375308,0.40349458536106775,0.4,177.20000000000005,-0.3752281569206289,-0.058665996007642614,0.0,-0.43351336072290164,0.2491308212059185,0.5,-171.11388597654826,-2.1856646847555363,-0.20831189599790326,-58,65000
cf1_sim,7.259999999999933,-0.07020261345949516,0.40217105822403054,0.4,178.36000000000004,-0.37488129228710393,-0.06617635685185894,0.0,-0.43840894519714113,0.24041130749432335,0.5,-169.9889320853,-2.1853345270233224,-0.21561030842799825,-58,65000
cf1_sim,7.279999999999933,-0.0776897622871588,0.4006975033919627,0.4,179.52000000000004,-0.37435744138318244,-0.07367774160339247,0.0,-0.44312917193867646,0.23159563246517179,0.5,-168.86585180736006,-2.1851709633233005,-0.222700278169905,-58,65000
cf1_sim,7.299999999999932,-0.08516291337221643,0.3990741708465088,0.4,-179.31999999999996,-0.3736575542528814,-0.08116662727269278,0.0,-0.44767215291974644,0.22268732227093477,0.5,-167.74449132402447,-2.1851653010986367,-0.22958326627751596,-58,65000
cf1_sim,7.319999999999932,-0.09261856606251254,0.39730138064169795,0.4,-178.16,-0.3727826345148054,-0.0886395102405429,0.0,-0.452036071008531,0.21368994011691408,0.5,-166.62470460913227,-2.1853090763650647,-0.2362609449740525,-58,65000
cf1_sim,7.3399999999999315,-0.10005324084543747,0.39537952249511293,0.4,-176.99999999999997,-0.371733739146247,-0.09609290732925013,0.0,-0.4562191806959794,0.20460708483600784,0.5,-165.50635309491247,-2.185594056315821,-0.24273518361706098,-57,65000
cf1_sim,7.359999999999931,-0.10746348041058787,0.3933090553577222,0.4,-175.86,-0.3705119782575201,-0.10352335686953715,0.0,-0.4602198087939907,0.1954423894492253,0.5,-164.3893053513631,-2.1859251878466375,-0.24977108211452778,-57,65000
cf1_sim,7.379999999999931,-0.11484585070769586,0.3910905069624639,0.4,-174.72,-0.36911851485539937,-0.11092741976291472,0.0,-0.4640363551046667,0.18619951971252682,0.5,-163.2734367787025,-2.1863772522301095,-0.25660816422616134,-57,65000
cf1_sim,7.39999999999993,-0.1221969419995883,0.388724473351678,0.4,-173.58,-0.3675545645946219,-0.11830168053929624,0.0,-0.46766729306036975,0.17688217265057052,0.5,-162.15862931242836,-2.1869429248688927,-0.26324893195393334,-57,65000
cf1_sim,7.41999999999993,-0.12951336990991802,0.38621161838348605,0.4,-172.44000000000003,-0.36582139551648607,-0.1256427484095952,0.0,-0.4711111703343294,0.1674940750779515,0.5,-161.0447711405197,-2.187615112614494,-0.26969602245845636,-57,65000
cf1_sim,7.439999999999929,-0.13679177646539123,0.38355267321722547,0.4,-171.3,-0.36392032777366007,-0.1329472583130285,0.0,-0.4743666094215539,0.15803898210852585,0.5,-159.93175643231825,-2.1883869530980964,-0.27595219655558395,-57,65000
cf1_sim,7.459999999999929,-0.1440288311321989,0.3807484357780488,0.4,-170.16000000000005,-0.36185273334038287,-0.14021187195883278,0.0,-0.4774323081898135,0.14852067565341515,0.5,-158.81948507863177,-2.1892518136012105,-0.28202032764308915,-57,65000
cf1_sim,7.4799999999999285,-0.15122123184634512,0.3777997702008071,0.4,-169.02000000000007,-0.3596200357073112,-0.14743327886208482,0.0,-0.48030704040047645,0.13894296290829233,0.5,-157.70786244261126,-2.1902032895027164,-0.2879033910553944,-57,65000
cf1_sim,7.499999999999928,-0.1583657060375517,0.374707606253341,0.4,-167.88000000000008,-0.35722370956032967,-0.15460819737330497,0.0,-0.48298965619898765,0.12930967483055433,0.5,-156.59679912096058,-2.1912352023370563,-0.29360445384342465,-56,65000
cf1_sim,7.519999999999928,-0.1654590116464058,0.3714729387393108,0.4,-166.76000000000008,-0.3546652804427045,-0.1617333757015083,0.0,-0.4854790825747955,0.11962466460699013,0.5,-155.48621071505173,-2.1922370490299983,-0.29989191832025375,-56,65000
cf1_sim,7.539999999999927,-0.17249793813440623,0.36809682688070366,0.4,-165.6400000000001,-0.3519463244000211,-0.16880559293035846,0.0,-0.4877743237905416,0.10989180611255739,0.5,-154.37601761152848,-2.193303644655377,-0.30600453520566795,-56,65000
cf1_sim,7.559999999999927,-0.17947930748655425,0.3645803936801623,0.4,-164.52000000000007,-0.34906846760740096,-0.17582166002706806,0.0,-0.48987446178034233,0.10011499236088417,0.5,-153.26614477199684,-2.1944296541897703,-0.3119456538303584,-56,65000
cf1_sim,7.579999999999926,-0.18639997520612522,0.36092482526328873,0.4,-163.40000000000003,-0.3460333859785486,-0.1827784208436807,0.0,-0.4917786565170034,0.09029813394711537,0.5,-152.15652153141184,-2.195609953041865,-0.3177186712424312,-56,65000
cf1_sim,7.599999999999926,-0.19325683130124982,0.3571313702010815,0.4,-162.28000000000006,-0.34284280475622986,-0.18967275311036194,0.0,-0.49348614634801896,0.08044515748372678,0.5,-151.04708140478672,-2.196839623553662,-0.3233270244026156,-56,65000
cf1_sim,7.6199999999999255,-0.20004680126292645,0.3532013388126751,0.4,-161.16000000000005,-0.33949849808383137,-0.19650156942031874,0.0,-0.4949962483002229,0.07056000402993251,0.5,-149.93776190186352,-2.198113951302866,-0.32877418276175,-56,65000
cf1_sim,7.639999999999925,-0.20676684703408044,0.34913610244855586,0.4,-160.04000000000005,-0.3360022885576993,-0.20326181820596176,0.0,-0.4963083583529687,0.06064662751531377,0.5,-148.82850434939874,-2.1994284212293747,-0.33406364121229726,-56,65000
cf1_sim,7.659999999999925,-0.2134139679692804,0.3449370927544375,0.4,-158.92000000000004,-0.3323560467599974,-0.2099504847059187,0.0,-0.49742195167972986,0.050708993158299825,0.5,-147.7192537207324,-2.200778713607377,-0.33919891340503633,-56,65000
cf1_sim,7.679999999999924,-0.21998520178471775,0.34060580091598747,0.4,-157.80000000000004,-0.32856169077186886,-0.2165645919225031,0.0,-0.4983365828580234,0.04075107588013346,0.5,-146.60995847232243,-2.2021606998832732,-0.3441835254219439,-56,65000
cf1_sim,7.699999999999924,-0.22647762549805225,0.3361437768846027,0.4,-156.68000000000004,-0.3246211856667256,-0.22310120156923888,0.0,-0.4990518860475729,0.030776858714955464,0.5,-145.50057038694075,-2.203570438398539,-0.34902100979596745,-56,65000
