Crazyflie name,QTM packet timestamp (s),QTM_x (m),QTM_y (m),QTM_z (m),cf_yaw (°),QTM_vx (m/s),QTM_vy (m/s),QTM_vz (m/s),x_g (m),y_g (m),z_g (m),yaw_g (°),roll_c (°),pitch_c (°),yaw_rate_c (°/s),thrust_c (PWM)
cf1_sim,3.680000000000003,0.0,0.0,0.4,0.0,0.0,0.0,0,1,1,0.4,0.0,-20,20,0,38000
cf1_sim,3.700000000000003,0.0013697343969651498,0.0013697343969651498,0.4,0.0,0.0684867198482575,0.0684867198482575,0,1,1,0.4,0.0,-20,20,0,38000
cf1_sim,3.720000000000003,0.004109203190895449,0.004109203190895449,0.4,0.0,0.136973439696515,0.136973439696515,0,1,1,0.4,0.0,-19.684935805232932,19.684935805232932,0,38000
cf1_sim,3.740000000000003,0.00819682866854967,0.00819682866854967,0.4,0.0,0.20438127388271105,0.20438127388271105,0,1,1,0.4,0.0,-18.046380567998355,18.046380567998355,0,38000
cf1_sim,3.760000000000003,0.013520391556439432,0.013520391556439432,0.4,0.0,0.2661781443944881,0.2661781443944881,0,1,1,0.4,0.0,-16.508093546842417,16.508093546842417,0,38000
cf1_sim,3.780000000000003,0.01997453962230062,0.01997453962230062,0.4,0.0,0.3227074032930593,0.3227074032930593,0,1,1,0.4,0.0,-15.064620187475677,15.064620187475677,0,38000
cf1_sim,3.800000000000003,0.027460414110561857,0.027460414110561857,0.4,0.0,0.37429372441306186,0.37429372441306186,0,1,1,0.4,0.0,-13.71078518950578,13.71078518950578,0,38000
cf1_sim,3.820000000000003,0.03588529530299642,0.03588529530299642,0.4,0.0,0.4212440596217279,0.4212440596217279,0,1,1,0.4,0.0,-12.441678713743105,12.441678713743105,0,38000
cf1_sim,3.840000000000003,0.04516226625994113,0.04516226625994113,0.4,0.0,0.4638485478472355,0.4638485478472355,0,1,1,0.4,0.0,-11.2526432552892,11.2526432552892,0,38000
cf1_sim,3.860000000000003,0.05520989384306321,0.05520989384306321,0.4,0.0,0.5023813791561043,0.5023813791561043,0,1,1,0.4,0.0,-10.139261150761252,10.139261150761252,0,38000
cf1_sim,3.880000000000003,0.06595192616408581,0.06595192616408581,0.4,0.0,0.5371016160511296,0.5371016160511296,0,1,1,0.4,0.0,-9.097342689494422,9.097342689494422,0,38000
cf1_sim,3.900000000000003,0.0773170056452474,0.0773170056452474,0.4,0.0,0.5682539740580795,0.5682539740580795,0,1,1,0.4,0.0,-8.122914799982384,8.122914799982384,0,38000
cf1_sim,3.920000000000003,0.08923839691666666,0.08923839691666666,0.4,0.0,0.5960695635709624,0.5960695635709624,0,1,1,0.4,0.0,-7.212210284169198,7.212210284169198,0,38000
cf1_sim,3.940000000000003,0.10165372881330452,0.10165372881330452,0.4,0.0,0.6207665948318933,0.6207665948318933,0,1,1,0.4,0.0,-6.361657573494998,6.361657573494998,0,38000
cf1_sim,3.960000000000003,0.11450474976994889,0.11450474976994889,0.4,0.0,0.6425510478322182,0.6425510478322182,0,1,1,0.4,0.0,-5.567870981827155,5.567870981827155,0,38000
cf1_sim,3.980000000000003,0.1277370959466769,0.1277370959466769,0.4,0.0,0.6616173088364001,0.6616173088364001,0,1,1,0.4,0.0,-4.827641431580323,4.827641431580323,0,38000
cf1_sim,4.000000000000003,0.1413000714496574,0.1413000714496574,0.4,0.0,0.6781487751490243,0.6781487751490243,0,1,1,0.4,0.0,-4.137927630445855,4.137927630445855,0,38000
cf1_sim,4.020000000000002,0.1551464400430166,0.1551464400430166,0.4,0.0,0.6923184296679598,0.6923184296679598,0,1,1,0.4,0.0,-3.4958476772156737,3.4958476772156737,0,38000
cf1_sim,4.040000000000002,0.16923222777687744,0.16923222777687744,0.4,0.0,0.7042893866930423,0.7042893866930423,0,1,1,0.4,0.0,-2.898671076200841,2.898671076200841,0,38000
cf1_sim,4.060000000000001,0.1835165359846663,0.1835165359846663,0.4,0.0,0.714215410389443,0.714215410389443,0,1,1,0.4,0.0,-2.343811140712444,2.343811140712444,0,38000
cf1_sim,4.080000000000001,0.19796136412942636,0.19796136412942636,0.4,0.0,0.7222414072380029,0.7222414072380029,0,1,1,0.4,0.0,-1.8288177669947179,1.8288177669947179,0,38000
cf1_sim,4.1000000000000005,0.2125314420042481,0.2125314420042481,0.4,0.0,0.728503893741087,0.728503893741087,0,1,1,0.4,0.0,-1.3513705608792814,1.3513705608792814,0,38000
cf1_sim,4.12,0.22719407081608395,0.22719407081608395,0.4,0.0,0.7331314405917931,0.7331314405917931,0,1,1,0.4,0.0,-0.9092723002674284,0.9092723002674284,0,38000
cf1_sim,4.14,0.241918972705214,0.241918972705214,0.4,0.0,0.736245094456503,0.736245094456503,0,1,1,0.4,0.0,-0.5004427173458946,0.5004427173458946,0,38000
cf1_sim,4.159999999999999,0.25667814827452706,0.25667814827452706,0.4,0.0,0.7379587784656514,0.7379587784656514,0,1,1,0.4,0.0,-0.12291258520289727,0.12291258520289727,0,38000
cf1_sim,4.179999999999999,0.27144574172362873,0.27144574172362873,0.4,0.0,0.7383796724550822,0.7383796724550822,0,1,1,0.4,0.0,0.22518190576325203,-0.22518190576325203,0,38000
cf1_sim,4.199999999999998,0.2861979132026355,0.2861979132026355,0.4,0.0,0.737608573950337,0.737608573950337,0,1,1,0.4,0.0,0.545604495559096,-0.545604495559096,0,38000
cf1_sim,4.219999999999998,0.30091271801940694,0.30091271801940694,0.4,0.0,0.7357402408385717,0.7357402408385717,0,1,1,0.4,0.0,0.8400239396915278,-0.8400239396915278,0,38000
cf1_sim,4.2399999999999975,0.3155699923519549,0.3155699923519549,0.4,0.0,0.7328637166273976,0.7328637166273976,0,1,1,0.4,0.0,1.1100188442727081,-1.1100188442727081,0,38000
cf1_sim,4.259999999999997,0.33015124513488886,0.33015124513488886,0.4,0.0,0.729062639146698,0.729062639146698,0,1,1,0.4,0.0,1.3570822631643902,-1.3570822631643902,0,38000
cf1_sim,4.279999999999997,0.34463955580505445,0.34463955580505445,0.4,0.0,0.724415533508279,0.724415533508279,0,1,1,0.4,0.0,1.582626068621185,-1.582626068621185,0,38000
cf1_sim,4.299999999999996,0.35901947760703384,0.35901947760703384,0.4,0.0,0.7189960900989686,0.7189960900989686,0,1,1,0.4,0.0,1.7879851063484256,-1.7879851063484256,0,38000
cf1_sim,4.319999999999996,0.37327694617394186,0.37327694617394186,0.4,0.0,0.7128734283454015,0.7128734283454015,0,1,1,0.4,0.0,1.9744211453719032,-1.9744211453719032,0,38000
cf1_sim,4.339999999999995,0.3873991931130043,0.3873991931130043,0.4,0.0,0.7061123469531234,0.7061123469531234,0,1,1,0.4,0.0,2.143126632623047,-2.143126632623047,0,38000
cf1_sim,4.359999999999995,0.401374664338779,0.401374664338779,0.4,0.0,0.6987735612887337,0.6987735612887337,0,1,1,0.4,0.0,2.295228261672155,-2.295228261672155,0,38000
cf1_sim,4.379999999999995,0.41519294290960873,0.41519294290960873,0.4,0.0,0.6909139285414865,0.6909139285414865,0,1,1,0.4,0.0,2.4317903645939682,-2.4317903645939682,0,38000
cf1_sim,4.399999999999994,0.4288446761350088,0.4288446761350088,0.4,0.0,0.6825866612700046,0.6825866612700046,0,1,1,0.4,0.0,2.553818135522213,-2.553818135522213,0,38000
cf1_sim,4.419999999999994,0.442321506733218,0.442321506733218,0.4,0.0,0.6738415299104591,0.6738415299104591,0,1,1,0.4,0.0,2.662260694042491,-2.662260694042491,0,38000
cf1_sim,4.439999999999993,0.45561600782911127,0.45561600782911127,0.4,0.0,0.6647250547946633,0.6647250547946633,0,1,1,0.4,0.0,2.758013996184727,-2.758013996184727,0,38000
cf1_sim,4.459999999999993,0.46872162159311026,0.46872162159311026,0.4,0.0,0.6552806881999494,0.6552806881999494,0,1,1,0.4,0.0,2.841923600406431,-2.841923600406431,0,38000
cf1_sim,4.479999999999992,0.4816326013316581,0.4816326013316581,0.4,0.0,0.6455489869273902,0.6455489869273902,0,1,1,0.4,0.0,2.914787295605619,-2.914787295605619,0,38000
cf1_sim,4.499999999999992,0.49434395684927446,0.49434395684927446,0.4,0.0,0.63556777588082,0.63556777588082,0,1,1,0.4,0.0,2.97735759786639,-2.97735759786639,0,38000
cf1_sim,4.519999999999992,0.5068514029111977,0.5068514029111977,0.4,0.0,0.6253723030961622,0.6253723030961622,0,1,1,0.4,0.0,3.030344122320124,-3.030344122320124,0,38000
cf1_sim,4.539999999999991,0.5191513106441717,0.5191513106441717,0.4,0.0,0.6149953866487046,0.6149953866487046,0,1,1,0.4,0.0,3.0744158362003358,-3.0744158362003358,0,38000
cf1_sim,4.559999999999991,0.531240661721075,0.531240661721075,0.4,0.0,0.6044675538451596,0.6044675538451596,0,1,1,0.4,0.0,3.1102031988787298,-3.1102031988787298,0,38000
cf1_sim,4.57999999999999,0.5431170051828255,0.5431170051828255,0.4,0.0,0.5938171730875215,0.5938171730875215,0,1,1,0.4,0.0,3.1383001943931625,-3.1383001943931625,0,38000
cf1_sim,4.59999999999999,0.5547784167583627,0.5547784167583627,0.4,0.0,0.5830705787768646,0.5830705787768646,0,1,1,0.4,0.0,3.159266261714502,-3.159266261714502,0,38000
cf1_sim,4.6199999999999894,0.5662234605505079,0.5662234605505079,0.4,0.0,0.57225218960726,0.57225218960726,0,1,1,0.4,0.0,3.1736281277480765,-3.1736281277480765,0,38000
cf1_sim,4.639999999999989,0.5774511529621654,0.5774511529621654,0.4,0.0,0.5613846205828784,0.5613846205828784,0,1,1,0.4,0.0,3.1818815478260243,-3.1818815478260243,0,38000
cf1_sim,4.659999999999989,0.5884609287436667,0.5884609287436667,0.4,0.0,0.5504887890750634,0.5504887890750634,0,1,1,0.4,0.0,3.184492958218787,-3.184492958218787,0,38000
cf1_sim,4.679999999999988,0.5992526090480798,0.5992526090480798,0.4,0.0,0.5395840152206495,0.5395840152206495,0,1,1,0.4,0.0,3.181901044976706,-3.181901044976706,0,38000
cf1_sim,4.699999999999988,0.6098263713870405,0.6098263713870405,0.4,0.0,0.5286881169480396,0.5286881169480396,0,1,1,0.4,0.0,3.1745182332056667,-3.1745182332056667,0,38000
cf1_sim,4.719999999999987,0.6201827213851105,0.6201827213851105,0.4,0.0,0.5178174999035026,0.5178174999035026,0,1,1,0.4,0.0,3.162732100683579,-3.162732100683579,0,38000
cf1_sim,4.739999999999987,0.630322466235846,0.630322466235846,0.4,0.0,0.5069872425367722,0.5069872425367722,0,1,1,0.4,0.0,3.1469067195365907,-3.1469067195365907,0,38000
cf1_sim,4.7599999999999865,0.640246689767692,0.640246689767692,0.4,0.0,0.49621117659229713,0.49621117659229713,0,1,1,0.4,0.0,3.127383929515035,-3.127383929515035,0,38000
cf1_sim,4.779999999999986,0.6499567290324992,0.6499567290324992,0.4,0.0,0.4855019632403652,0.4855019632403652,0,1,1,0.4,0.0,3.104484546238604,-3.104484546238604,0,38000
cf1_sim,4.799999999999986,0.659454152333915,0.659454152333915,0.4,0.0,0.4748711650707908,0.4748711650707908,0,1,1,0.4,0.0,3.07850950761793,-3.07850950761793,0,38000
cf1_sim,4.819999999999985,0.6687407386171325,0.6687407386171325,0.4,0.0,0.4643293141608695,0.4643293141608695,0,1,1,0.4,0.0,3.049740961505051,-3.049740961505051,0,38000
cf1_sim,4.839999999999985,0.6778184581455095,0.6778184581455095,0.4,0.0,0.45388597641885187,0.45388597641885187,0,1,1,0.4,0.0,3.0184432974779303,-3.0184432974779303,0,38000
cf1_sim,4.859999999999984,0.6866894543933942,0.6866894543933942,0.4,0.0,0.4435498123942408,0.4435498123942408,0,1,1,0.4,0.0,2.984864125523937,-2.984864125523937,0,38000
cf1_sim,4.879999999999984,0.6953560270881292,0.6953560270881292,0.4,0.0,0.4333286347367472,0.4333286347367472,0,1,1,0.4,0.0,2.9492352042534717,-2.9492352042534717,0,38000
cf1_sim,4.8999999999999835,0.7038206163376638,0.7038206163376638,0.4,0.0,0.42322946247673093,0.42322946247673093,0,1,1,0.4,0.0,2.911773321147717,-2.911773321147717,0,38000
cf1_sim,4.919999999999983,0.7120857877834913,0.7120857877834913,0.4,0.0,0.41325857229137725,0.41325857229137725,0,1,1,0.4,0.0,2.8726811272232267,-2.8726811272232267,0,38000
cf1_sim,4.939999999999983,0.7201542187217453,0.7201542187217453,0.4,0.0,0.40342154691270155,0.40342154691270155,0,1,1,0.4,0.0,2.832147928380642,-2.832147928380642,0,38000
cf1_sim,4.959999999999982,0.7280286851382596,0.7280286851382596,0.4,0.0,0.39372332082571015,0.39372332082571015,0,1,1,0.4,0.0,2.7903504355948376,-2.7903504355948376,0,38000
cf1_sim,4.979999999999982,0.7357120496062127,0.7357120496062127,0.4,0.0,0.3841682233976578,0.3841682233976578,0,1,1,0.4,0.0,2.747453475999153,-2.747453475999153,0,38000
cf1_sim,4.999999999999981,0.743207249997659,0.743207249997659,0.4,0.0,0.3747600195723141,0.3747600195723141,0,1,1,0.4,0.0,2.703610666816609,-2.703610666816609,0,38000
cf1_sim,5.019999999999981,0.7505172889627882,0.7505172889627882,0.4,0.0,0.3655019482564626,0.3655019482564626,0,1,1,0.4,0.0,2.658965053996076,-2.658965053996076,0,38000
cf1_sim,5.0399999999999805,0.7576452241331781,0.7576452241331781,0.4,0.0,0.3563967585194958,0.3563967585194958,0,1,1,0.4,0.0,2.6136497173209463,-2.6136497173209463,0,38000
cf1_sim,5.05999999999998,0.7645941590075964,0.7645941590075964,0.4,0.0,0.34744674372091394,0.34744674372091394,0,1,1,0.4,0.0,2.567788343671774,-2.567788343671774,0,38000
cf1_sim,5.07999999999998,0.771367234481092,0.771367234481092,0.4,0.0,0.33865377367478045,0.33865377367478045,0,1,1,0.4,0.0,2.52149577004236,-2.52149577004236,0,38000
cf1_sim,5.099999999999979,0.7779676209801861,0.7779676209801861,0.4,0.0,0.3300193249547076,0.3300193249547076,0,1,1,0.4,0.0,2.474878497830725,-2.474878497830725,0,38000
cf1_sim,5.119999999999979,0.7843985111689409,0.7843985111689409,0.4,0.0,0.32154450943773716,0.32154450943773716,0,1,1,0.4,0.0,2.4280351798520647,-2.4280351798520647,0,38000
cf1_sim,5.139999999999978,0.7906631131925513,0.7906631131925513,0.4,0.0,0.3132301011805251,0.3132301011805251,0,1,1,0.4,0.0,2.3810570814500727,-2.3810570814500727,0,38000
cf1_sim,5.159999999999978,0.7967646444268819,0.7967646444268819,0.4,0.0,0.30507656171652603,0.30507656171652603,0,1,1,0.4,0.0,2.334028517015626,-2.334028517015626,0,38000
cf1_sim,5.1799999999999775,0.8027063257040498,0.8027063257040498,0.4,0.0,0.29708406385839137,0.29708406385839137,0,1,1,0.4,0.0,2.287027263157688,-2.287027263157688,0,38000
cf1_sim,5.199999999999977,0.8084913759857604,0.8084913759857604,0.4,0.0,0.289252514085531,0.289252514085531,0,1,1,0.4,0.0,2.2401249497102667,-2.2401249497102667,0,38000
cf1_sim,5.219999999999977,0.8141230074576151,0.8141230074576151,0.4,0.0,0.28158157359273606,0.28158157359273606,0,1,1,0.4,0.0,2.193387429701135,-2.193387429701135,0,38000
cf1_sim,5.239999999999976,0.8196044210190532,0.8196044210190532,0.4,0.0,0.2740706780719045,0.2740706780719045,0,1,1,0.4,0.0,2.1468751293526593,-2.1468751293526593,0,38000
cf1_sim,5.259999999999976,0.8249388021449581,0.8249388021449581,0.4,0.0,0.2667190562952461,0.2667190562952461,0,1,1,0.4,0.0,2.1006433791325003,-2.1006433791325003,0,38000
cf1_sim,5.279999999999975,0.8301293170962553,0.8301293170962553,0.4,0.0,0.2595257475648589,0.2595257475648589,0,1,1,0.4,0.0,2.0547427268217344,-2.0547427268217344,0,38000
cf1_sim,5.299999999999975,0.8351791094580604,0.8351791094580604,0.4,0.0,0.25248961809025466,0.25248961809025466,0,1,1,0.4,0.0,2.0092192335202985,-2.0092192335202985,0,38000
cf1_sim,5.3199999999999745,0.8400912969851057,0.8400912969851057,0.4,0.0,0.2456093763522629,0.2456093763522629,0,1,1,0.4,0.0,1.964114753464225,-1.964114753464225,0,38000
cf1_sim,5.339999999999974,0.8448689687352806,0.8448689687352806,0.4,0.0,0.23888358750874622,0.23888358750874622,0,1,1,0.4,0.0,1.919467198485915,-1.919467198485915,0,38000
cf1_sim,5.359999999999974,0.8495151824731749,0.8495151824731749,0.4,0.0,0.23231068689471499,0.23231068689471499,0,1,1,0.4,0.0,1.8753107879075586,-1.8753107879075586,0,38000
cf1_sim,5.379999999999973,0.8540329623265094,0.8540329623265094,0.4,0.0,0.225888992666723,0.225888992666723,0,1,1,0.4,0.0,1.8316762846186925,-1.8316762846186925,0,38000
cf1_sim,5.399999999999973,0.8584252966792865,0.8584252966792865,0.4,0.0,0.21961671763885413,0.21961671763885413,0,1,1,0.4,0.0,1.7885912180515988,-1.7885912180515988,0,38000
cf1_sim,5.419999999999972,0.8626951362863898,0.8626951362863898,0.4,0.0,0.21349198035516645,0.21349198035516645,0,1,1,0.4,0.0,1.7460800947328374,-1.7460800947328374,0,38000
cf1_sim,5.439999999999972,0.8668453925952125,0.8668453925952125,0.4,0.0,0.20751281544113712,0.20751281544113712,0,1,1,0.4,0.0,1.7041645970554387,-1.7041645970554387,0,38000
cf1_sim,5.4599999999999715,0.8708789362607015,0.8708789362607015,0.4,0.0,0.2016771832744444,0.2016771832744444,0,1,1,0.4,0.0,1.6628637708842249,-1.6628637708842249,0,38000
cf1_sim,5.479999999999971,0.874798595840968,0.874798595840968,0.4,0.0,0.19598297901332615,0.19598297901332615,0,1,1,0.4,0.0,1.6221942025761473,-1.6221942025761473,0,38000
cf1_sim,5.499999999999971,0.8786071566613431,0.8786071566613431,0.4,0.0,0.19042804101876115,0.19042804101876115,0,1,1,0.4,0.0,1.582170185968523,-1.582170185968523,0,38000
cf1_sim,5.51999999999997,0.8823073598354397,0.8823073598354397,0.4,0.0,0.18501015870482657,0.18501015870482657,0,1,1,0.4,0.0,1.5428038798603718,-1.5428038798603718,0,38000
cf1_sim,5.53999999999997,0.8859019014324354,0.8859019014324354,0.4,0.0,0.17972707984978648,0.17972707984978648,0,1,1,0.4,0.0,1.504105456485757,-1.504105456485757,0,38000
cf1_sim,5.559999999999969,0.8893934317804105,0.8893934317804105,0.4,0.0,0.1745765173987577,0.1745765173987577,0,1,1,0.4,0.0,1.466083241453082,-1.466083241453082,0,38000
cf1_sim,5.579999999999969,0.892784554896154,0.892784554896154,0.4,0.0,0.1695561557871766,0.1695561557871766,0,1,1,0.4,0.0,1.4287438456003871,-1.4287438456003871,0,38000
cf1_sim,5.599999999999969,0.896077828032409,0.896077828032409,0.4,0.0,0.1646636568127488,0.1646636568127488,0,1,1,0.4,0.0,1.392092289194157,-1.392092289194157,0,38000
cf1_sim,5.619999999999968,0.899275761334051,0.899275761334051,0.4,0.0,0.15989666508210082,0.15989666508210082,0,1,1,0.4,0.0,1.3561321188775683,-1.3561321188775683,0,38000
cf1_sim,5.639999999999968,0.9023808175951902,0.9023808175951902,0.4,0.0,0.15525281305696123,0.15525281305696123,0,1,1,0.4,0.0,1.3208655177536361,-1.3208655177536361,0,38000
cf1_sim,5.659999999999967,0.9053954121096578,0.9053954121096578,0.4,0.0,0.1507297257233804,0.1507297257233804,0,1,1,0.4,0.0,1.2862934089692444,-1.2862934089692444,0,38000
cf1_sim,5.679999999999967,0.9083219126077826,0.9083219126077826,0.4,0.0,0.14632502490624355,0.14632502490624355,0,1,1,0.4,0.0,1.252415553147532,-1.252415553147532,0,38000
cf1_sim,5.699999999999966,0.9111626392727855,0.9111626392727855,0.4,0.0,0.14203633325014278,0.14203633325014278,0,1,1,0.4,0.0,1.2192306399984898,-1.2192306399984898,0,38000
cf1_sim,5.719999999999966,0.9139198648305163,0.9139198648305163,0.4,0.0,0.13786127788654337,0.13786127788654337,0,1,1,0.4,0.0,1.186736374420841,-1.186736374420841,0,38000
cf1_sim,5.739999999999966,0.9165958147066385,0.9165958147066385,0.4,0.0,0.13379749380610853,0.13379749380610853,0,1,1,0.4,0.0,1.1549295573924363,-1.1549295573924363,0,38000
cf1_sim,5.759999999999965,0.9191926672457191,0.9191926672457191,0.4,0.0,0.12984262695402815,0.12984262695402815,0,1,1,0.4,0.0,1.1238061619311381,-1.1238061619311381,0,38000
cf1_sim,5.779999999999965,0.9217125539870238,0.9217125539870238,0.4,0.0,0.12599433706523197,0.12599433706523197,0,1,1,0.4,0.0,1.0933614043938744,-1.0933614043938744,0,38000
cf1_sim,5.799999999999964,0.9241575599921328,0.9241575599921328,0.4,0.0,0.12225030025545094,0.12225030025545094,0,1,1,0.4,0.0,1.063589811367798,-1.063589811367798,0,38000
cf1_sim,5.819999999999964,0.9265297242197972,0.9265297242197972,0.4,0.0,0.11860821138322057,0.11860821138322057,0,1,1,0.4,0.0,1.0344852823944855,-1.0344852823944855,0,38000
cf1_sim,5.839999999999963,0.9288310399437391,0.9288310399437391,0.4,0.0,0.11506578619709573,0.11506578619709573,0,1,1,0.4,10.0,1.0060411487557515,-1.0060411487557515,-50,38000
cf1_sim,5.859999999999963,0.9310634552093703,0.9310634552093703,0.4,1.0,0.11162076328156302,0.11162076328156302,0,1,1,0.4,10.0,0.9610284157040222,-0.9951740568756395,-45,38000
cf1_sim,5.879999999999963,0.9332288733256582,0.9332288733256582,0.4,1.9,0.10827090581439458,0.10827090581439458,0,1,1,0.4,10.0,0.9190479239780337,-0.9821160277825466,-40,38000
cf1_sim,5.899999999999962,0.9353291533886079,0.9353291533886079,0.4,2.7,0.10501400314748324,0.10501400314748324,0,1,1,0.4,10.0,0.8800161374524016,-0.967125107300571,-37,38000
cf1_sim,5.919999999999962,0.9373661108330585,0.9373661108330585,0.4,3.4400000000000004,0.1018478722225308,0.1018478722225308,0,1,1,0.4,10.0,0.8431729340947463,-0.9510249921123319,-33,38000
cf1_sim,5.939999999999961,0.9393415180097051,0.9393415180097051,0.4,4.1,0.09877035883232815,0.09877035883232815,0,1,1,0.4,10.0,0.8087743545931831,-0.9336746524510824,-30,38000
cf1_sim,5.959999999999961,0.9412571047844605,0.9412571047844605,0.4,4.7,0.09577933873776538,0.09577933873776538,0,1,1,0.4,20.0,0.7764080800947488,-0.9155089835468286,-76,38000
cf1_sim,5.9799999999999605,0.9431145591574632,0.9431145591574632,0.4,6.220000000000001,0.0928727186501411,0.0928727186501411,0,1,1,0.4,20.0,0.7305518312366833,-0.9092729994010254,-69,38000
cf1_sim,5.99999999999996,0.9449155278992193,0.9449155278992193,0.4,7.6,0.09004843708780032,0.09004843708780032,0,1,1,0.4,20.0,0.6882968955311495,-0.9002549678765569,-62,38000
cf1_sim,6.01999999999996,0.9466616172015316,0.9466616172015316,0.4,8.840000000000002,0.08730446511561903,0.08730446511561901,0,1,1,0.4,20.0,0.6495702450837634,-0.8888265066834508,-56,38000
cf1_sim,6.039999999999959,0.948354393341039,0.948354393341039,0.4,9.96,0.08463880697536905,0.08463880697536903,0,1,1,0.4,20.0,0.6139684466450527,-0.875536241607151,-50,38000
cf1_sim,6.059999999999959,0.9499953833533298,0.9499953833533298,0.4,10.96,0.08204950061453735,0.08204950061453734,0,1,1,0.4,29.999999999999996,0.5813894446223824,-0.8606486205359158,-95,38000
cf1_sim,6.079999999999958,0.9515860757157446,0.9515860757157446,0.4,12.860000000000001,0.07953461812073914,0.07953461812073913,0,1,1,0.4,29.999999999999996,0.5365994721064348,-0.8540877082801773,-86,38000
cf1_sim,6.099999999999958,0.9531279210371136,0.9531279210371136,0.4,14.580000000000002,0.0770922660684519,0.07709226606845189,0,1,1,0.4,29.999999999999996,0.4959439011590375,-0.8446402628314534,-77,38000
cf1_sim,6.1199999999999575,0.9546223327528017,0.9546223327528017,0.4,16.12,0.07472058578440711,0.0747205857844071,0,1,1,0.4,29.999999999999996,0.4593324867315389,-0.8327662861236744,-69,38000
cf1_sim,6.139999999999957,0.9560706878235539,0.9560706878235539,0.4,17.5,0.07241775353760696,0.07241775353760695,0,1,1,0.4,29.999999999999996,0.42635553994503095,-0.819021371969546,-62,38000
cf1_sim,6.159999999999957,0.9574743274367455,0.9574743274367455,0.4,18.74,0.07018198065958306,0.07018198065958305,0,1,1,0.4,40.0,0.3965987409262711,-0.8038689666329096,-106,38000
cf1_sim,6.179999999999956,0.9588345577087493,0.9588345577087493,0.4,20.86,0.06801151360018319,0.06801151360018318,0,1,1,0.4,40.0,0.355850274857354,-0.7940255923200434,-96,38000
cf1_sim,6.199999999999956,0.9601526503872264,0.9601526503872264,0.4,22.78,0.06590463392385817,0.06590463392385816,0,1,1,0.4,40.0,0.31937940163565565,-0.7818350987015491,-86,38000
cf1_sim,6.219999999999955,0.9614298435522489,0.9614298435522489,0.4,24.5,0.06385965825112426,0.06385965825112425,0,1,1,0.4,40.0,0.28705372762230297,-0.767760069810428,-78,38000
cf1_sim,6.239999999999955,0.9626673423152409,0.9626673423152409,0.4,26.060000000000002,0.061874938149595535,0.06187493814959552,0,1,1,0.4,40.0,0.25818522804528554,-0.7523829286669068,-70,38000
cf1_sim,6.2599999999999545,0.9638663195148152,0.9638663195148152,0.4,27.459999999999994,0.05994885997871517,0.05994885997871516,0,1,1,0.4,50.0,0.232623575650525,-0.735995686325016,-113,38000
cf1_sim,6.279999999999954,0.9650279164086564,0.9650279164086564,0.4,29.719999999999995,0.05807984469206291,0.0580798446920629,0,1,1,0.4,50.0,0.19737675308374256,-0.7224786536969313,-101,38000
cf1_sim,6.299999999999954,0.966153243360674,0.966153243360674,0.4,31.739999999999995,0.056266347600878466,0.05626634760087845,0,1,1,0.4,50.0,0.16667192063477132,-0.7072770055212013,-91,38000
cf1_sim,6.319999999999953,0.9672433805227183,0.9672433805227183,0.4,33.559999999999995,0.05450685810221583,0.05450685810221582,0,1,1,0.4,50.0,0.13982201951881806,-0.6909500217423864,-82,38000
cf1_sim,6.339999999999953,0.968299378510217,0.968299378510217,0.4,35.19999999999999,0.052799899374931,0.052799899374930986,0,1,1,0.4,50.0,0.11639893517522773,-0.6738779601533963,-74,38000
cf1_sim,6.359999999999952,0.9693222590711471,0.9693222590711471,0.4,36.67999999999999,0.051144028046504586,0.05114402804650457,0,1,1,0.4,59.99999999999999,0.0959864705562258,-0.656359323384056,-117,38000
cf1_sim,6.379999999999952,0.9703130157478174,0.9703130157478174,0.4,39.019999999999996,0.04953783383351128,0.04953783383351127,0,1,1,0.4,59.99999999999999,0.06702958122866529,-0.6398924350304855,-105,38000
cf1_sim,6.3999999999999515,0.9712726145309848,0.9712726145309848,0.4,41.11999999999999,0.0479799391583686,0.0479799391583686,0,1,1,0.4,59.99999999999999,0.04222435979738434,-0.6225717381409798,-94,38000
cf1_sim,6.419999999999951,0.9722019945058814,0.9722019945058814,0.4,43.0,0.04646899874482815,0.04646899874482815,0,1,1,0.4,59.99999999999999,0.021119527975322808,-0.6047841523169661,-85,38000
cf1_sim,6.439999999999951,0.9731020684897717,0.9731020684897717,0.4,44.7,0.04500369919451246,0.04500369919451246,0,1,1,0.4,59.99999999999999,0.0030726366262303624,-0.5868250060953433,-76,38000
cf1_sim,6.45999999999995,0.9739737236607047,0.9739737236607047,0.4,46.220000000000006,0.04358275854664984,0.04358275854664984,0,1,1,0.4,70.0,-0.012115448682165842,-0.5689009537813918,-119,38000
cf1_sim,6.47999999999995,0.974817822177165,0.974817822177165,0.4,48.600000000000016,0.04220492582301666,0.04220492582301666,0,1,1,0.4,70.0,-0.03464346857887513,-0.5506421648739689,-107,38000
cf1_sim,6.499999999999949,0.9756352017883642,0.9756352017883642,0.4,50.740000000000016,0.04086898055996241,0.04086898055996241,0,1,1,0.4,70.0,-0.05350005049490028,-0.5322413355725599,-96,38000
cf1_sim,6.519999999999949,0.9764266764349495,0.9764266764349495,0.4,52.66000000000001,0.03957373232926574,0.03957373232926574,0,1,1,0.4,70.0,-0.06912582537026893,-0.5139677593268713,-87,38000
cf1_sim,6.5399999999999485,0.9771930368399385,0.9771930368399385,0.4,54.400000000000006,0.03831802024945013,0.03831802024945013,0,1,1,0.4,70.0,-0.08210965803220822,-0.49598423729966373,-78,38000
cf1_sim,6.559999999999948,0.97793505108972,0.97793505108972,0.4,55.960000000000015,0.03710071248907491,0.03710071248907491,0,1,1,0.4,70.0,-0.09265294737285787,-0.47844113456146137,-70,38000
cf1_sim,6.579999999999948,0.9786534652049882,0.9786534652049882,0.4,57.36000000000002,0.03592070576341108,0.03592070576341108,0,1,1,0.4,70.0,-0.10111222583427298,-0.46142050820089475,-63,38000
cf1_sim,6.599999999999947,0.9793490037015045,0.9793490037015045,0.4,58.62000000000002,0.03477692482581111,0.03477692482581111,0,1,1,0.4,70.0,-0.10781301545543241,-0.44496593299479803,-57,38000
cf1_sim,6.619999999999947,0.9800223701406042,0.9800223701406042,0.4,59.76000000000001,0.03366832195498738,0.03366832195498738,0,1,1,0.4,70.0,-0.11305051599933241,-0.4290917524783575,-51,38000
cf1_sim,6.639999999999946,0.9806742476693907,0.9806742476693907,0.4,60.78000000000001,0.032593876439325355,0.032593876439325355,0,1,1,0.4,70.0,-0.11694649007124815,-0.41383144732972055,-46,38000
cf1_sim,6.659999999999946,0.9813052995505762,0.9813052995505762,0.4,61.70000000000002,0.03155259405927332,0.03155259405927332,0,1,1,0.4,70.0,-0.11975524681592262,-0.39916502564803624,-41,38000
cf1_sim,6.6799999999999455,0.9819161696819516,0.9819161696819516,0.4,62.52000000000002,0.030543506568772326,0.030543506568772326,0,1,1,0.4,70.0,-0.12157007835161537,-0.3851022476999159,-37,38000
cf1_sim,6.699999999999945,0.982507483105484,0.982507483105484,0.4,63.260000000000026,0.029565671176615512,0.029565671176615512,0,1,1,0.4,70.0,-0.12260826154162237,-0.37160316859122655,-34,38000
cf1_sim,6.719999999999945,0.9830798465060551,0.9830798465060551,0.4,63.94000000000001,0.028618170028556343,0.028618170028556343,0,1,1,0.4,70.0,-0.12306334250370594,-0.35862143913297917,-30,38000
cf1_sim,6.739999999999944,0.9836338486998735,0.9836338486998735,0.4,64.54000000000002,0.02770010969092004,0.02770010969092004,0,1,1,0.4,70.0,-0.12286543964649213,-0.346193015072892,-27,38000
cf1_sim,6.759999999999944,0.9841700611126016,0.9841700611126016,0.4,65.08000000000001,0.026810620636410567,0.026810620636410567,0,1,1,0.4,70.0,-0.12219151305403464,-0.3342655004457805,-25,38000
cf1_sim,6.779999999999943,0.9846890382472566,0.9846890382472566,0.4,65.58000000000003,0.02594885673274809,0.025948856732748087,0,1,1,0.4,70.0,-0.12119844134725494,-0.32278529643986054,-22,38000
cf1_sim,6.799999999999943,0.9851913181419509,0.9851913181419509,0.4,66.02000000000001,0.025113994734717322,0.02511399473471732,0,1,1,0.4,70.0,-0.1198071353146377,-0.31178291842980127,-20,38000
cf1_sim,6.8199999999999426,0.9856774228175541,0.9856774228175541,0.4,66.42000000000003,0.024305233780156397,0.024305233780156393,0,1,1,0.4,70.0,-0.11816166919467379,-0.30120351079813934,-18,38000
cf1_sim,6.839999999999942,0.9861478587153615,0.9861478587153615,0.4,66.78000000000003,0.023521794890368077,0.023521794890368073,0,1,1,0.4,70.0,-0.116287654857106,-0.29103446413409645,-16,38000
cf1_sim,6.859999999999942,0.9866031171248693,0.9866031171248693,0.4,67.10000000000002,0.02276292047539042,0.022762920475390417,0,1,1,0.4,70.0,-0.1142089973331968,-0.2812628432025756,-14,38000
cf1_sim,6.879999999999941,0.9870436746017597,0.9870436746017597,0.4,67.38000000000004,0.022027873844522042,0.02202787384452204,0,1,1,0.4,70.0,-0.11194797692664663,-0.2718754784441552,-13,38000
cf1_sim,6.899999999999941,0.9874699933762089,0.9874699933762089,0.4,67.64000000000003,0.021315938722457854,0.02131593872245785,0,1,1,0.4,70.0,-0.10961707908953693,-0.26282080081882564,-12,38000
cf1_sim,6.91999999999994,0.9878825217516359,0.9878825217516359,0.4,67.88000000000002,0.020626418771354488,0.020626418771354484,0,1,1,0.4,70.0,-0.10722647162913121,-0.25408800560899675,-11,38000
cf1_sim,6.93999999999994,0.9882816944940181,0.9882816944940181,0.4,68.10000000000001,0.0199586371191102,0.019958637119110195,0,1,1,0.4,70.0,-0.10478562468406111,-0.24566645906224124,-9,38000
cf1_sim,6.95999999999994,0.9886679332119004,0.9886679332119004,0.4,68.28000000000003,0.019311935894111888,0.019311935894111884,0,1,1,0.4,70.0,-0.10222042110339918,-0.23758140887448495,-9,38000
cf1_sim,6.979999999999939,0.9890416467272338,0.9890416467272338,0.4,68.46000000000005,0.018685675766672044,0.01868567576667204,0,1,1,0.4,70.0,-0.09970762568442819,-0.2297503344847796,-8,38000
cf1_sim,6.999999999999939,0.9894032314371808,0.9894032314371808,0.4,68.62000000000003,0.018079235497350313,0.01807923549735031,0,1,1,0.4,70.0,-0.09716906839562804,-0.22219975836550587,-7,38000
cf1_sim,7.019999999999938,0.9897530716670273,0.9897530716670273,0.4,68.76000000000003,0.017492011492328312,0.01749201149232831,0,1,1,0.4,70.0,-0.09461177728191252,-0.21491985808036607,-6,38000
cf1_sim,7.039999999999938,0.990091540014347,0.990091540014347,0.4,68.88000000000004,0.016923417365982085,0.01692341736598208,0,1,1,0.4,70.0,-0.09204224921814001,-0.20790103589990397,-6,38000
cf1_sim,7.059999999999937,0.9904189976845624,0.9904189976845624,0.4,69.00000000000004,0.016372883510773862,0.01637288351077386,0,1,1,0.4,70.0,-0.08953668314602067,-0.2011026829593717,-5,38000
cf1_sim,7.079999999999937,0.9907357948180537,0.9907357948180537,0.4,69.10000000000002,0.01583985667456387,0.015839856674563866,0,1,1,0.4,70.0,-0.08702583272332516,-0.19454868573316533,-4,38000
cf1_sim,7.099999999999937,0.9910422708089622,0.9910422708089622,0.4,69.18000000000004,0.015323799545423239,0.015323799545423237,0,1,1,0.4,70.0,-0.0845150204267952,-0.18823014991302484,-4,38000
cf1_sim,7.119999999999936,0.9913387546158424,0.9913387546158424,0.4,69.26000000000003,0.014824190344011067,0.014824190344011065,0,1,1,0.4,70.0,-0.08207271048906038,-0.18210977869719885,-4,38000
cf1_sim,7.139999999999936,0.9916255650643137,0.9916255650643137,0.4,69.34000000000003,0.014340522423561765,0.014340522423561763,0,1,1,0.4,70.0,-0.07969720852944036,-0.17618170141065304,-3,38000
cf1_sim,7.159999999999935,0.991903011141864,0.991903011141864,0.4,69.40000000000003,0.013872303877513302,0.0138723038775133,0,1,1,0.4,70.0,-0.07732735437637507,-0.17046720654591768,-3,38000
cf1_sim,7.179999999999935,0.9921713922849598,0.9921713922849598,0.4,69.46000000000004,0.013419057154792574,0.013419057154792573,0,1,1,0.4,70.0,-0.07502489358521333,-0.16493214236258735,-3,38000
cf1_sim,7.1999999999999345,0.992430998658615,0.992430998658615,0.4,69.52000000000004,0.01298031868276081,0.012980318682760809,0,1,1,0.4,70.0,-0.07278804920532572,-0.15957116462735374,-2,38000
cf1_sim,7.219999999999934,0.9926821114285711,0.9926821114285711,0.4,69.56000000000004,0.012555638497809642,0.01255563849780964,0,1,1,0.4,70.0,-0.07056119175981172,-0.15440371350906879,-2,38000
cf1_sim,7.239999999999934,0.9929250030262429,0.9929250030262429,0.4,69.60000000000005,0.01214457988358728,0.012144579883587279,0,1,1,0.4,70.0,-0.06840001926885066,-0.14939859953915569,-2,38000
cf1_sim,7.259999999999933,0.9931599374065794,0.9931599374065794,0.4,69.64000000000006,0.01174671901682381,0.011746719016823809,0,1,1,0.4,70.0,-0.0663027080969617,-0.1445509677510756,-2,38000
cf1_sim,7.279999999999933,0.9933871702989937,0.9933871702989937,0.4,69.68000000000008,0.01136164462071513,0.011361644620715127,0,1,1,0.4,70.0,-0.06426747972899775,-0.13985609600165305,-2,38000
cf1_sim,7.299999999999932,0.9936069494515101,0.9936069494515101,0.4,69.72000000000007,0.01098895762581638,0.010988957625816378,0,1,1,0.4,80.0,-0.06229259993720404,-0.13530939199426137,-51,38000
cf1_sim,7.319999999999932,0.9938195148682778,0.9938195148682778,0.4,70.74000000000007,0.0106282708383878,0.010628270838387799,0,1,1,0.4,80.0,-0.0626064898700863,-0.12985460126449586,-46,38000
cf1_sim,7.3399999999999315,0.9940250990406003,0.9940250990406003,0.4,71.66000000000005,0.010279208616128684,0.010279208616128683,0,1,1,0.4,80.0,-0.0625968312540302,-0.12467670757574564,-42,38000
cf1_sim,7.359999999999931,0.9942239271716249,0.9942239271716249,0.4,72.50000000000007,0.009941406551228592,0.00994140655122859,0,1,1,0.4,80.0,-0.06233802284738559,-0.11975022772054747,-37,38000
cf1_sim,7.379999999999931,0.9944162173948381,0.9944162173948381,0.4,73.24000000000007,0.009614511160659051,0.00961451116065905,0,1,1,0.4,80.0,-0.061815107151601136,-0.11509168198917617,-34,38000
cf1_sim,7.39999999999993,0.9946021809865105,0.9946021809865105,0.4,73.92000000000007,0.009298179583623636,0.009298179583623634,0,1,1,0.4,80.0,-0.06113330119246694,-0.11065147608031237,-30,38000
cf1_sim,7.41999999999993,0.9947820225722321,0.9947820225722321,0.4,74.52000000000005,0.008992079286079506,0.008992079286079504,0,1,1,0.4,90.0,-0.0602723188933455,-0.10644425087603926,-77,38000
cf1_sim,7.439999999999929,0.9949559403276769,0.9949559403276769,0.4,76.06000000000006,0.008695887772239208,0.008695887772239206,0,1,1,0.4,90.0,-0.061066536408495055,-0.10139112735002713,-70,38000
cf1_sim,7.459999999999929,0.995124126173736,0.995124126173736,0.4,77.46000000000008,0.008409292302957795,0.008409292302957793,0,1,1,0.4,90.0,-0.06146571444104206,-0.09663064906543598,-63,38000
cf1_sim,7.4799999999999285,0.9952867659661542,0.9952867659661542,0.4,78.72000000000008,0.008131989620906863,0.008131989620906862,0,1,1,0.4,90.0,-0.06151260626789572,-0.09216455102453358,-56,38000
cf1_sim,7.499999999999928,0.9954440396798029,0.9954440396798029,0.4,79.8400000000001,0.007863685682434313,0.007863685682434311,0,1,1,0.4,90.0,-0.06124648616801316,-0.08799100152432854,-51,38000
cf1_sim,7.519999999999928,0.995596121587723,0.995596121587723,0.4,80.86000000000008,0.007604095396005937,0.007604095396005936,0,1,1,0.4,100.0,-0.06076190486556438,-0.08406277200140243,-96,38000
cf1_sim,7.539999999999927,0.9957431804350655,0.9957431804350655,0.4,82.78000000000007,0.007352942367122887,0.007352942367122886,0,1,1,0.4,100.0,-0.061477317648705794,-0.07931323196226492,-86,38000
cf1_sim,7.559999999999927,0.9958853796080577,0.9958853796080577,0.4,84.5000000000001,0.007109958649607144,0.007109958649607143,0,1,1,0.4,100.0,-0.061752425499451556,-0.07491168236885647,-77,38000
cf1_sim,7.579999999999926,0.9960228772981206,0.9960228772981206,0.4,86.04000000000009,0.006874884503145609,0.006874884503145608,0,1,1,0.4,100.0,-0.0616668495257201,-0.07083965193104227,-70,38000
cf1_sim,7.599999999999926,0.9961558266612602,0.9961558266612602,0.4,87.44000000000008,0.00664746815698224,0.00664746815698224,0,1,1,0.4,100.0,-0.061313047276150286,-0.06705228504005332,-63,38000
cf1_sim,7.6199999999999255,0.9962843759728531,0.9962843759728531,0.4,88.7000000000001,0.006427465579646571,0.006427465579646571,0,1,1,0.4,110.0,-0.06072479660419494,-0.06354486984036094,-106,38000
cf1_sim,7.639999999999925,0.9964086687779452,0.9964086687779452,0.4,90.8200000000001,0.006214640254606394,0.006214640254606394,0,1,1,0.4,110.0,-0.06097607324626533,-0.059255241267145965,-96,38000
cf1_sim,7.659999999999925,0.9965288440371799,0.9965288440371799,0.4,92.74000000000011,0.0060087629617317445,0.0060087629617317445,0,1,1,0.4,110.0,-0.06087133670683633,-0.05531102208713053,-86,38000
cf1_sim,7.679999999999924,0.996645036268469,0.996645036268469,0.4,94.46000000000011,0.005809611564457159,0.005809611564457159,0,1,1,0.4,110.0,-0.060460703193881166,-0.05171136183090704,-78,38000
cf1_sim,7.699999999999924,0.9967573756845196,0.9967573756845196,0.4,96.02000000000012,0.005616970802529113,0.005616970802529113,0,1,1,0.4,110.0,-0.05982284031759864,-0.048409015120361595,-70,38000
cf1_sim,7.719999999999923,0.9968659883263241,0.9968659883263241,0.4,97.42000000000012,0.00543063209022553,0.00543063209022553,0,1,1,0.4,110.0,-0.05899124002964654,-0.045396575387399205,-63,38000
cf1_sim,7.739999999999923,0.9969709961927228,0.9969709961927228,0.4,98.68000000000012,0.005250393319934713,0.005250393319934713,0,1,1,0.4,110.0,-0.058010597054176084,-0.04264420405137743,-57,38000
cf1_sim,7.7599999999999225,0.9970725173661424,0.9970725173661424,0.4,99.8200000000001,0.005076058670981353,0.005076058670981353,0,1,1,0.4,110.0,-0.05691861495789296,-0.04012191810494603,-51,38000
cf1_sim,7.779999999999922,0.9971706661346142,0.9971706661346142,0.4,100.84000000000012,0.004907438423587878,0.004907438423587878,0,1,1,0.4,110.0,-0.055733810089146324,-0.037819805075615734,-46,38000
cf1_sim,7.799999999999922,0.9972655531101714,0.9972655531101714,0.4,101.76000000000012,0.004744348777860175,0.004744348777860175,0,1,1,0.4,110.0,-0.05448501483161646,-0.03570834553660228,-41,38000
cf1_sim,7.819999999999921,0.9973572853437251,0.9973572853437251,0.4,102.58000000000011,0.004586611677687457,0.004586611677687457,0,1,1,0.4,110.0,-0.0531845863251613,-0.03377801237563409,-37,38000
cf1_sim,7.839999999999921,0.9974459664365141,0.9974459664365141,0.4,103.3200000000001,0.004434054639446997,0.004434054639446997,0,1,1,0.4,110.0,-0.051854575516405856,-0.03200103889181089,-33,38000
cf1_sim,7.85999999999992,0.9975316966482222,0.9975316966482222,0.4,103.9800000000001,0.004286510585405572,0.004286510585405572,0,1,1,0.4,110.0,-0.05050280185393047,-0.030369143210787302,-30,38000
cf1_sim,7.87999999999992,0.9976145730018564,0.9976145730018564,0.4,104.5800000000001,0.004143817681710468,0.004143817681710468,0,1,1,0.4,110.0,-0.049146206935786356,-0.028856973397403524,-27,38000
cf1_sim,7.8999999999999195,0.9976946893854737,0.9976946893854737,0.4,105.1200000000001,0.0040058191808641395,0.0040058191808641395,0,1,1,0.4,110.0,-0.047789331672312516,-0.027457891497544948,-24,38000
cf1_sim,7.919999999999919,0.9977721366508452,0.9977721366508452,0.4,105.60000000000011,0.003872363268577948,0.003872363268577948,0,1,1,0.4,110.0,-0.04643615259431412,-0.0261654272705846,-22,38000
cf1_sim,7.939999999999919,0.9978470027091432,0.9978470027091432,0.4,106.04000000000012,0.00374330291490162,0.00374330291490162,0,1,1,0.4,110.0,-0.045098843010414585,-0.024957553859877503,-20,38000
cf1_sim,7.959999999999918,0.9979193726237338,0.9979193726237338,0.4,106.44000000000011,0.0036184957295265848,0.0036184957295265848,0,1,1,0.4,110.0,-0.043779222680262096,-0.023829573059911558,-18,38000
cf1_sim,7.979999999999918,0.997989328700157,0.997989328700157,0.4,106.80000000000011,0.003497803821162713,0.003497803821162713,0,1,1,0.4,110.0,-0.04247885127432685,-0.02277696020979789,-16,38000
cf1_sim,7.999999999999917,0.9980569505733747,0.9980569505733747,0.4,107.12000000000009,0.0033810936608895423,0.0033810936608895423,0,1,1,0.4,110.0,-0.04119905051203818,-0.02179536495318573,-14,38000
cf1_sim,8.019999999999918,0.9981223152923624,0.9981223152923624,0.4,107.4000000000001,0.0032682359493844816,0.0032682359493844816,0,1,1,0.4,110.0,-0.03994092499753943,-0.020880610983801735,-13,38000
cf1_sim,8.039999999999917,0.998185497402121,0.998185497402121,0.4,107.66000000000011,0.003159105487932187,0.0031591054879321866,0,1,1,0.4,110.0,-0.038712370763124414,-0.020015182958153657,-12,38000
cf1_sim,8.059999999999917,0.9982465690231834,0.9982465690231834,0.4,107.9000000000001,0.00305358105312081,0.0030535810531208095,0,1,1,0.4,110.0,-0.037513271837487955,-0.0191965110485004,-10,38000
cf1_sim,8.079999999999917,0.9983055999286861,0.9983055999286861,0.4,108.1000000000001,0.002951545275132453,0.002951545275132453,0,1,1,0.4,110.0,-0.03633702179248872,-0.01843482331602589,-9,38000
cf1_sim,8.099999999999916,0.9983626576190768,0.9983626576190768,0.4,108.28000000000011,0.002852884519536776,0.002852884519536776,0,1,1,0.4,110.0,-0.03519033499814014,-0.017714288344390098,-9,38000
cf1_sim,8.119999999999916,0.9984178073945268,0.9984178073945268,0.4,108.46000000000012,0.00275748877249838,0.00275748877249838,0,1,1,0.4,110.0,-0.0340788417088317,-0.017020799749866963,-8,38000
cf1_sim,8.139999999999915,0.998471112425113,0.998471112425113,0.4,108.62000000000013,0.002665251529310245,0.002665251529310245,0,1,1,0.4,110.0,-0.032995792811909876,-0.01636490041739123,-7,38000
cf1_sim,8.159999999999915,0.9985226338188363,0.9985226338188363,0.4,108.76000000000012,0.002576069686167109,0.002576069686167109,0,1,1,0.4,110.0,-0.03194083960207506,-0.015744549089992153,-6,38000
cf1_sim,8.179999999999914,0.9985724306875382,0.9985724306875382,0.4,108.88000000000014,0.0024898434350944395,0.0024898434350944395,0,1,1,0.4,110.0,-0.03091360096906494,-0.015157799798723903,-6,38000
cf1_sim,8.199999999999914,0.9986205602107772,0.9986205602107772,0.4,109.00000000000014,0.0024064761619502295,0.0024064761619502295,0,1,1,0.4,110.0,-0.029918762965037773,-0.014592355707626216,-5,38000
cf1_sim,8.219999999999914,0.9986670776977256,0.9986670776977256,0.4,109.10000000000011,0.002325874347418584,0.002325874347418584,0,1,1,0.4,110.0,-0.028950426068644796,-0.014057571594209945,-4,38000
cf1_sim,8.239999999999913,0.9987120366471439,0.9987120366471439,0.4,109.18000000000012,0.0022479474709156716,0.0022479474709156716,0,1,1,0.4,110.0,-0.028008165060957525,-0.013551739493484899,-4,38000
cf1_sim,8.259999999999913,0.9987554888054905,0.9987554888054905,0.4,109.26000000000012,0.002172607917330355,0.002172607917330355,0,1,1,0.4,110.0,-0.02709609631061427,-0.0130637764289463,-4,38000
cf1_sim,8.279999999999912,0.9987974842232209,0.9987974842232209,0.4,109.3400000000001,0.002099770886523376,0.002099770886523376,0,1,1,0.4,110.0,-0.02621327381507723,-0.012593065292206938,-3,38000
cf1_sim,8.299999999999912,0.9988380713093311,0.9988380713093311,0.4,109.40000000000012,0.002029354305510645,0.002029354305510645,0,1,1,0.4,110.0,-0.025354541368959375,-0.012147860796957241,-3,38000
cf1_sim,8.319999999999911,0.9988772968841962,0.9988772968841962,0.4,109.46000000000012,0.001961278743257864,0.001961278743257864,0,1,1,0.4,110.0,-0.02452355119569566,-0.011718156616498672,-3,38000
cf1_sim,8.339999999999911,0.9989152062307566,0.9989152062307566,0.4,109.52000000000012,0.0018954673280152658,0.0018954673280152658,0,1,1,0.4,110.0,-0.023719424850115623,-0.011303423688198547,-2,38000
cf1_sim,8.35999999999991,0.998951843144099,0.998951843144099,0.4,109.56000000000013,0.0018318456671228512,0.0018318456671228512,0,1,1,0.4,110.0,-0.022937503559352614,-0.010911157882486533,-2,38000
cf1_sim,8.37999999999991,0.9989872499794834,0.9989872499794834,0.4,109.60000000000014,0.0017703417692181591,0.0017703417692181591,0,1,1,0.4,110.0,-0.022181036460836103,-0.010532330474093948,-2,38000
cf1_sim,8.39999999999991,0.999021467698859,0.999021467698859,0.4,109.64000000000016,0.0017108859687800604,0.0017108859687800604,0,1,1,0.4,110.0,-0.02144920986212419,-0.010166489116140888,-2,38000
cf1_sim,8.41999999999991,0.9990545359159179,0.9990545359159179,0.4,109.68000000000015,0.001653410852943745,0.0016534108529437453,0,1,1,0.4,110.0,-0.02074123538020981,-0.0098131963089423,-2,38000
cf1_sim,8.439999999999909,0.9990864929397283,0.9990864929397283,0.4,109.72000000000016,0.001597851190523486,0.0015978511905234863,0,1,1,0.4,110.0,-0.020056349187934915,-0.009472028931064927,-1,38000
cf1_sim,8.459999999999908,0.9991173758169919,0.9991173758169919,0.4,109.74000000000015,0.0015441438631813268,0.001544143863181327,0,1,1,0.4,110.0,-0.019390618738015383,-0.009149346944366735,-1,38000
cf1_sim,8.479999999999908,0.9991472203729655,0.9991472203729655,0.4,109.76000000000013,0.0014922277986813325,0.0014922277986813327,0,1,1,0.4,110.0,-0.01874673957056999,-0.008837536997785066,-1,38000
cf1_sim,8.499999999999908,0.9991760612510889,0.9991760612510889,0.4,109.78000000000014,0.001442043906170485,0.0014420439061704853,0,1,1,0.4,110.0,-0.018124005978833877,-0.008536238462772959,-1,38000
cf1_sim,8.519999999999907,0.9992039319513575,0.9992039319513575,0.4,109.80000000000014,0.0013935350134287661,0.0013935350134287663,0,1,1,0.4,110.0,-0.01752173450244282,-0.008245102401733866,-1,38000
cf1_sim,8.539999999999907,0.9992308648674781,0.9992308648674781,0.4,109.82000000000014,0.0013466458060323414,0.0013466458060323416,0,1,1,0.4,110.0,-0.016939263252363973,-0.00796379120220205,-1,38000
cf1_sim,8.559999999999906,0.9992568913228457,0.9992568913228457,0.4,109.84000000000013,0.0013013227683752386,0.0013013227683752388,0,1,1,0.4,110.0,-0.016375951255024165,-0.007691978221815516,-1,38000
cf1_sim,8.579999999999906,0.9992820416053756,0.9992820416053756,0.4,109.86000000000014,0.0012575141264962212,0.0012575141264962214,0,1,1,0.4,110.0,-0.01583117781515195,-0.00742934744379511,-1,38000
cf1_sim,8.599999999999905,0.9993063450012287,0.9993063450012287,0.4,109.88000000000012,0.0012151697926589212,0.0012151697926589215,0,1,1,0.4,110.0,-0.015304341896862547,-0.007175593142651272,-1,38000
cf1_sim,8.619999999999905,0.9993298298274614,0.9993298298274614,0.4,109.90000000000012,0.0011742413116346188,0.001174241311634619,0,1,1,0.4,110.0,-0.01479486152252103,-0.006930419559844147,0,38000
cf1_sim,8.639999999999905,0.9993525234636342,0.9993525234636342,0.4,109.90000000000012,0.0011346818086383605,0.0011346818086383607,0,1,1,0.4,110.0,-0.014299835831191357,-0.006698532581477082,0,38000
cf1_sim,8.659999999999904,0.9993744523824116,0.9993744523824116,0.4,109.90000000000012,0.0010964459388704071,0.0010964459388704073,0,1,1,0.4,110.0,-0.013821214733795181,-0.006474330076431716,0,38000
cf1_sim,8.679999999999904,0.999395642179184,0.999395642179184,0.4,109.90000000000012,0.001059489838616193,0.0010594898386161932,0,1,1,0.4,110.0,-0.013358462041477663,-0.006257560875494887,0,38000
cf1_sim,8.699999999999903,0.9994161176007411,0.9994161176007411,0.4,109.90000000000012,0.001023771077859236,0.0010237710778592361,0,1,1,0.4,110.0,-0.01291105873843098,-0.0060479818538965,0,38000
cf1_sim,8.719999999999903,0.9994359025730284,0.9994359025730284,0.4,109.90000000000012,0.0009892486143626802,0.0009892486143626804,0,1,1,0.4,110.0,-0.012478502448813385,-0.005845357681596131,0,38000
cf1_sim,8.739999999999903,0.9994550202280119,0.9994550202280119,0.4,109.90000000000012,0.000955882749176229,0.0009558827491762292,0,1,1,0.4,110.0,-0.01206030691936075,-0.005649460580920597,0,38000
cf1_sim,8.759999999999902,0.9994734929296825,0.9994734929296825,0.4,109.90000000000012,0.0009236350835265035,0.0009236350835265037,0,1,1,0.4,110.0,-0.01165600151731941,-0.00546007009137849,0,38000
cf1_sim,8.779999999999902,0.9994913422992234,0.9994913422992234,0.4,109.90000000000012,0.000892468477049864,0.0008924684770498641,0,1,1,0.4,110.0,-0.011265130743247333,-0.005276972841439583,0,38000
cf1_sim,8.799999999999901,0.99950858923937,0.99950858923937,0.4,109.90000000000012,0.000862347007327936,0.0008623470073279361,0,1,1,0.4,110.0,-0.010887253758311854,-0.005099962327104905,0,38000
cf1_sim,8.8199999999999,0.9995252539579838,0.9995252539579838,0.4,109.90000000000012,0.0008332359306870798,0.0008332359306870799,0,1,1,0.4,110.0,-0.010521943925653386,-0.0049288386970658005,0,38000
cf1_sim,8.8399999999999,0.9995413559908682,0.9995413559908682,0.4,109.90000000000012,0.000805101644224193,0.0008051016442241931,0,1,1,0.4,110.0,-0.010168788365476977,-0.004763408544293592,0,38000
cf1_sim,8.8599999999999,0.9995569142238487,0.9995569142238487,0.4,109.90000000000012,0.0007779116490221388,0.0007779116490221388,0,1,1,0.4,110.0,-0.009827387523446087,-0.004603484703860448,0,38000
cf1_sim,8.8799999999999,0.9995719469141391,0.9995719469141391,0.4,109.90000000000012,0.0007516345145192326,0.0007516345145192326,0,1,1,0.4,110.0,-0.009497354752038462,-0.004448886056832136,0,38000
cf1_sim,8.899999999999899,0.999586471711019,0.999586471711019,0.4,109.90000000000012,0.0007262398439981277,0.0007262398439981277,0,1,1,0.4,110.0,-0.009178315904511587,-0.00429943734006756,0,38000
cf1_sim,8.919999999999899,0.9996005056758422,0.9996005056758422,0.4,109.90000000000012,0.0007016982411603837,0.0007016982411603837,0,1,1,0.4,110.0,-0.008869908941097529,-0.004154968961746928,0,38000
cf1_sim,8.939999999999898,0.9996140653013973,0.9996140653013973,0.4,109.90000000000012,0.0006779812777540175,0.0006779812777540175,0,1,1,0.4,110.0,-0.008571783547096206,-0.00401531682247358,0,38000
cf1_sim,8.959999999999898,0.9996271665306418,0.9996271665306418,0.4,109.90000000000012,0.0006550614622222227,0.0006550614622222227,0,1,1,0.4,110.0,-0.008283600762562331,-0.003880322141806667,0,38000
cf1_sim,8.979999999999897,0.9996398247748286,0.9996398247748286,0.4,109.90000000000012,0.000632912209342257,0.000632912209342257,0,1,1,0.4,110.0,-0.008005032623200682,-0.0037498312900442116,0,38000
cf1_sim,8.999999999999897,0.9996520549310451,0.9996520549310451,0.4,109.90000000000012,0.0006115078108245281,0.0006115078108245281,0,1,1,0.4,110.0,-0.007735761812212524,-0.003623695625136044,0,38000
cf1_sim,9.019999999999897,0.999663871399182,0.999663871399182,0.4,109.90000000000012,0.0005908234068425964,0.0005908234068425964,0,1,1,0.4,110.0,-0.0074754813227290145,-0.003501771334556071,0,38000
cf1_sim,9.039999999999896,0.9996752880983513,0.9996752880983513,0.4,109.90000000000012,0.0005708349584657859,0.0005708349584657859,0,1,1,0.4,110.0,-0.0072238941305742595,-0.003383919282013273,0,38000
cf1_sim,9.059999999999896,0.9996863184827706,0.9996863184827706,0.4,109.90000000000012,0.0005515192209667836,0.0005515192209667836,0,1,1,0.4,110.0,-0.006980712877032842,-0.0032700048588491623,0,38000
cf1_sim,9.079999999999895,0.9996969755571301,0.9996969755571301,0.4,109.90000000000012,0.0005328537179774765,0.0005328537179774765,0,1,1,0.4,110.0,-0.006745659561338514,-0.0031598978399889686,0,38000
cf1_sim,9.099999999999895,0.9997072718914595,0.9997072718914595,0.4,109.90000000000012,0.0005148167164670334,0.0005148167164670334,0,1,1,0.4,110.0,-0.006518465242613226,-0.00305347224431966,0,38000
cf1_sim,9.119999999999894,0.9997172196355099,0.9997172196355099,0.4,109.90000000000012,0.0004973872025169614,0.0004973872025169614,0,1,1,0.4,110.0,-0.006298869750977446,-0.002950606199364151,0,38000
cf1_sim,9.139999999999894,0.9997268305326672,0.9997268305326672,0.4,109.90000000000012,0.00048054485786861665,0.00048054485786861665,0,1,1,0.4,110.0,-0.0060866214075618015,-0.0028511818101251475,0,38000
cf1_sim,9.159999999999894,0.9997361159334116,0.9997361159334116,0.4,109.90000000000012,0.00046427003721936585,0.00046427003721936585,0,1,1,0.4,110.0,-0.00588147675317761,-0.002755085031985152,0,38000
cf1_sim,9.179999999999893,0.9997450868083365,0.9997450868083365,0.4,109.90000000000012,0.00044854374624424715,0.00044854374624424715,0,1,1,0.4,110.0,-0.005683200285357763,-0.0026622055475274057,0,38000
cf1_sim,9.199999999999893,0.9997537537607429,0.9997537537607429,0.4,109.90000000000012,0.00043334762032074903,0.00043334762032074903,0,1,1,0.4,110.0,-0.00549156420356407,-0.0025724366471822934,0,38000
cf1_sim,9.219999999999892,0.9997621270388216,0.9997621270388216,0.4,109.90000000000012,0.000418663903934871,0.000418663903934871,0,1,1,0.4,110.0,-0.005306348162294825,-0.002485675113574474,0,38000
cf1_sim,9.239999999999892,0.9997702165474366,0.9997702165474366,0.4,109.90000000000012,0.00040447543074734215,0.00040447543074734215,0,1,1,0.4,110.0,-0.005127339031870201,-0.002401821109466559,0,38000
cf1_sim,9.259999999999891,0.9997780318595225,0.9997780318595225,0.4,109.90000000000012,0.0003907656042994675,0.0003907656042994675,0,1,1,0.4,110.0,-0.004954330666654525,-0.0023207780691865123,0,38000
cf1_sim,9.279999999999891,0.9997855822271093,0.9997855822271093,0.4,109.90000000000012,0.0003775183793387179,0.0003775183793387179,0,1,1,0.4,110.0,-0.004787123680529454,-0.0022424525934515893,0,38000
cf1_sim,9.29999999999989,0.9997928765919842,0.9997928765919842,0.4,109.90000000000012,0.00036471824374467455,0.00036471824374467455,0,1,1,0.4,110.0,-0.004625525229345425,-0.0021667543474611483,0,38000
cf1_sim,9.31999999999989,0.999799923596005,0.999799923596005,0.4,109.90000000000012,0.0003523502010366696,0.0003523502010366696,0,1,1,0.4,110.0,-0.004469348800211133,-0.002093595962192633,0,38000
cf1_sim,9.33999999999989,0.9998067315910739,0.9998067315910739,0.4,109.90000000000012,0.0003403997534448392,0.0003403997534448392,0,1,1,0.4,110.0,-0.00431841400735803,-0.00202289293877752,0,38000
cf1_sim,9.35999999999989,0.9998133086487845,0.9998133086487845,0.4,109.90000000000012,0.0003288528855270073,0.0003288528855270073,0,1,1,0.4,110.0,-0.0041725463944223525,-0.001954563555883442,0,38000
cf1_sim,9.379999999999889,0.9998196625697507,0.9998196625697507,0.4,109.90000000000012,0.00031769604831424157,0.00031769604831424157,0,1,1,0.4,110.0,-0.004031577242927755,-0.0018885287800009098,0,38000
cf1_sim,9.399999999999888,0.9998258008926301,0.9998258008926301,0.4,109.90000000000012,0.00030691614396850147,0.00030691614396850147,0,1,1,0.4,110.0,-0.003895343386801246,-0.0018247121785562163,0,38000
cf1_sim,9.419999999999888,0.9998317309028488,0.9998317309028488,0.4,109.90000000000012,0.0002965005109362458,0.00029650051093624573,0,1,1,0.4,110.0,-0.0037636870327259547,-0.0017630398357585326,0,38000
cf1_sim,9.439999999999888,0.9998374596410404,0.9998374596410404,0.4,109.90000000000012,0.0002864369095823934,0.00028643690958239334,0,1,1,0.4,110.0,-0.0036364555861496074,-0.001703440271096319,0,38000
cf1_sim,9.459999999999887,0.9998429939112062,0.9998429939112062,0.4,109.90000000000012,0.0002767135082895145,0.0002767135082895144,0,1,1,0.4,110.0,-0.003513501482814425,-0.0016458443604201612,0,38000
cf1_sim,9.479999999999887,0.9998483402886064,0.9998483402886064,0.4,109.90000000000012,0.0002673188700074881,0.00026731887000748804,0,1,1,0.4,110.0,-0.003394682025580419,-0.0015901852595052168,0,38000
cf1_sim,9.499999999999886,0.9998535051273911,0.9998535051273911,0.4,109.90000000000012,0.00025824193923947307,0.000258241939239473,0,1,1,0.4,110.0,-0.003279859226442723,-0.0015363983300467285,0,38000
cf1_sim,9.519999999999886,0.9998584945679801,0.9998584945679801,0.4,109.90000000000012,0.0002494720294503034,0.0002494720294503034,0,1,1,0.4,100.0,-0.0031688996535406432,-0.0014844210679938249,50,38000
cf1_sim,9.539999999999885,0.9998633145441979,0.9998633145441979,0.4,108.90000000000012,0.00024099881088396146,0.00024099881088396146,0,1,1,0.4,100.0,-0.0030361778554596,-0.0014874081835788346,45,38000
cf1_sim,9.559999999999885,0.9998679707901734,0.9998679707901734,0.4,108.00000000000013,0.0002328122987771404,0.0002328122987771404,0,1,1,0.4,100.0,-0.0029104903974994925,-0.0014829689280351395,40,38000
cf1_sim,9.579999999999885,0.9998724688470125,0.9998724688470125,0.4,107.20000000000012,0.0002249028419563003,0.0002249028419563003,0,1,1,0.4,100.0,-0.0027916946831781976,-0.001471893631700172,36,38000
cf1_sim,9.599999999999884,0.9998768140692487,0.9998768140692487,0.4,106.48000000000012,0.0002172611118060265,0.00021726111180602652,0,1,1,0.4,90.0,-0.0026790995075976175,-0.00145584345181425,82,38000
cf1_sim,9.619999999999884,0.9998810116310806,0.9998810116310806,0.4,104.84000000000012,0.0002098780915968543,0.00020987809159685433,0,1,1,0.4,90.0,-0.002547068196000495,-0.0014800495231786944,74,38000
cf1_sim,9.639999999999883,0.9998850665324038,0.9998850665324038,0.4,103.36000000000013,0.0002027450661611306,0.0002027450661611306,0,1,1,0.4,90.0,-0.0024230546726718965,-0.0014930060285706847,67,38000
cf1_sim,9.659999999999883,0.999888983604642,0.999888983604642,0.4,102.02000000000011,0.00019585361190575232,0.00019585361190575232,0,1,1,0.4,90.0,-0.0023066082758451626,-0.0014967844705351262,60,38000
cf1_sim,9.679999999999882,0.999892767516385,0.999892767516385,0.4,100.8200000000001,0.0001891955871510881,0.0001891955871510881,0,1,1,0.4,90.0,-0.0021976919814656807,-0.0014924287477809323,54,38000
cf1_sim,9.699999999999882,0.9998964227788407,0.9998964227788407,0.4,99.74000000000011,0.00018276312278557545,0.00018276312278557545,0,1,1,0.4,80.0,-0.0020956723523335905,-0.0014816233064525294,99,38000
cf1_sim,9.719999999999882,0.9998999537511052,0.9998999537511052,0.4,97.7600000000001,0.0001765486132259437,0.0001765486132259437,0,1,1,0.4,80.0,-0.001973986905688175,-0.0015005108529408848,89,38000
cf1_sim,9.739999999999881,0.9999033646452586,0.9999033646452586,0.4,95.9800000000001,0.00017054470767323662,0.00017054470767323662,0,1,1,0.4,80.0,-0.0018611304350493244,-0.0015081896840074176,80,38000
cf1_sim,9.75999999999988,0.9999066595312918,0.9999066595312918,0.4,94.38000000000011,0.00016474430165514287,0.00016474430165514285,0,1,1,0.4,80.0,-0.0017566536991876916,-0.0015066982871337821,72,38000
cf1_sim,9.77999999999988,0.9999098423418686,0.9999098423418686,0.4,92.94000000000011,0.00015914052884546964,0.0001591405288454696,0,1,1,0.4,80.0,-0.0016599783165683513,-0.0014978017947403566,65,38000
cf1_sim,9.79999999999988,0.9999129168769316,0.9999129168769316,0.4,91.64000000000013,0.0001537267531518265,0.00015372675315182647,0,1,1,0.4,70.0,-0.001570446106603261,-0.001483021602876531,108,38000
cf1_sim,9.81999999999988,0.9999158868081529,0.9999158868081529,0.4,89.48000000000012,0.00014849656106287736,0.00014849656106287733,0,1,1,0.4,70.0,-0.001462105804429307,-0.0014888889183384893,97,38000
cf1_sim,9.839999999999879,0.9999187556832378,0.9999187556832378,0.4,87.54000000000012,0.0001434437542468224,0.00014344375424682238,0,1,1,0.4,70.0,-0.0013630069550012007,-0.001485377843003266,88,38000
cf1_sim,9.859999999999879,0.9999215269300857,0.9999215269300857,0.4,85.78000000000013,0.0001385623423930255,0.00013856234239302548,0,1,1,0.4,70.0,-0.0012720720282826635,-0.0014747500499026195,79,38000
cf1_sim,9.879999999999878,0.9999242038608115,0.9999242038608115,0.4,84.20000000000012,0.00013384653628889233,0.0001338465362888923,0,1,1,0.4,70.0,-0.0011891592826915988,-0.0014580533345966255,71,38000
cf1_sim,9.899999999999878,0.999926789675634,0.999926789675634,0.4,82.78000000000011,0.0001292907411244544,0.00012929074112445437,0,1,1,0.4,59.99999999999999,-0.0011135454938973864,-0.0014366093940970342,114,38000
cf1_sim,9.919999999999877,0.9999292874666343,0.9999292874666343,0.4,80.50000000000011,0.0001248895500172528,0.0001248895500172528,0,1,1,0.4,59.99999999999999,-0.0010196866755278764,-0.0014295479956565453,103,38000
cf1_sim,9.939999999999877,0.9999317002213893,0.9999317002213893,0.4,78.44000000000011,0.0001206377377504356,0.0001206377377504356,0,1,1,0.4,59.99999999999999,-0.0009347941890967453,-0.0014155384591803722,92,38000
cf1_sim,9.959999999999877,0.9999340308264837,0.9999340308264837,0.4,76.60000000000011,0.00011653025471714679,0.00011653025471714679,0,1,1,0.4,59.99999999999999,-0.0008586844129004395,-0.0013957715924478966,83,38000
cf1_sim,9.979999999999876,0.999936282070905,0.999936282070905,0.4,74.94000000000011,0.00011256222106450523,0.00011256222106450523,0,1,1,0.4,59.99999999999999,-0.0007901194773408223,-0.0013718427386851543,75,38000
