Crazyflie name,QTM packet timestamp (s),QTM_x (m),QTM_y (m),QTM_z (m),cf_yaw (°),QTM_vx (m/s),QTM_vy (m/s),QTM_vz (m/s),x_g (m),y_g (m),z_g (m),yaw_g (°),roll_c (°),pitch_c (°),yaw_rate_c (°/s),thrust_c (PWM)
cf1_sim,3.000000000000002,0.0,0.0,0.4,0.0,0.0,0.0,0,1,1,0.4,0.0,-20,20,0,38000
cf1_sim,3.0200000000000022,0.0013697343969651498,0.0013697343969651498,0.4,0.0,0.0684867198482575,0.0684867198482575,0,1,1,0.4,0.0,-20,20,0,38000
cf1_sim,3.0400000000000023,0.004109203190895449,0.004109203190895449,0.4,0.0,0.136973439696515,0.136973439696515,0,1,1,0.4,0.0,-19.684935805232932,19.684935805232932,0,38000
cf1_sim,3.0600000000000023,0.00819682866854967,0.00819682866854967,0.4,0.0,0.20438127388271105,0.20438127388271105,0,1,1,0.4,0.0,-18.046380567998355,18.046380567998355,0,38000
cf1_sim,3.0800000000000023,0.013520391556439432,0.013520391556439432,0.4,0.0,0.2661781443944881,0.2661781443944881,0,1,1,0.4,0.0,-16.508093546842417,16.508093546842417,0,38000
cf1_sim,3.1000000000000023,0.01997453962230062,0.01997453962230062,0.4,0.0,0.3227074032930593,0.3227074032930593,0,1,1,0.4,0.0,-15.064620187475677,15.064620187475677,0,38000
cf1_sim,3.1200000000000023,0.027460414110561857,0.027460414110561857,0.4,0.0,0.37429372441306186,0.37429372441306186,0,1,1,0.4,0.0,-13.71078518950578,13.71078518950578,0,38000
cf1_sim,3.1400000000000023,0.03588529530299642,0.03588529530299642,0.4,0.0,0.4212440596217279,0.4212440596217279,0,1,1,0.4,0.0,-12.441678713743105,12.441678713743105,0,38000
cf1_sim,3.1600000000000024,0.04516226625994113,0.04516226625994113,0.4,0.0,0.4638485478472355,0.4638485478472355,0,1,1,0.4,0.0,-11.2526432552892,11.2526432552892,0,38000
cf1_sim,3.1800000000000024,0.05520989384306321,0.05520989384306321,0.4,0.0,0.5023813791561043,0.5023813791561043,0,1,1,0.4,0.0,-10.139261150761252,10.139261150761252,0,38000
cf1_sim,3.2000000000000024,0.06595192616408581,0.06595192616408581,0.4,0.0,0.5371016160511296,0.5371016160511296,0,1,1,0.4,0.0,-9.097342689494422,9.097342689494422,0,38000
cf1_sim,3.2200000000000024,0.0773170056452474,0.0773170056452474,0.4,0.0,0.5682539740580795,0.5682539740580795,0,1,1,0.4,0.0,-8.122914799982384,8.122914799982384,0,38000
cf1_sim,3.2400000000000024,0.08923839691666666,0.08923839691666666,0.4,0.0,0.5960695635709624,0.5960695635709624,0,1,1,0.4,0.0,-7.212210284169198,7.212210284169198,0,38000
cf1_sim,3.2600000000000025,0.10165372881330452,0.10165372881330452,0.4,0.0,0.6207665948318933,0.6207665948318933,0,1,1,0.4,0.0,-6.361657573494998,6.361657573494998,0,38000
cf1_sim,3.2800000000000025,0.11450474976994889,0.11450474976994889,0.4,0.0,0.6425510478322182,0.6425510478322182,0,1,1,0.4,0.0,-5.567870981827155,5.567870981827155,0,38000
cf1_sim,3.3000000000000025,0.1277370959466769,0.1277370959466769,0.4,0.0,0.6616173088364001,0.6616173088364001,0,1,1,0.4,0.0,-4.827641431580323,4.827641431580323,0,38000
cf1_sim,3.3200000000000025,0.1413000714496574,0.1413000714496574,0.4,0.0,0.6781487751490243,0.6781487751490243,0,1,1,0.4,0.0,-4.137927630445855,4.137927630445855,0,38000
cf1_sim,3.3400000000000025,0.1551464400430166,0.1551464400430166,0.4,0.0,0.6923184296679598,0.6923184296679598,0,1,1,0.4,0.0,-3.4958476772156737,3.4958476772156737,0,38000
cf1_sim,3.3600000000000025,0.16923222777687744,0.16923222777687744,0.4,0.0,0.7042893866930423,0.7042893866930423,0,1,1,0.4,0.0,-2.898671076200841,2.898671076200841,0,38000
cf1_sim,3.3800000000000026,0.1835165359846663,0.1835165359846663,0.4,0.0,0.714215410389443,0.714215410389443,0,1,1,0.4,0.0,-2.343811140712444,2.343811140712444,0,38000
cf1_sim,3.4000000000000026,0.19796136412942636,0.19796136412942636,0.4,0.0,0.7222414072380029,0.7222414072380029,0,1,1,0.4,0.0,-1.8288177669947179,1.8288177669947179,0,38000
cf1_sim,3.4200000000000026,0.2125314420042481,0.2125314420042481,0.4,0.0,0.728503893741087,0.728503893741087,0,1,1,0.4,0.0,-1.3513705608792814,1.3513705608792814,0,38000
cf1_sim,3.4400000000000026,0.22719407081608395,0.22719407081608395,0.4,0.0,0.7331314405917931,0.7331314405917931,0,1,1,0.4,0.0,-0.9092723002674284,0.9092723002674284,0,38000
cf1_sim,3.4600000000000026,0.241918972705214,0.241918972705214,0.4,0.0,0.736245094456503,0.736245094456503,0,1,1,0.4,0.0,-0.5004427173458946,0.5004427173458946,0,38000
cf1_sim,3.4800000000000026,0.25667814827452706,0.25667814827452706,0.4,0.0,0.7379587784656514,0.7379587784656514,0,1,1,0.4,0.0,-0.12291258520289727,0.12291258520289727,0,38000
cf1_sim,3.5000000000000027,0.27144574172362873,0.27144574172362873,0.4,0.0,0.7383796724550822,0.7383796724550822,0,1,1,0.4,0.0,0.22518190576325203,-0.22518190576325203,0,38000
cf1_sim,3.5200000000000027,0.2861979132026355,0.2861979132026355,0.4,0.0,0.737608573950337,0.737608573950337,0,1,1,0.4,0.0,0.545604495559096,-0.545604495559096,0,38000
cf1_sim,3.5400000000000027,0.30091271801940694,0.30091271801940694,0.4,0.0,0.7357402408385717,0.7357402408385717,0,1,1,0.4,0.0,0.8400239396915278,-0.8400239396915278,0,38000
cf1_sim,3.5600000000000027,0.3155699923519549,0.3155699923519549,0.4,0.0,0.7328637166273976,0.7328637166273976,0,1,1,0.4,0.0,1.1100188442727081,-1.1100188442727081,0,38000
cf1_sim,3.5800000000000027,0.33015124513488886,0.33015124513488886,0.4,0.0,0.729062639146698,0.729062639146698,0,1,1,0.4,0.0,1.3570822631643902,-1.3570822631643902,0,38000
cf1_sim,3.6000000000000028,0.34463955580505445,0.34463955580505445,0.4,0.0,0.724415533508279,0.724415533508279,0,1,1,0.4,0.0,1.582626068621185,-1.582626068621185,0,38000
cf1_sim,3.6200000000000028,0.35901947760703384,0.35901947760703384,0.4,0.0,0.7189960900989686,0.7189960900989686,0,1,1,0.4,0.0,1.7879851063484256,-1.7879851063484256,0,38000
cf1_sim,3.640000000000003,0.37327694617394186,0.37327694617394186,0.4,0.0,0.7128734283454015,0.7128734283454015,0,1,1,0.4,0.0,1.9744211453719032,-1.9744211453719032,0,38000
cf1_sim,3.660000000000003,0.3873991931130043,0.3873991931130043,0.4,0.0,0.7061123469531234,0.7061123469531234,0,1,1,0.4,0.0,2.143126632623047,-2.143126632623047,0,38000
cf1_sim,3.680000000000003,0.401374664338779,0.401374664338779,0.4,0.0,0.6987735612887337,0.6987735612887337,0,1,1,0.4,0.0,2.295228261672155,-2.295228261672155,0,38000
cf1_sim,3.700000000000003,0.41519294290960873,0.41519294290960873,0.4,0.0,0.6909139285414865,0.6909139285414865,0,1,1,0.4,0.0,2.4317903645939682,-2.4317903645939682,0,38000
cf1_sim,3.720000000000003,0.4288446761350088,0.4288446761350088,0.4,0.0,0.6825866612700046,0.6825866612700046,0,1,1,0.4,0.0,2.553818135522213,-2.553818135522213,0,38000
cf1_sim,3.740000000000003,0.442321506733218,0.442321506733218,0.4,0.0,0.6738415299104591,0.6738415299104591,0,1,1,0.4,0.0,2.662260694042491,-2.662260694042491,0,38000
cf1_sim,3.760000000000003,0.45561600782911127,0.45561600782911127,0.4,0.0,0.6647250547946633,0.6647250547946633,0,1,1,0.4,0.0,2.758013996184727,-2.758013996184727,0,38000
cf1_sim,3.780000000000003,0.46872162159311026,0.46872162159311026,0.4,0.0,0.6552806881999494,0.6552806881999494,0,1,1,0.4,0.0,2.841923600406431,-2.841923600406431,0,38000
cf1_sim,3.800000000000003,0.4816326013316581,0.4816326013316581,0.4,0.0,0.6455489869273902,0.6455489869273902,0,1,1,0.4,0.0,2.914787295605619,-2.914787295605619,0,38000
cf1_sim,3.820000000000003,0.49434395684927446,0.49434395684927446,0.4,0.0,0.63556777588082,0.63556777588082,0,1,1,0.4,0.0,2.97735759786639,-2.97735759786639,0,38000
cf1_sim,3.840000000000003,0.5068514029111977,0.5068514029111977,0.4,0.0,0.6253723030961622,0.6253723030961622,0,1,1,0.4,0.0,3.030344122320124,-3.030344122320124,0,38000
cf1_sim,3.860000000000003,0.5191513106441717,0.5191513106441717,0.4,0.0,0.6149953866487046,0.6149953866487046,0,1,1,0.4,0.0,3.0744158362003358,-3.0744158362003358,0,38000
cf1_sim,3.880000000000003,0.531240661721075,0.531240661721075,0.4,0.0,0.6044675538451596,0.6044675538451596,0,1,1,0.4,0.0,3.1102031988787298,-3.1102031988787298,0,38000
cf1_sim,3.900000000000003,0.5431170051828255,0.5431170051828255,0.4,0.0,0.5938171730875215,0.5938171730875215,0,1,1,0.4,0.0,3.1383001943931625,-3.1383001943931625,0,38000
cf1_sim,3.920000000000003,0.5547784167583627,0.5547784167583627,0.4,0.0,0.5830705787768646,0.5830705787768646,0,1,1,0.4,0.0,3.159266261714502,-3.159266261714502,0,38000
cf1_sim,3.940000000000003,0.5662234605505079,0.5662234605505079,0.4,0.0,0.57225218960726,0.57225218960726,0,1,1,0.4,0.0,3.1736281277480765,-3.1736281277480765,0,38000
cf1_sim,3.960000000000003,0.5774511529621654,0.5774511529621654,0.4,0.0,0.5613846205828784,0.5613846205828784,0,1,1,0.4,0.0,3.1818815478260243,-3.1818815478260243,0,38000
cf1_sim,3.980000000000003,0.5884609287436667,0.5884609287436667,0.4,0.0,0.5504887890750634,0.5504887890750634,0,1,1,0.4,0.0,3.184492958218787,-3.184492958218787,0,38000
cf1_sim,4.000000000000003,0.5992526090480798,0.5992526090480798,0.4,0.0,0.5395840152206495,0.5395840152206495,0,1,1,0.4,0.0,3.181901044976706,-3.181901044976706,0,38000
cf1_sim,4.020000000000002,0.6098263713870405,0.6098263713870405,0.4,0.0,0.5286881169480396,0.5286881169480396,0,1,1,0.4,0.0,3.1745182332056667,-3.1745182332056667,0,38000
cf1_sim,4.040000000000002,0.6201827213851105,0.6201827213851105,0.4,0.0,0.5178174999035026,0.5178174999035026,0,1,1,0.4,0.0,3.162732100683579,-3.162732100683579,0,38000
cf1_sim,4.060000000000001,0.630322466235846,0.630322466235846,0.4,0.0,0.5069872425367722,0.5069872425367722,0,1,1,0.4,0.0,3.1469067195365907,-3.1469067195365907,0,38000
cf1_sim,4.080000000000001,0.640246689767692,0.640246689767692,0.4,0.0,0.49621117659229713,0.49621117659229713,0,1,1,0.4,0.0,3.127383929515035,-3.127383929515035,0,38000
cf1_sim,4.1000000000000005,0.6499567290324992,0.6499567290324992,0.4,0.0,0.4855019632403652,0.4855019632403652,0,1,1,0.4,0.0,3.104484546238604,-3.104484546238604,0,38000
cf1_sim,4.12,0.659454152333915,0.659454152333915,0.4,0.0,0.4748711650707908,0.4748711650707908,0,1,1,0.4,0.0,3.07850950761793,-3.07850950761793,0,38000
cf1_sim,4.14,0.6687407386171325,0.6687407386171325,0.4,0.0,0.4643293141608695,0.4643293141608695,0,1,1,0.4,0.0,3.049740961505051,-3.049740961505051,0,38000
cf1_sim,4.159999999999999,0.6778184581455095,0.6778184581455095,0.4,0.0,0.45388597641885187,0.45388597641885187,0,1,1,0.4,0.0,3.0184432974779303,-3.0184432974779303,0,38000
cf1_sim,4.179999999999999,0.6866894543933942,0.6866894543933942,0.4,0.0,0.4435498123942408,0.4435498123942408,0,1,1,0.4,0.0,2.984864125523937,-2.984864125523937,0,38000
cf1_sim,4.199999999999998,0.6953560270881292,0.6953560270881292,0.4,0.0,0.4333286347367472,0.4333286347367472,0,1,1,0.4,0.0,2.9492352042534717,-2.9492352042534717,0,38000
cf1_sim,4.219999999999998,0.7038206163376638,0.7038206163376638,0.4,0.0,0.42322946247673093,0.42322946247673093,0,1,1,0.4,0.0,2.911773321147717,-2.911773321147717,0,38000
cf1_sim,4.2399999999999975,0.7120857877834913,0.7120857877834913,0.4,0.0,0.41325857229137725,0.41325857229137725,0,1,1,0.4,0.0,2.8726811272232267,-2.8726811272232267,0,38000
cf1_sim,4.259999999999997,0.7201542187217453,0.7201542187217453,0.4,0.0,0.40342154691270155,0.40342154691270155,0,1,1,0.4,0.0,2.832147928380642,-2.832147928380642,0,38000
cf1_sim,4.279999999999997,0.7280286851382596,0.7280286851382596,0.4,0.0,0.39372332082571015,0.39372332082571015,0,1,1,0.4,0.0,2.7903504355948376,-2.7903504355948376,0,38000
cf1_sim,4.299999999999996,0.7357120496062127,0.7357120496062127,0.4,0.0,0.3841682233976578,0.3841682233976578,0,1,1,0.4,0.0,2.747453475999153,-2.747453475999153,0,38000
cf1_sim,4.319999999999996,0.743207249997659,0.743207249997659,0.4,0.0,0.3747600195723141,0.3747600195723141,0,1,1,0.4,0.0,2.703610666816609,-2.703610666816609,0,38000
cf1_sim,4.339999999999995,0.7505172889627882,0.7505172889627882,0.4,0.0,0.3655019482564626,0.3655019482564626,0,1,1,0.4,0.0,2.658965053996076,-2.658965053996076,0,38000
cf1_sim,4.359999999999995,0.7576452241331781,0.7576452241331781,0.4,0.0,0.3563967585194958,0.3563967585194958,0,1,1,0.4,0.0,2.6136497173209463,-2.6136497173209463,0,38000
cf1_sim,4.379999999999995,0.7645941590075964,0.7645941590075964,0.4,0.0,0.34744674372091394,0.34744674372091394,0,1,1,0.4,0.0,2.567788343671774,-2.567788343671774,0,38000
cf1_sim,4.399999999999994,0.771367234481092,0.771367234481092,0.4,0.0,0.33865377367478045,0.33865377367478045,0,1,1,0.4,0.0,2.52149577004236,-2.52149577004236,0,38000
cf1_sim,4.419999999999994,0.7779676209801861,0.7779676209801861,0.4,0.0,0.3300193249547076,0.3300193249547076,0,1,1,0.4,0.0,2.474878497830725,-2.474878497830725,0,38000
cf1_sim,4.439999999999993,0.7843985111689409,0.7843985111689409,0.4,0.0,0.32154450943773716,0.32154450943773716,0,1,1,0.4,0.0,2.4280351798520647,-2.4280351798520647,0,38000
cf1_sim,4.459999999999993,0.7906631131925513,0.7906631131925513,0.4,0.0,0.3132301011805251,0.3132301011805251,0,1,1,0.4,0.0,2.3810570814500727,-2.3810570814500727,0,38000
cf1_sim,4.479999999999992,0.7967646444268819,0.7967646444268819,0.4,0.0,0.30507656171652603,0.30507656171652603,0,1,1,0.4,0.0,2.334028517015626,-2.334028517015626,0,38000
cf1_sim,4.499999999999992,0.8027063257040498,0.8027063257040498,0.4,0.0,0.29708406385839137,0.29708406385839137,0,1,1,0.4,0.0,2.287027263157688,-2.287027263157688,0,38000
cf1_sim,4.519999999999992,0.8084913759857604,0.8084913759857604,0.4,0.0,0.289252514085531,0.289252514085531,0,1,1,0.4,0.0,2.2401249497102667,-2.2401249497102667,0,38000
cf1_sim,4.539999999999991,0.8141230074576151,0.8141230074576151,0.4,0.0,0.28158157359273606,0.28158157359273606,0,1,1,0.4,0.0,2.193387429701135,-2.193387429701135,0,38000
cf1_sim,4.559999999999991,0.8196044210190532,0.8196044210190532,0.4,0.0,0.2740706780719045,0.2740706780719045,0,1,1,0.4,0.0,2.1468751293526593,-2.1468751293526593,0,38000
cf1_sim,4.57999999999999,0.8249388021449581,0.8249388021449581,0.4,0.0,0.2667190562952461,0.2667190562952461,0,1,1,0.4,0.0,2.1006433791325003,-2.1006433791325003,0,38000
cf1_sim,4.59999999999999,0.8301293170962553,0.8301293170962553,0.4,0.0,0.2595257475648589,0.2595257475648589,0,1,1,0.4,0.0,2.0547427268217344,-2.0547427268217344,0,38000
cf1_sim,4.6199999999999894,0.8351791094580604,0.8351791094580604,0.4,0.0,0.25248961809025466,0.25248961809025466,0,1,1,0.4,0.0,2.0092192335202985,-2.0092192335202985,0,38000
cf1_sim,4.639999999999989,0.8400912969851057,0.8400912969851057,0.4,0.0,0.2456093763522629,0.2456093763522629,0,1,1,0.4,0.0,1.964114753464225,-1.964114753464225,0,38000
cf1_sim,4.659999999999989,0.8448689687352806,0.8448689687352806,0.4,0.0,0.23888358750874622,0.23888358750874622,0,1,1,0.4,0.0,1.919467198485915,-1.919467198485915,0,38000
cf1_sim,4.679999999999988,0.8495151824731749,0.8495151824731749,0.4,0.0,0.23231068689471499,0.23231068689471499,0,1,1,0.4,0.0,1.8753107879075586,-1.8753107879075586,0,38000
cf1_sim,4.699999999999988,0.8540329623265094,0.8540329623265094,0.4,0.0,0.225888992666723,0.225888992666723,0,1,1,0.4,0.0,1.8316762846186925,-1.8316762846186925,0,38000
cf1_sim,4.719999999999987,0.8584252966792865,0.8584252966792865,0.4,0.0,0.21961671763885413,0.21961671763885413,0,1,1,0.4,0.0,1.7885912180515988,-1.7885912180515988,0,38000
cf1_sim,4.739999999999987,0.8626951362863898,0.8626951362863898,0.4,0.0,0.21349198035516645,0.21349198035516645,0,1,1,0.4,0.0,1.7460800947328374,-1.7460800947328374,0,38000
cf1_sim,4.7599999999999865,0.8668453925952125,0.8668453925952125,0.4,0.0,0.20751281544113712,0.20751281544113712,0,1,1,0.4,0.0,1.7041645970554387,-1.7041645970554387,0,38000
cf1_sim,4.779999999999986,0.8708789362607015,0.8708789362607015,0.4,0.0,0.2016771832744444,0.2016771832744444,0,1,1,0.4,0.0,1.6628637708842249,-1.6628637708842249,0,38000
cf1_sim,4.799999999999986,0.874798595840968,0.874798595840968,0.4,0.0,0.19598297901332615,0.19598297901332615,0,1,1,0.4,0.0,1.6221942025761473,-1.6221942025761473,0,38000
cf1_sim,4.819999999999985,0.8786071566613431,0.8786071566613431,0.4,0.0,0.19042804101876115,0.19042804101876115,0,1,1,0.4,0.0,1.582170185968523,-1.582170185968523,0,38000
cf1_sim,4.839999999999985,0.8823073598354397,0.8823073598354397,0.4,0.0,0.18501015870482657,0.18501015870482657,0,1,1,0.4,0.0,1.5428038798603718,-1.5428038798603718,0,38000
cf1_sim,4.859999999999984,0.8859019014324354,0.8859019014324354,0.4,0.0,0.17972707984978648,0.17972707984978648,0,1,1,0.4,0.0,1.504105456485757,-1.504105456485757,0,38000
cf1_sim,4.879999999999984,0.8893934317804105,0.8893934317804105,0.4,0.0,0.1745765173987577,0.1745765173987577,0,1,1,0.4,0.0,1.466083241453082,-1.466083241453082,0,38000
cf1_sim,4.8999999999999835,0.892784554896154,0.892784554896154,0.4,0.0,0.1695561557871766,0.1695561557871766,0,1,1,0.4,0.0,1.4287438456003871,-1.4287438456003871,0,38000
cf1_sim,4.919999999999983,0.896077828032409,0.896077828032409,0.4,0.0,0.1646636568127488,0.1646636568127488,0,1,1,0.4,0.0,1.392092289194157,-1.392092289194157,0,38000
cf1_sim,4.939999999999983,0.899275761334051,0.899275761334051,0.4,0.0,0.15989666508210082,0.15989666508210082,0,1,1,0.4,0.0,1.3561321188775683,-1.3561321188775683,0,38000
cf1_sim,4.959999999999982,0.9023808175951902,0.9023808175951902,0.4,0.0,0.15525281305696123,0.15525281305696123,0,1,1,0.4,0.0,1.3208655177536361,-1.3208655177536361,0,38000
cf1_sim,4.979999999999982,0.9053954121096578,0.9053954121096578,0.4,0.0,0.1507297257233804,0.1507297257233804,0,1,1,0.4,0.0,1.2862934089692444,-1.2862934089692444,0,38000
cf1_sim,4.999999999999981,0.9083219126077826,0.9083219126077826,0.4,0.0,0.14632502490624355,0.14632502490624355,0,1,1,0.4,0.0,1.252415553147532,-1.252415553147532,0,38000
cf1_sim,5.019999999999981,0.9111626392727855,0.9111626392727855,0.4,0.0,0.14203633325014278,0.14203633325014278,0,1,1,0.4,0.0,1.2192306399984898,-1.2192306399984898,0,38000
cf1_sim,5.0399999999999805,0.9139198648305163,0.9139198648305163,0.4,0.0,0.13786127788654337,0.13786127788654337,0,1,1,0.4,0.0,1.186736374420841,-1.186736374420841,0,38000
cf1_sim,5.05999999999998,0.9165958147066385,0.9165958147066385,0.4,0.0,0.13379749380610853,0.13379749380610853,0,1,1,0.4,0.0,1.1549295573924363,-1.1549295573924363,0,38000
cf1_sim,5.07999999999998,0.9191926672457191,0.9191926672457191,0.4,0.0,0.12984262695402815,0.12984262695402815,0,1,1,0.4,0.0,1.1238061619311381,-1.1238061619311381,0,38000
cf1_sim,5.099999999999979,0.9217125539870238,0.9217125539870238,0.4,0.0,0.12599433706523197,0.12599433706523197,0,1,1,0.4,0.0,1.0933614043938744,-1.0933614043938744,0,38000
cf1_sim,5.119999999999979,0.9241575599921328,0.9241575599921328,0.4,0.0,0.12225030025545094,0.12225030025545094,0,1,1,0.4,0.0,1.063589811367798,-1.063589811367798,0,38000
cf1_sim,5.139999999999978,0.9265297242197972,0.9265297242197972,0.4,0.0,0.11860821138322057,0.11860821138322057,0,1,1,0.4,0.0,1.0344852823944855,-1.0344852823944855,0,38000
cf1_sim,5.159999999999978,0.9288310399437391,0.9288310399437391,0.4,0.0,0.11506578619709573,0.11506578619709573,0,1,1,0.4,0.0,1.0060411487557515,-1.0060411487557515,0,38000
cf1_sim,5.1799999999999775,0.9310634552093703,0.9310634552093703,0.4,0.0,0.11162076328156302,0.11162076328156302,0,1,1,0.4,0.0,0.9782502285378986,-0.9782502285378986,0,38000
cf1_sim,5.199999999999977,0.9332288733256582,0.9332288733256582,0.4,0.0,0.10827090581439458,0.10827090581439458,0,1,1,0.4,0.0,0.9511048781800304,-0.9511048781800304,0,38000
cf1_sim,5.219999999999977,0.9353291533886079,0.9353291533886079,0.4,0.0,0.10501400314748324,0.10501400314748324,0,1,1,0.4,0.0,0.9245970407014575,-0.9245970407014575,0,38000
cf1_sim,5.239999999999976,0.9373661108330585,0.9373661108330585,0.4,0.0,0.1018478722225308,0.1018478722225308,0,1,1,0.4,0.0,0.8987182907931173,-0.8987182907931173,0,38000
cf1_sim,5.259999999999976,0.9393415180097051,0.9393415180097051,0.4,0.0,0.09877035883232815,0.09877035883232815,0,1,1,0.4,0.0,0.8734598769483545,-0.8734598769483545,0,38000
cf1_sim,5.279999999999975,0.9412571047844605,0.9412571047844605,0.4,0.0,0.09577933873776538,0.09577933873776538,0,1,1,0.4,0.0,0.848812760799271,-0.848812760799271,0,38000
cf1_sim,5.299999999999975,0.9431145591574632,0.9431145591574632,0.4,0.0,0.0928727186501411,0.0928727186501411,0,1,1,0.4,0.0,0.8247676538162154,-0.8247676538162154,0,38000
cf1_sim,5.3199999999999745,0.9449155278992193,0.9449155278992193,0.4,0.0,0.09004843708780032,0.09004843708780032,0,1,1,0.4,0.0,0.8013150515197622,-0.8013150515197622,0,38000
cf1_sim,5.339999999999974,0.9466616172015316,0.9466616172015316,0.4,0.0,0.08730446511561901,0.08730446511561901,0,1,1,0.4,0.0,0.7784452653466671,-0.7784452653466671,0,38000
cf1_sim,5.359999999999974,0.948354393341039,0.948354393341039,0.4,0.0,0.08463880697536903,0.08463880697536903,0,1,1,0.4,0.0,0.7561484523039488,-0.7561484523039488,0,38000
cf1_sim,5.379999999999973,0.9499953833533298,0.9499953833533298,0.4,0.0,0.08204950061453734,0.08204950061453734,0,1,1,0.4,0.0,0.7344146425380884,-0.7344146425380884,0,38000
cf1_sim,5.399999999999973,0.9515860757157446,0.9515860757157446,0.4,0.0,0.07953461812073913,0.07953461812073913,0,1,1,0.4,0.0,0.7132337649397249,-0.7132337649397249,0,38000
cf1_sim,5.419999999999972,0.9531279210371136,0.9531279210371136,0.4,0.0,0.07709226606845189,0.07709226606845189,0,1,1,0.4,0.0,0.6925956708978303,-0.6925956708978303,0,38000
cf1_sim,5.439999999999972,0.9546223327528017,0.9546223327528017,0.4,0.0,0.0747205857844071,0.0747205857844071,0,1,1,0.4,0.0,0.6724901563113013,-0.6724901563113013,0,38000
cf1_sim,5.4599999999999715,0.9560706878235539,0.9560706878235539,0.4,0.0,0.07241775353760695,0.07241775353760695,0,1,1,0.4,0.0,0.652906981960178,-0.652906981960178,0,38000
cf1_sim,5.479999999999971,0.9574743274367455,0.9574743274367455,0.4,0.0,0.07018198065958305,0.07018198065958305,0,1,1,0.4,0.0,0.6338358923332464,-0.6338358923332464,0,38000
cf1_sim,5.499999999999971,0.9588345577087493,0.9588345577087493,0.4,0.0,0.06801151360018318,0.06801151360018318,0,1,1,0.4,0.0,0.6152666330036313,-0.6152666330036313,0,38000
cf1_sim,5.51999999999997,0.9601526503872264,0.9601526503872264,0.4,0.0,0.06590463392385816,0.06590463392385816,0,1,1,0.4,0.0,0.5971889666390405,-0.5971889666390405,0,38000
cf1_sim,5.53999999999997,0.9614298435522489,0.9614298435522489,0.4,0.0,0.06385965825112425,0.06385965825112425,0,1,1,0.4,0.0,0.5795926877287066,-0.5795926877287066,0,38000
cf1_sim,5.559999999999969,0.9626673423152409,0.9626673423152409,0.4,0.0,0.06187493814959552,0.06187493814959552,0,1,1,0.4,0.0,0.5624676361045974,-0.5624676361045974,0,38000
cf1_sim,5.579999999999969,0.9638663195148152,0.9638663195148152,0.4,0.0,0.05994885997871516,0.05994885997871516,0,1,1,0.4,0.0,0.5458037093303171,-0.5458037093303171,0,38000
cf1_sim,5.599999999999969,0.9650279164086564,0.9650279164086564,0.4,0.0,0.0580798446920629,0.0580798446920629,0,1,1,0.4,0.0,0.5295908740271168,-0.5295908740271168,0,38000
cf1_sim,5.619999999999968,0.966153243360674,0.966153243360674,0.4,0.0,0.05626634760087845,0.05626634760087845,0,1,1,0.4,0.0,0.5138191762026407,-0.5138191762026407,0,38000
cf1_sim,5.639999999999968,0.9672433805227183,0.9672433805227183,0.4,0.0,0.05450685810221582,0.05450685810221582,0,1,1,0.4,0.0,0.4984787506444608,-0.4984787506444608,0,38000
cf1_sim,5.659999999999967,0.968299378510217,0.968299378510217,0.4,0.0,0.052799899374930986,0.052799899374930986,0,1,1,0.4,0.0,0.4835598294370765,-0.4835598294370765,0,38000
cf1_sim,5.679999999999967,0.9693222590711471,0.9693222590711471,0.4,0.0,0.05114402804650457,0.05114402804650457,0,1,1,0.4,0.0,0.46905274965776317,-0.46905274965776317,0,38000
cf1_sim,5.699999999999966,0.9703130157478174,0.9703130157478174,0.4,0.0,0.04953783383351127,0.04953783383351127,0,1,1,0.4,0.0,0.45494796030366724,-0.45494796030366724,0,38000
cf1_sim,5.719999999999966,0.9712726145309848,0.9712726145309848,0.4,0.0,0.047979939158368595,0.047979939158368595,0,1,1,0.4,0.0,0.44123602849958854,-0.44123602849958854,0,38000
cf1_sim,5.739999999999966,0.9722019945058814,0.9722019945058814,0.4,0.0,0.04646899874482814,0.04646899874482814,0,1,1,0.4,0.0,0.427907645033161,-0.427907645033161,0,38000
cf1_sim,5.759999999999965,0.9731020684897717,0.9731020684897717,0.4,0.0,0.045003699194512456,0.045003699194512456,0,1,1,0.4,0.0,0.41495362926153345,-0.41495362926153345,0,38000
cf1_sim,5.779999999999965,0.9739737236607047,0.9739737236607047,0.4,0.0,0.043582758546649836,0.043582758546649836,0,1,1,0.4,0.0,0.4023649334311747,-0.4023649334311747,0,38000
cf1_sim,5.799999999999964,0.974817822177165,0.974817822177165,0.4,0.0,0.04220492582301665,0.04220492582301665,0,1,1,0.4,0.0,0.3901326464500673,-0.3901326464500673,0,38000
cf1_sim,5.819999999999964,0.9756352017883642,0.9756352017883642,0.4,0.0,0.0408689805599624,0.0408689805599624,0,1,1,0.4,0.0,0.3782479971493696,-0.3782479971493696,0,38000
cf1_sim,5.839999999999963,0.9764266764349495,0.9764266764349495,0.4,0.0,0.03957373232926573,0.03957373232926573,0,1,1,0.4,0.0,0.3667023570694668,-0.3667023570694668,0,38000
cf1_sim,5.859999999999963,0.9771930368399385,0.9771930368399385,0.4,0.0,0.03831802024945012,0.03831802024945012,0,1,1,0.4,0.0,0.35548724280337773,-0.35548724280337773,0,38000
cf1_sim,5.879999999999963,0.97793505108972,0.97793505108972,0.4,0.0,0.0371007124890749,0.0371007124890749,0,1,1,0.4,0.0,0.3445943179285867,-0.3445943179285867,0,38000
cf1_sim,5.899999999999962,0.9786534652049882,0.9786534652049882,0.4,0.0,0.035920705763411075,0.035920705763411075,0,1,1,0.4,0.0,0.334015394556548,-0.334015394556548,0,38000
cf1_sim,5.919999999999962,0.9793490037015045,0.9793490037015045,0.4,0.0,0.0347769248258111,0.0347769248258111,0,1,1,0.4,0.0,0.3237424345274528,-0.3237424345274528,0,38000
cf1_sim,5.939999999999961,0.9800223701406042,0.9800223701406042,0.4,0.0,0.033668321954987375,0.033668321954987375,0,1,1,0.4,0.0,0.3137675502762062,-0.3137675502762062,0,38000
cf1_sim,5.959999999999961,0.9806742476693907,0.9806742476693907,0.4,0.0,0.03259387643932535,0.03259387643932535,0,1,1,0.4,0.0,0.30408300539408284,-0.30408300539408284,0,38000
cf1_sim,5.9799999999999605,0.9813052995505762,0.9813052995505762,0.4,0.0,0.03155259405927331,0.03155259405927331,0,1,1,0.4,0.0,0.2946812149090435,-0.2946812149090435,0,38000
cf1_sim,5.99999999999996,0.9819161696819516,0.9819161696819516,0.4,0.0,0.03054350656877232,0.03054350656877232,0,1,1,0.4,0.0,0.2855547453063466,-0.2855547453063466,0,38000
cf1_sim,6.01999999999996,0.982507483105484,0.982507483105484,0.4,0.0,0.029565671176615505,0.029565671176615505,0,1,1,0.4,0.0,0.27669631430983893,-0.27669631430983893,0,38000
cf1_sim,6.039999999999959,0.9830798465060551,0.9830798465060551,0.4,0.0,0.02861817002855634,0.02861817002855634,0,1,1,0.4,0.0,0.2680987904429946,-0.2680987904429946,0,38000
cf1_sim,6.059999999999959,0.9836338486998735,0.9836338486998735,0.4,0.0,0.027700109690920037,0.027700109690920037,0,1,1,0.4,0.0,0.25975519238774164,-0.25975519238774164,0,38000
cf1_sim,6.079999999999958,0.9841700611126016,0.9841700611126016,0.4,0.0,0.026810620636410563,0.026810620636410563,0,1,1,0.4,0.0,0.251658688157892,-0.251658688157892,0,38000
cf1_sim,6.099999999999958,0.9846890382472566,0.9846890382472566,0.4,0.0,0.025948856732748087,0.025948856732748087,0,1,1,0.4,0.0,0.24380259410307,-0.24380259410307,0,38000
cf1_sim,6.1199999999999575,0.9851913181419509,0.9851913181419509,0.4,0.0,0.02511399473471732,0.02511399473471732,0,1,1,0.4,0.0,0.23618037375796494,-0.23618037375796494,0,38000
cf1_sim,6.139999999999957,0.9856774228175541,0.9856774228175541,0.4,0.0,0.024305233780156393,0.024305233780156393,0,1,1,0.4,0.0,0.22878563655089496,-0.22878563655089496,0,38000
cf1_sim,6.159999999999957,0.9861478587153615,0.9861478587153615,0.4,0.0,0.023521794890368073,0.023521794890368073,0,1,1,0.4,0.0,0.22161213638470478,-0.22161213638470478,0,38000
cf1_sim,6.179999999999956,0.9866031171248693,0.9866031171248693,0.4,0.0,0.022762920475390417,0.022762920475390417,0,1,1,0.4,0.0,0.21465377010228678,-0.21465377010228678,0,38000
cf1_sim,6.199999999999956,0.9870436746017597,0.9870436746017597,0.4,0.0,0.02202787384452204,0.02202787384452204,0,1,1,0.4,0.0,0.20790457584816077,-0.20790457584816077,0,38000
cf1_sim,6.219999999999955,0.9874699933762089,0.9874699933762089,0.4,0.0,0.02131593872245785,0.02131593872245785,0,1,1,0.4,0.0,0.2013587313368488,-0.2013587313368488,0,38000
cf1_sim,6.239999999999955,0.9878825217516359,0.9878825217516359,0.4,0.0,0.020626418771354484,0.020626418771354484,0,1,1,0.4,0.0,0.19501055203807616,-0.19501055203807616,0,38000
cf1_sim,6.2599999999999545,0.9882816944940181,0.9882816944940181,0.4,0.0,0.019958637119110195,0.019958637119110195,0,1,1,0.4,0.0,0.18885448928819343,-0.18885448928819343,0,38000
cf1_sim,6.279999999999954,0.9886679332119004,0.9886679332119004,0.4,0.0,0.019311935894111884,0.019311935894111884,0,1,1,0.4,0.0,0.18288512833653453,-0.18288512833653453,0,38000
cf1_sim,6.299999999999954,0.9890416467272338,0.9890416467272338,0.4,0.0,0.01868567576667204,0.01868567576667204,0,1,1,0.4,0.0,0.17709718633492477,-0.17709718633492477,0,38000
cf1_sim,6.319999999999953,0.9894032314371808,0.9894032314371808,0.4,0.0,0.01807923549735031,0.01807923549735031,0,1,1,0.4,0.0,0.17148551027792905,-0.17148551027792905,0,38000
cf1_sim,6.339999999999953,0.9897530716670273,0.9897530716670273,0.4,0.0,0.01749201149232831,0.01749201149232831,0,1,1,0.4,0.0,0.1660450749009541,-0.1660450749009541,0,38000
cf1_sim,6.359999999999952,0.990091540014347,0.990091540014347,0.4,0.0,0.01692341736598208,0.01692341736598208,0,1,1,0.4,0.0,0.16077098054280095,-0.16077098054280095,0,38000
cf1_sim,6.379999999999952,0.9904189976845624,0.9904189976845624,0.4,0.0,0.01637288351077386,0.01637288351077386,0,1,1,0.4,0.0,0.15565845097881523,-0.15565845097881523,0,38000
cf1_sim,6.3999999999999515,0.9907357948180537,0.9907357948180537,0.4,0.0,0.015839856674563866,0.015839856674563866,0,1,1,0.4,0.0,0.1507028312303556,-0.1507028312303556,0,38000
cf1_sim,6.419999999999951,0.9910422708089622,0.9910422708089622,0.4,0.0,0.015323799545423237,0.015323799545423237,0,1,1,0.4,0.0,0.1458995853558559,-0.1458995853558559,0,38000
cf1_sim,6.439999999999951,0.9913387546158424,0.9913387546158424,0.4,0.0,0.014824190344011065,0.014824190344011065,0,1,1,0.4,0.0,0.14124429422841095,-0.14124429422841095,0,38000
cf1_sim,6.45999999999995,0.9916255650643137,0.9916255650643137,0.4,0.0,0.014340522423561763,0.014340522423561763,0,1,1,0.4,0.0,0.13673265330442763,-0.13673265330442763,0,38000
cf1_sim,6.47999999999995,0.991903011141864,0.991903011141864,0.4,0.0,0.0138723038775133,0.0138723038775133,0,1,1,0.4,0.0,0.13236047038753307,-0.13236047038753307,0,38000
cf1_sim,6.499999999999949,0.9921713922849598,0.9921713922849598,0.4,0.0,0.013419057154792573,0.013419057154792573,0,1,1,0.4,0.0,0.1281236633916338,-0.1281236633916338,0,38000
cf1_sim,6.519999999999949,0.992430998658615,0.992430998658615,0.4,0.0,0.012980318682760809,0.012980318682760809,0,1,1,0.4,0.0,0.12401825810671371,-0.12401825810671371,0,38000
cf1_sim,6.5399999999999485,0.9926821114285711,0.9926821114285711,0.4,0.0,0.01255563849780964,0.01255563849780964,0,1,1,0.4,0.0,0.12004038597062965,-0.12004038597062965,0,38000
cf1_sim,6.559999999999948,0.9929250030262429,0.9929250030262429,0.4,0.0,0.012144579883587279,0.012144579883587279,0,1,1,0.4,0.0,0.1161862818499674,-0.1161862818499674,0,38000
cf1_sim,6.579999999999948,0.9931599374065794,0.9931599374065794,0.4,0.0,0.011746719016823809,0.011746719016823809,0,1,1,0.4,0.0,0.11245228183270317,-0.11245228183270317,0,38000
cf1_sim,6.599999999999947,0.9933871702989937,0.9933871702989937,0.4,0.0,0.011361644620715127,0.011361644620715127,0,1,1,0.4,0.0,0.10883482103522919,-0.10883482103522919,0,38000
cf1_sim,6.619999999999947,0.9936069494515101,0.9936069494515101,0.4,0.0,0.010988957625816378,0.010988957625816378,0,1,1,0.4,0.0,0.10533043142604429,-0.10533043142604429,0,38000
cf1_sim,6.639999999999946,0.9938195148682778,0.9938195148682778,0.4,0.0,0.010628270838387799,0.010628270838387799,0,1,1,0.4,0.0,0.10193573966822043,-0.10193573966822043,0,38000
cf1_sim,6.659999999999946,0.9940250990406003,0.9940250990406003,0.4,0.0,0.010279208616128683,0.010279208616128683,0,1,1,0.4,0.0,0.09864746498256688,-0.09864746498256688,0,38000
cf1_sim,6.6799999999999455,0.9942239271716249,0.9942239271716249,0.4,0.0,0.00994140655122859,0.00994140655122859,0,1,1,0.4,0.0,0.09546241703320772,-0.09546241703320772,0,38000
cf1_sim,6.699999999999945,0.9944162173948381,0.9944162173948381,0.4,0.0,0.00961451116065905,0.00961451116065905,0,1,1,0.4,0.0,0.09237749383713975,-0.09237749383713975,0,38000
cf1_sim,6.719999999999945,0.9946021809865105,0.9946021809865105,0.4,0.0,0.009298179583623634,0.009298179583623634,0,1,1,0.4,0.0,0.08938967969917114,-0.08938967969917114,0,38000
cf1_sim,6.739999999999944,0.9947820225722321,0.9947820225722321,0.4,0.0,0.008992079286079504,0.008992079286079504,0,1,1,0.4,0.0,0.08649604317349525,-0.08649604317349525,0,38000
cf1_sim,6.759999999999944,0.9949559403276769,0.9949559403276769,0.4,0.0,0.008695887772239206,0.008695887772239206,0,1,1,0.4,0.0,0.08369373505298792,-0.08369373505298792,0,38000
cf1_sim,6.779999999999943,0.995124126173736,0.995124126173736,0.4,0.0,0.008409292302957793,0.008409292302957793,0,1,1,0.4,0.0,0.08097998638724005,-0.08097998638724005,0,38000
cf1_sim,6.799999999999943,0.9952867659661542,0.9952867659661542,0.4,0.0,0.008131989620906862,0.008131989620906862,0,1,1,0.4,0.0,0.07835210653014697,-0.07835210653014697,0,38000
cf1_sim,6.8199999999999426,0.9954440396798029,0.9954440396798029,0.4,0.0,0.007863685682434311,0.007863685682434311,0,1,1,0.4,0.0,0.07580748121782906,-0.07580748121782906,0,38000
cf1_sim,6.839999999999942,0.995596121587723,0.995596121587723,0.4,0.0,0.007604095396005936,0.007604095396005936,0,1,1,0.4,0.0,0.07334357067750266,-0.07334357067750266,0,38000
cf1_sim,6.859999999999942,0.9957431804350655,0.9957431804350655,0.4,0.0,0.007352942367122886,0.007352942367122886,0,1,1,0.4,0.0,0.0709579077678447,-0.0709579077678447,0,38000
cf1_sim,6.879999999999941,0.9958853796080577,0.9958853796080577,0.4,0.0,0.007109958649607143,0.007109958649607143,0,1,1,0.4,0.0,0.06864809615130543,-0.06864809615130543,0,38000
cf1_sim,6.899999999999941,0.9960228772981206,0.9960228772981206,0.4,0.0,0.006874884503145608,0.006874884503145608,0,1,1,0.4,0.0,0.0664118084987114,-0.0664118084987114,0,38000
cf1_sim,6.91999999999994,0.9961558266612602,0.9961558266612602,0.4,0.0,0.006647468156982239,0.006647468156982239,0,1,1,0.4,0.0,0.0642467847264748,-0.0642467847264748,0,38000
cf1_sim,6.93999999999994,0.9962843759728531,0.9962843759728531,0.4,0.0,0.00642746557964657,0.00642746557964657,0,1,1,0.4,0.0,0.06215083026657509,-0.06215083026657509,0,38000
cf1_sim,6.95999999999994,0.9964086687779452,0.9964086687779452,0.4,0.0,0.006214640254606393,0.006214640254606393,0,1,1,0.4,0.0,0.06012181436950148,-0.06012181436950148,0,38000
cf1_sim,6.979999999999939,0.9965288440371799,0.9965288440371799,0.4,0.0,0.006008762961731744,0.006008762961731744,0,1,1,0.4,0.0,0.05815766844019832,-0.05815766844019832,0,38000
cf1_sim,6.999999999999939,0.996645036268469,0.996645036268469,0.4,0.0,0.005809611564457158,0.005809611564457158,0,1,1,0.4,0.0,0.05625638440704121,-0.05625638440704121,0,38000
cf1_sim,7.019999999999938,0.9967573756845196,0.9967573756845196,0.4,0.0,0.005616970802529112,0.005616970802529112,0,1,1,0.4,0.0,0.05441601312384205,-0.05441601312384205,0,38000
cf1_sim,7.039999999999938,0.9968659883263241,0.9968659883263241,0.4,0.0,0.005430632090225529,0.005430632090225529,0,1,1,0.4,0.0,0.05263466280474867,-0.05263466280474867,0,38000
cf1_sim,7.059999999999937,0.9969709961927228,0.9969709961927228,0.4,0.0,0.005250393319934712,0.005250393319934712,0,1,1,0.4,0.0,0.05091049749195884,-0.05091049749195884,0,38000
cf1_sim,7.079999999999937,0.9970725173661424,0.9970725173661424,0.4,0.0,0.0050760586709813526,0.0050760586709813526,0,1,1,0.4,0.0,0.049241735556054836,-0.049241735556054836,0,38000
cf1_sim,7.099999999999937,0.9971706661346142,0.9971706661346142,0.4,0.0,0.0049074384235878775,0.0049074384235878775,0,1,1,0.4,0.0,0.04762664822875213,-0.04762664822875213,0,38000
cf1_sim,7.119999999999936,0.9972655531101714,0.9972655531101714,0.4,0.0,0.0047443487778601745,0.0047443487778601745,0,1,1,0.4,0.0,0.04606355816783396,-0.04606355816783396,0,38000
cf1_sim,7.139999999999936,0.9973572853437251,0.9973572853437251,0.4,0.0,0.0045866116776874565,0.0045866116776874565,0,1,1,0.4,0.0,0.04455083805399748,-0.04455083805399748,0,38000
cf1_sim,7.159999999999935,0.9974459664365141,0.9974459664365141,0.4,0.0,0.004434054639446996,0.004434054639446996,0,1,1,0.4,0.0,0.04308690921928508,-0.04308690921928508,0,38000
cf1_sim,7.179999999999935,0.9975316966482222,0.9975316966482222,0.4,0.0,0.0042865105854055716,0.0042865105854055716,0,1,1,0.4,0.0,0.041670240306810484,-0.041670240306810484,0,38000
cf1_sim,7.1999999999999345,0.9976145730018564,0.9976145730018564,0.4,0.0,0.004143817681710467,0.004143817681710467,0,1,1,0.4,0.0,0.04029934596140232,-0.04029934596140232,0,38000
cf1_sim,7.219999999999934,0.9976946893854737,0.9976946893854737,0.4,0.0,0.004005819180864139,0.004005819180864139,0,1,1,0.4,0.0,0.03897278555079967,-0.03897278555079967,0,38000
cf1_sim,7.239999999999934,0.9977721366508452,0.9977721366508452,0.4,0.0,0.003872363268577947,0.003872363268577947,0,1,1,0.4,0.0,0.03768916191701982,-0.03768916191701982,0,38000
cf1_sim,7.259999999999933,0.9978470027091432,0.9978470027091432,0.4,0.0,0.0037433029149016193,0.0037433029149016193,0,1,1,0.4,0.0,0.036447120157474054,-0.036447120157474054,0,38000
cf1_sim,7.279999999999933,0.9979193726237338,0.9979193726237338,0.4,0.0,0.0036184957295265843,0.0036184957295265843,0,1,1,0.4,0.0,0.035245346435420634,-0.035245346435420634,0,38000
cf1_sim,7.299999999999932,0.997989328700157,0.997989328700157,0.4,0.0,0.0034978038211627128,0.0034978038211627128,0,1,1,0.4,0.0,0.03408256681930732,-0.03408256681930732,0,38000
cf1_sim,7.319999999999932,0.9980569505733747,0.9980569505733747,0.4,0.0,0.003381093660889542,0.003381093660889542,0,1,1,0.4,0.0,0.03295754615058612,-0.03295754615058612,0,38000
cf1_sim,7.3399999999999315,0.9981223152923624,0.9981223152923624,0.4,0.0,0.003268235949384481,0.003268235949384481,0,1,1,0.4,0.0,0.031869086939508726,-0.031869086939508726,0,38000
cf1_sim,7.359999999999931,0.998185497402121,0.998185497402121,0.4,0.0,0.0031591054879321866,0.0031591054879321866,0,1,1,0.4,0.0,0.03081602828845708,-0.03081602828845708,0,38000
cf1_sim,7.379999999999931,0.9982465690231834,0.9982465690231834,0.4,0.0,0.0030535810531208095,0.0030535810531208095,0,1,1,0.4,0.0,0.029797244842337898,-0.029797244842337898,0,38000
cf1_sim,7.39999999999993,0.9983055999286861,0.9983055999286861,0.4,0.0,0.002951545275132453,0.002951545275132453,0,1,1,0.4,0.0,0.028811645765565802,-0.028811645765565802,0,38000
cf1_sim,7.41999999999993,0.9983626576190768,0.9983626576190768,0.4,0.0,0.002852884519536776,0.002852884519536776,0,1,1,0.4,0.0,0.027858173745146337,-0.027858173745146337,0,38000
cf1_sim,7.439999999999929,0.9984178073945268,0.9984178073945268,0.4,0.0,0.00275748877249838,0.00275748877249838,0,1,1,0.4,0.0,0.026935804019377983,-0.026935804019377983,0,38000
cf1_sim,7.459999999999929,0.998471112425113,0.998471112425113,0.4,0.0,0.002665251529310245,0.002665251529310245,0,1,1,0.4,0.0,0.0260435434316993,-0.0260435434316993,0,38000
cf1_sim,7.4799999999999285,0.9985226338188363,0.9985226338188363,0.4,0.0,0.002576069686167109,0.002576069686167109,0,1,1,0.4,0.0,0.025180429509170998,-0.025180429509170998,0,38000
cf1_sim,7.499999999999928,0.9985724306875382,0.9985724306875382,0.4,0.0,0.0024898434350944395,0.0024898434350944395,0,1,1,0.4,0.0,0.024345529565125163,-0.024345529565125163,0,38000
cf1_sim,8.659999999999904,0.0,0.0,0.4,0.0,0.0,0.0,0,0.4999000033332889,0.00999933334666654,0.5,0.0,-0.2291678394833671,11.456864147829297,0,42062
cf1_sim,8.679999999999904,0.0007846430452319304,1.5694953620927805e-05,0.4,0.0,0.03923215226159652,0.0007847476810463902,0,0.49960005333048896,0.01999466709331708,0.5,0.0,-0.4398992210029634,10.532872407851073,0,42875
cf1_sim,8.699999999999903,0.0022906479722577984,6.151716195215228e-05,0.4,0.0,0.07530024635129341,0.0022911104165612237,0,0.4991002699676021,0.029982003239722298,0.5,0.0,-0.6332186463874998,9.660283299839413,0,43688
cf1_sim,8.719999999999903,0.0044582540152945695,0.0001507064383212103,0.4,0.0,0.10838030215183853,0.0044594638184529,0,0.4984008531513097,0.03995734698458635,0.5,0.0,-0.8100976176826739,8.836436942625179,0,44500
cf1_sim,8.739999999999903,0.0072310386396777036,0.0002953766432822424,0.4,0.0,0.13863923121915672,0.007233510248051605,0,0.4975020826390129,0.04991670832341408,0.5,0.0,-0.9714573083249498,8.05880752593542,0,45312
cf1_sim,8.759999999999902,0.010555744557400607,0.0005065787727630677,0.4,0.0,0.16623529588614513,0.01056010647404126,0,0.4964043179269331,0.05985610364445969,0.5,0.0,-1.1181711036334336,7.324996750456706,0,46125
cf1_sim,8.779999999999902,0.014382115475461435,0.0007943607733608528,0.4,0.0,0.19131854590304137,0.014389100029889254,0,0.49510799810631856,0.06977155732211825,0.5,0.0,-1.2510670168735702,6.632727581850121,0,46938
cf1_sim,8.799999999999901,0.01866274014925024,0.0011678242502546534,0.4,0.0,0.21403123368944035,0.018673173844690028,0,0.49361364168781346,0.07965910330712299,0.5,0.0,-1.3709299868509317,5.979838303884009,0,47750
cf1_sim,8.8199999999999,0.02335290433369503,0.001635178225089489,0.4,0.0,0.23450820922223953,0.023367698741741782,0,0.4919218463940607,0.08951478671291209,0.5,0.0,-1.4785040627117252,5.364276856545498,0,48562
cf1_sim,8.8399999999999,0.028410450244402544,0.0022037900934617732,0.4,0.0,0.2528772955353757,0.028430593418614203,0,0.4900332889206208,0.0993346653975306,0.5,0.0,-1.5744944813582444,4.7840954456545335,0,49375
cf1_sim,8.8599999999999,0.033795643159623925,0.0028802339242814667,0.4,0.0,0.26925964576106903,0.03382219154098468,0,0.48794872466530276,0.10911481154043465,0.5,0.0,-1.659569642631619,4.2374454111357664,0,50188
cf1_sim,8.8799999999999,0.03947104481159004,0.003670336236284745,0.4,0.0,0.283770082598306,0.039505115600163905,0,0.48566898742601483,0.11885131321356728,0.5,0.0,-1.7343629871703885,3.722572341706138,0,51000
cf1_sim,8.899999999999899,0.04540139323263746,0.004579219380305548,0.4,0.0,0.296517421052371,0.045444157201040176,0,0.4831949890672566,0.12854027594607753,0.5,0.0,-1.7994747816210188,3.237811424310148,0,51812
cf1_sim,8.919999999999899,0.051553488737623096,0.005611342649569235,0.4,0.0,0.3076047752492818,0.05160616346318433,0,0.4805277191553855,0.13817782428205685,0.5,0.0,-1.855473815654958,2.7815830171824776,0,52625
cf1_sim,8.939999999999898,0.05789608573944118,0.00677054123423146,0.4,0.0,0.31712985009090416,0.05795992923311125,0,0.477668244562803,0.14776010333066977,0.5,0.0,-1.9028990150357448,2.3523884359394476,0,53438
cf1_sim,8.959999999999898,0.06439979010904573,0.008060063130635963,0.4,0.0,0.32518521848022747,0.06447609482022516,0,0.4746177090412204,0.15728328030805888,0.5,0.0,-1.9422609747784851,1.9488059425986974,0,54250
cf1_sim,8.979999999999897,0.07103696180527966,0.009482604110292324,0.4,0.0,0.3318585848116963,0.07112704898281805,0,0.4713773327641731,0.1667435460704072,0.5,0.0,-1.9740434162522515,1.5694869279007448,0,55062
cf1_sim,8.999999999999897,0.07778162251305022,0.01104034084836585,0.4,0.0,0.33723303538852833,0.0778868369036763,0,0.4679484118389674,0.176137116637545,0.5,0.0,-1.998704571893262,1.2131522777585544,0,55875
cf1_sim,9.019999999999897,0.08460936804100092,0.012734962306514061,0.4,0.0,0.34138727639753463,0.08473107290741057,0,0.4643323177882551,0.18546023470649137,0.5,0.0,-2.016678501022514,0.8785889150924309,0,56688
cf1_sim,9.039999999999896,0.09149728524184132,0.014567699460185806,0.4,0.0,0.3443958600420206,0.0916368576835872,0,0.46053049700144255,0.1947091711543253,0.5,0.0,-2.0283763400956243,0.5646465087187041,0,57500
cf1_sim,9.059999999999896,0.09842387322993765,0.016539353456008512,0.4,0.0,0.34632939940481633,0.09858269979113535,0,0.4565444701561541,0.20388022652978513,0.5,0.0,-2.0341874905544675,0.27023434135253765,0,58312
cf1_sim,9.079999999999895,0.10536896868166357,0.018650322280615653,0.4,0.0,0.34725477258629583,0.10554844123035703,0,0.4523758316099817,0.21296973253299986,0.5,0.0,-2.034480747299492,-0.005681670841062003,0,59125
cf1_sim,9.099999999999895,0.11231367501439032,0.020900626018199767,0.4,0.0,0.3472353166363377,0.11251518687920573,0,0.4480262487627626,0.22197405348275995,0.5,0.0,-2.0296053706579875,-0.2640818143579225,0,59938
cf1_sim,9.119999999999894,0.11924029524988013,0.023289930770206652,0.4,0.0,0.3463310117744902,0.11946523760034435,0,0.4434974613896421,0.2308895877707415,0.5,0.0,-2.019892104586736,-0.5058952769972819,0,60750
cf1_sim,9.139999999999894,0.12613226837726166,0.02581757130690408,0.4,0.0,0.3445986563690767,0.1263820268348713,0,0.4387912809451863,0.23971276930210156,0.5,0.0,-2.005654143717074,-0.732002715582878,0,61562
cf1_sim,9.159999999999894,0.1329741090397329,0.028482572517054754,0.4,0.0,0.3420920331235623,0.13325006050753369,0,0.43390958983882494,0.2484400689218684,0.5,0.0,-1.987188051726109,-0.9432386990005932,0,62375
cf1_sim,9.179999999999893,0.13975135037767564,0.0312836697185898,0.4,0.0,0.3388620668971379,0.14005486007675222,0,0.428854340681912,0.2570679958265566,0.5,0.0,-1.9647746333995004,-1.1403940324965844,0,63188
cf1_sim,9.199999999999893,0.14645048986899817,0.03421932789000744,0.4,0.0,0.334956974566127,0.14678290857088194,0,0.423627555506708,0.26559309896044175,0.5,0.0,-1.9386797626383272,-1.324217968899427,0,64000
cf1_sim,9.219999999999892,0.15305893801526665,0.03728775987920437,0.4,0.0,0.3304224073134248,0.15342159945984682,0,0.4182313249575934,0.27401196839593683,0.5,0.0,-1.9091551685551253,-1.4954203121626262,0,64812
cf1_sim,9.239999999999892,0.15956496972956066,0.040486943643576995,0.4,0.0,0.325301585714701,0.1599591882186312,0,0.4126678074548391,0.28232123669751774,0.5,0.0,-1.8764391817017585,-1.6546734183690213,0,65000
cf1_sim,9.259999999999891,0.16595767828901048,0.04381463857249912,0.4,0.0,0.3196354279724911,0.1663847464461063,0,0.4069392283312669,0.29051758026865265,0.5,0.0,-1.840757442374161,-1.8026140990958481,0,65000
cf1_sim,9.279999999999891,0.172226931721661,0.04726840094068572,0.4,0.0,0.3134626716325263,0.17268811840933,0,0.4010478789421462,0.2985977206811961,0.5,0.0,-1.802323572846091,-1.9398454318077532,0,65000
cf1_sim,9.29999999999989,0.1783633315036744,0.05084559853848174,0.4,0.0,0.3068199891006693,0.17885987988980104,0,0.3949961157486825,0.306558425986717,0.5,0.0,-1.76133981529541,-2.066938481724461,0,65000
cf1_sim,9.31999999999989,0.18435817344894634,0.05454342452276548,0.4,0.0,0.299742097263597,0.18489129921418695,0,0.3887863593754639,0.31439651200923435,0.5,0.0,-1.7179976371020096,-2.184433939399513,0,65000
cf1_sim,9.33999999999989,0.1902034106789836,0.05835891052992139,0.4,0.0,0.292261861501863,0.19077430035779563,0,0.38242109364224414,0.3221088436188456,0.5,0.0,-1.6724783051161678,-2.292843678046084,0,65000
cf1_sim,9.35999999999989,0.19589161856638668,0.06228893909021208,0.4,0.0,0.2844103943701535,0.1965014280145346,0,0.3759028645704474,0.3296923359857367,0.5,0.0,-1.624953430419451,-2.3926522344548875,0,65000
cf1_sim,9.379999999999889,0.20141596155051433,0.06633025538085838,0.4,0.0,0.2762171492063825,0.2020658145323147,0,0.36923427936479386,0.33714395581407264,0.5,0.0,-1.5755854850273936,-2.484318217167088,0,65000
cf1_sim,9.399999999999888,0.20677016172888893,0.07047947835321472,0.4,0.0,0.26771000891873026,0.2074611486178173,0,0.3624180053704525,0.34446072255527577,0.5,0.0,-1.5245282919135963,-2.5682756453916533,0,65000
cf1_sim,9.419999999999888,0.2119484691326445,0.0747331112676001,0.4,0.0,0.2589153701877782,0.21268164571926876,0,0.35545676900613854,0.35163970960020524,0.5,0.0,-1.4719274896687522,-2.644935221991206,0,65000
cf1_sim,9.439999999999888,0.21694563359883476,0.07908755166760736,0.4,0.0,0.24985822330951318,0.2177220200003634,0,0.3483533546735826,0.3586780454497615,0.5,0.0,-1.4179209730449598,-2.714685543702793,0,65000
cf1_sim,9.459999999999887,0.22175687815671732,0.08353910082406253,0.4,0.0,0.2405622278941288,0.22257745782275834,0,0.34111060364380663,0.36557291486344806,0.5,0.0,-1.3626393105756616,-2.777894251609857,0,65000
cf1_sim,9.479999999999887,0.2263778738492218,0.08808397267723532,0.4,0.0,0.23104978462522432,0.22724359265863925,0,0.3337314129206539,0.3723215599854298,0.5,0.0,-1.3062061404042842,-2.834909124738468,0,65000
cf1_sim,9.499999999999886,0.23080471591470506,0.09271830230441004,0.4,0.0,0.2213421032741627,0.23171648135873635,0,0.3262187340820258,0.37892128144763865,0.5,0.0,-1.2487385454001272,-2.8860591195145138,0,65000
cf1_sim,9.519999999999886,0.2350339012578046,0.09743815393850731,0.4,0.0,0.21145926715497776,0.2359925817048633,0,0.31857557209928994,0.38536943944948476,0.5,0.0,-1.1903474085881625,-2.931655357688534,0,65000
cf1_sim,9.539999999999885,0.2390623071417305,0.10223952856209866,0.4,0.0,0.20142029419629487,0.24006873117956715,0,0.31080498413533203,0.3916634548137418,0.5,0.0,-1.1311377498699335,-2.9719920652109635,0,65000
cf1_sim,9.559999999999885,0.24288717103769503,0.10711837109987513,0.4,0.0,0.1912431947982275,0.24394212688882366,0,0.3029100783217312,0.3978008100181832,0.5,0.0,-1.0712090449656024,-3.007347464422549,0,65000
cf1_sim,9.579999999999885,0.2465060715703773,0.11207057723141307,0.4,0.0,0.18094502663411377,0.2476103065768976,0,0.2948940125155489,0.4037790502025573,0.5,0.0,-1.0106555274623885,-3.037984621812156,0,65000
cf1_sim,9.599999999999884,0.2499169105013622,0.11709199984492344,0.4,0.0,0.1705419465492456,0.25107113067551806,0,0.2867599930362281,0.4095957841504993,0.5,0.0,-0.9495664748118813,-3.0641522534869896,0,65000
cf1_sim,9.619999999999884,0.2531178956953901,0.12217845515157154,0.4,0.0,0.16004925970139708,0.254322765332405,0,0.27851127338310844,0.4152486852459854,0.5,0.0,-0.8880264790779945,-3.0860854903981463,0,65000
cf1_sim,9.639999999999883,0.2561075250170094,0.12732572847891008,0.4,0.0,0.14948146608096358,0.2573636663669275,0,0.27015115293406966,0.42073549240394836,0.5,0.0,-0.8261157031986281,-3.1040066052670126,0,65000
cf1_sim,9.659999999999883,0.25888457110784663,0.13252957976097585,0.4,0.0,0.13885230454186046,0.260192564103288,0,0.2616829756258246,0.4260540109746816,0.5,0.0,-0.7639101234871423,-3.118125703065327,0,65000
cf1_sim,9.679999999999882,0.26144806699720635,0.1377857487416581,0.4,0.0,0.12817479446798616,0.2628084490341136,0,0.253110128616389,0.4312021136216693,0.5,0.0,-0.7014817590646114,-3.128641376813343,0,65000
cf1_sim,9.699999999999882,0.2637972925010866,0.1430899599070521,0.4,0.0,0.11746127519401206,0.26521055826969964,0,0.24443604093026355,0.43617774117249325,0.5,0.0,-0.6388988888804139,-3.135741330376318,0,65000
cf1_sim,9.719999999999882,0.26593176136695673,0.1484379271616602,0.4,0.0,0.1067234432935078,0.26739836273040546,0,0.2356641820868698,0.44097890344247387,0.5,0.0,-0.5762262569467297,-3.1396029698593475,0,65000
cf1_sim,9.739999999999881,0.2678512091237954,0.15382535826249705,0.4,0.0,0.09597238784193209,0.2693715550418415,0,0.22679806071278846,0.44560368003071776,0.5,0.0,-0.5135252663822768,-3.140393965124105,0,65000
cf1_sim,9.75999999999988,0.26955558159893145,0.1592479590243876,0.4,0.0,0.08521862375680143,0.27113003809452774,0,0.21784122313835583,0.4500502210882526,0.5,0.0,-0.4508541628316485,-3.138272782878263,0,65000
cf1_sim,9.77999999999988,0.2710450240651791,0.16470143730902043,0.4,0.0,0.07447212331238168,0.27267391423164133,0,0.20879725197917878,0.45431674805794175,0.5,0.0,-0.3882682077991102,-3.13338919271895,0,65000
cf1_sim,9.79999999999988,0.27231987098360944,0.17018150680962676,0.4,0.0,0.06374234592151666,0.27400347503031747,0,0.1996697647031363,0.4584015543858836,0.5,0.0,-0.32581984240955303,-3.1258847474455314,0,65000
cf1_sim,9.81999999999988,0.2733806363090635,0.17568389064250123,0.4,0.0,0.0530382662727045,0.2751191916437228,0,0.1904624121834406,0.46230300620401027,0.5,0.0,-0.2635588420842813,-3.115893238894025,0,65000
cf1_sim,9.839999999999879,0.27422800432718836,0.18120432475595705,0.4,0.0,0.04236840090624376,0.27602170567279066,0,0.1811788772383365,0.4660195429836133,0.5,0.0,-0.20153246259564028,-3.10354113048546,0,65000
cf1_sim,9.859999999999879,0.2748628209933721,0.18673856116671897,0.4,0.0,0.03174083330918866,0.2767118205380965,0,0.17182287315802322,0.4695496781595339,0.5,0.0,-0.13978557794178822,-3.0889479676233713,0,65000
cf1_sim,9.879999999999878,0.2752860857454714,0.19228237103319623,0.4,0.0,0.02116323760496535,0.2771904933238628,0,0.1623981422193878,0.4728919997247696,0.5,0.0,-0.07836081046149004,-3.0722267670211374,0,65000
cf1_sim,9.899999999999878,0.27549894376366746,0.19783154757454666,0.4,0.0,0.010642900909800626,0.27745882706752073,0,0.15290845418914434,0.476045170795258,0.5,0.0,-0.01729865358821192,-3.053484385988086,0,65000
cf1_sim,9.919999999999877,0.27550267865215927,0.2033819088439391,0.4,0.0,0.00018674442459089453,0.2775180634696231,0,0.14335760481597742,0.47900793014461257,0.5,0.0,0.043362412376636475,-3.032821872653807,0,65000
cf1_sim,9.939999999999877,0.275298705518709,0.2089293003639432,0.4,0.0,-0.010198656672514553,0.27736957600020395,0,0.13374941431229337,0.4817790927085966,0.5,0.0,0.10358581111010319,-3.010334798063141,0,65000
cf1_sim,9.959999999999877,0.27488856442929427,0.2144695976315215,0.4,0.0,-0.020507054470735107,0.27701486337891634,0,0.12408772582618613,0.4843575500591327,0.5,0.0,0.16333676739014025,-2.9861135710294358,0,65000
cf1_sim,9.979999999999876,0.27427391421630537,0.21999870849967068,0.4,0.0,-0.030732510649443746,0.2764555434074579,0,0.11437640390422937,0.48674227084765975,0.5,0.0,0.22258221016742366,-2.9602437365910124,0,65000
cf1_sim,9.999999999999876,0.27345652661984604,0.2255125754423489,0.4,0.0,-0.04086937982296712,0.2756933471339108,0,0.10461933294570931,0.4889323012176582,0.5,0.0,0.2812906812757969,-2.932806258875111,0,65000
cf1_sim,10.019999999999875,0.2724382807427659,0.23100717770894266,0.4,0.0,-0.05091229385400692,0.2747301133296878,0,0.0948204156489168,0.49092676518617995,0.5,0.0,0.33943224948592293,-2.903877789134857,0,65000
cf1_sim,10.039999999999875,0.2712211578010677,0.23647853337415842,0.4,0.0,-0.06085614708490973,0.27356778326078746,0,0.08498357145012007,0.4927248649942302,0.5,0.0,0.3969784296211857,-2.873530919687932,0,65000
cf1_sim,10.059999999999874,0.2698072361522975,0.2419227012888789,0.4,0.0,-0.07069608243850839,0.27220839573602407,0,0.07511273495584249,0.49432588142586,0.5,0.0,0.45390210646873114,-2.8418344244504654,0,65000
cf1_sim,10.079999999999874,0.2681986865854449,0.24733578293719513,0.4,0.0,-0.08042747834263204,0.2706540824158112,0,0.06521185436907233,0.4957291740958433,0.5,0.0,0.5101774632316851,-2.808853486726267,0,65000
cf1_sim,10.099999999999874,0.266397767856752,0.2527139242045141,0.4,0.0,-0.0900459364346432,0.26890706336594905,0,0.05528488991003435,0.4969341817058225,0.5,0.0,0.5657799142810879,-2.77464991487962,0,65000
cf1_sim,10.119999999999873,0.2644068224566618,0.25805331706134793,0.4,0.0,-0.0995472700045108,0.26696964284169206,0,0.045335812232154396,0.49794042226882007,0.5,0.0,0.6206860419780074,-2.7392823464895426,0,65000
cf1_sim,10.139999999999873,0.2622282725939223,0.2633502011671111,0.4,0.0,-0.10892749313697614,0.2648442052881585,0,0.03536860083385101,0.4987474933020272,0.5,0.0,0.6748735373476237,-2.7028064415545194,0,65000
cf1_sim,10.159999999999872,0.25986461638361597,0.26860086539798894,0.4,0.0,-0.11818281051531665,0.26253321154389203,0,0.025387242466789146,0.4993550719877915,0.5,0.0,0.7283211443978646,-2.66527506528924,0,65000
cf1_sim,10.179999999999872,0.2573184242265946,0.27380164930269085,0.4,0.0,-0.12730960785106718,0.2600391952350951,0,0.015395729541232616,0.49976291530273953,0.5,0.0,0.781008607885457,-2.6267384610286055,0,65000
cf1_sim,10.199999999999871,0.2545923353684782,0.27894894448966545,0.4,0.0,-0.13630444290582264,0.25736475934872866,0,0.005398058529133252,0.49997086011498315,0.5,0.0,0.8329166243419848,-2.58724441372943,0,65000
cf1_sim,10.219999999999871,0.2516890546270197,0.28403919594913174,0.4,0.0,-0.14516403707292547,0.25451257297331537,0,-0.004601771634404612,0.49997882324937004,0.5,0.0,0.8840267961818906,-2.5468384045364036,0,65000
cf1_sim,10.23999999999987,0.2486113492772509,0.28906890331306956,0.4,0.0,-0.15388526748843886,0.25148536819689227,0,-0.014599761150644852,0.49978680152075255,0.5,0.0,0.934321588723174,-2.505563756856396,0,65000
cf1_sim,10.25999999999987,0.24536204608440434,0.29403462205611236,0.4,0.0,-0.16246515964232744,0.24828593715213912,0,-0.024591910957085718,0.499394871735262,0.5,0.0,0.9837842899599546,-2.4634617743635197,0,65000
cf1_sim,10.27999999999987,0.24194402847516008,0.29893296464009755,0.4,0.0,-0.17090088046221372,0.2449171291992589,0,-0.03457422432703153,0.4988031906595868,0.5,0.0,1.0323989729341,-2.4205718713369975,0,65000
cf1_sim,10.29999999999987,0.23836023383829097,0.30376060160485174,0.4,0.0,-0.17918973184345519,0.24138184823771058,0,-0.04454270846823003,0.4980119949582683,0.5,0.0,1.0801504605607137,-2.376931695714289,0,65000
cf1_sim,10.319999999999869,0.23461365094627903,0.30851426260761955,0.4,0.0,-0.1873291446005966,0.2376830501383912,0,-0.054493376119936106,0.4970216010990379,0.5,0.0,1.1270242927695477,-2.3325772452233955,0,65000
cf1_sim,10.339999999999868,0.23070731748994908,0.31319073741338627,0.4,0.0,-0.19531667281649834,0.23382374028833677,0,-0.06442224714776287,0.49583240522623423,0.5,0.0,1.1730066958312826,-2.2875429769405575,0,65000
cf1_sim,10.359999999999868,0.22664431771861654,0.31778687683819545,0.4,0.0,-0.2031499885666272,0.2298069712404604,0,-0.07432535013568237,0.4944448830023506,0.5,0.0,1.218084553744199,-2.2418619106027458,0,65000
cf1_sim,10.379999999999868,0.22242778017867407,0.3222995936474209,0.4,0.0,-0.21082687699712366,0.22563584046127197,0,-0.08419872397453905,0.49285958941777663,0.5,0.0,1.2622453815630006,-2.1955657259883186,0,65000
cf1_sim,10.399999999999867,0.2180608755439474,0.32672586341081944,0.4,0.0,-0.21834523173633355,0.22131348816992885,0,-0.0940384194464406,0.4910771585688091,0.5,0.0,1.305477300557482,-2.1486848546639514,0,65000
cf1_sim,10.419999999999867,0.21354681453153718,0.33106272531606645,0.4,0.0,-0.22570305062051174,0.21684309526235188,0,-0.10384050080439244,0.4890983034040222,0.5,0.0,1.3477690150944008,-2.1012485663814626,0,65000
cf1_sim,10.439999999999866,0.2088888458972296,0.33530728294235657,0.4,0.0,-0.23289843171537775,0.21222788131450526,0,-0.1136010473465441,0.48692381543909746,0.5,0.0,1.3891097911412602,-2.0532850503943085,0,65000
cf1_sim,10.459999999999866,0.2040902545049071,0.3394567049955423,0.4,0.0,-0.23992956961612627,0.20747110265928712,0,-0.12331615498441754,0.48455456444022804,0.5,0.0,1.4294894362958637,-2.004821491950393,0,65000
cf1_sim,10.479999999999865,0.1991543594647196,0.3435082260061784,0.4,0.0,-0.24679475200937487,0.2025760505318052,0,-0.13298193780449072,0.48199149807622393,0.5,0.0,1.4688982812503255,-1.955884144205308,0,65000
cf1_sim,10.499999999999865,0.19408451233509227,0.34745914699174096,0.4,0.0,-0.25349235648136675,0.1975460492781263,0,-0.14259452962251096,0.4792356415394569,0.5,0.0,1.507327162602877,-1.9064983957882289,0,65000
cf1_sim,10.519999999999865,0.18888409538394144,0.35130683608419866,0.4,0.0,-0.2600208475575418,0.1923844546228837,0,-0.15215008552991724,0.4762880971357975,0.5,0.0,1.544767406935178,-1.8566888342413481,0,65000
cf1_sim,10.539999999999864,0.18355651990475452,0.35504872912402685,0.4,0.0,-0.26637877395934556,0.18709465199140926,0,-0.1616447834317523,0.47315004384370707,0.5,0.0,1.5812108160770848,-1.8064793055429136,0,65000
cf1_sim,10.559999999999864,0.1781052245834572,0.35868233022167334,0.4,0.0,-0.2725647660648652,0.18168005488232397,0,-0.1710748255754497,0.46982273684266224,0.5,0.0,1.6166496534847343,-1.755892969913751,0,65000
cf1_sim,10.579999999999863,0.1725336739122459,0.3622052122874088,0.4,0.0,-0.2785775335605656,0.1761441032867744,0,-0.1804364400698842,0.4663075070111,0.5,0.0,1.6510766316616405,-1.7049523540972815,0,65000
cf1_sim,10.599999999999863,0.1668453566468049,0.3656150175304237,0.4,0.0,-0.28441586327205,0.17049026215074364,0,-0.18972588239407787,0.46260576039408385,0.5,0.0,1.6844849005561109,-1.6536794002938575,0,65000
cf1_sim,10.619999999999862,0.16104378430355712,0.36890945792796553,0.4,0.0,-0.290078617162388,0.16472201987709334,0,-0.1989394368949586,0.45871897764090463,0.5,0.0,1.71686803687165,-1.6020955119213203,0,65000
