Crazyflie name,QTM packet timestamp (s),QTM_x (m),QTM_y (m),QTM_z (m),cf_yaw (°),QTM_vx (m/s),QTM_vy (m/s),QTM_vz (m/s),x_g (m),y_g (m),z_g (m),yaw_g (°),roll_c (°),pitch_c (°),yaw_rate_c (°/s),thrust_c (PWM)
cf1_sim,5.359999999999974,0.0,0.0,0.4,0.0,0.0,0.0,0,1,1,0.4,90.0,-20,20,-180,38000
cf1_sim,5.379999999999973,0.0013697343969651498,0.0013697343969651498,0.4,3.6000000000000005,0.0684867198482575,0.0684867198482575,0,1,1,0.4,90.0,-19.936729358532723,20,-180,38000
cf1_sim,5.399999999999973,0.004020766082343882,0.004188182019232726,0.4,7.200000000000001,0.13255158426893662,0.14092238111337882,0,1,1,0.4,90.0,-16.95799685222245,20,-180,38000
cf1_sim,5.419999999999972,0.00788516968574211,0.008330542495394154,0.4,10.8,0.1932201801699114,0.20711802380807143,0,1,1,0.4,90.0,-14.231284793787145,20,-180,38000
cf1_sim,5.439999999999972,0.012912413973613108,0.01368695581605547,0.4,14.400000000000002,0.25136221439354983,0.2678206660330658,0,1,1,0.4,90.0,-11.755997526183247,20,-180,38000
cf1_sim,5.4599999999999715,0.019066132317090964,0.020163843308114653,0.4,18.0,0.30768591717389276,0.323844374602959,0,1,1,0.4,90.0,-9.530355384376616,19.320353641846403,-180,38000
cf1_sim,5.479999999999971,0.02627658064368777,0.027670375501340612,0.4,21.6,0.3605224163298404,0.37532660966129794,0,1,1,0.4,90.0,-7.548031865710751,18.103434423571517,-180,38000
cf1_sim,5.499999999999971,0.03444950926463493,0.036113963626655296,0.4,25.200000000000003,0.4086464310473579,0.4221794062657341,0,1,1,0.4,90.0,-5.799079964511339,16.834630444607193,-180,38000
cf1_sim,5.51999999999997,0.043496554497668385,0.04540781447858688,0.4,28.800000000000004,0.45235226165167275,0.4646925425965794,0,1,1,0.4,90.0,-4.272561049677675,15.534077648810609,-180,38000
cf1_sim,5.53999999999997,0.053334915428873836,0.05547061181005329,0.4,32.400000000000006,0.49191804656027244,0.5031398665733203,0,1,1,0.4,90.0,-2.9567338328611092,14.219986406073378,-180,38000
cf1_sim,5.559999999999969,0.06388704731094112,0.06622621413464916,0.4,36.00000000000001,0.5276065941033642,0.5377801162297932,0,1,1,0.4,90.0,-1.8392310852291485,12.908689286572313,-180,38000
cf1_sim,5.579999999999969,0.07508037077344451,0.07760336812310499,0.4,39.60000000000001,0.5596661731251695,0.5688576994227917,0,1,1,0.4,90.0,-0.9072239863011701,11.614698399698321,-180,38000
cf1_sim,5.599999999999969,0.08684699606064464,0.08953543681994079,0.4,43.20000000000001,0.5883312643600063,0.5966034348417898,0,1,1,0.4,90.0,-0.14757408429522006,10.350770989696008,-180,38000
cf1_sim,5.619999999999968,0.0991234615502885,0.10196014194381633,0.4,46.80000000000001,0.6138232744821936,0.6212352561937772,0,1,1,0.4,90.0,0.4530270651453802,9.12798204292541,-180,38000
cf1_sim,5.639999999999968,0.11185048584305579,0.11481931957077511,0.4,50.40000000000001,0.6363512146383644,0.6429588813479389,0,1,1,0.4,90.0,0.9079304358813404,7.955802727204939,-180,38000
cf1_sim,5.659999999999967,0.12497273274674744,0.12805868853357188,0.4,54.000000000000014,0.6561123451845825,0.6619684481398382,0,1,1,0.4,90.0,1.230414026911712,6.842183551243649,-180,38000
cf1_sim,5.679999999999967,0.13843858851211807,0.14162763090264607,0.4,57.600000000000016,0.6732927882685317,0.678447118453709,0,1,1,0.4,90.0,1.4335790366261703,5.793641201102907,-162,38000
cf1_sim,5.699999999999966,0.1521999507084938,0.15547898394513052,0.4,60.84000000000002,0.6880681098187863,0.6925676521242222,0,1,1,0.4,90.0,1.4999716488133334,4.8248678569405,-146,38000
cf1_sim,5.719999999999966,0.1662120281570659,0.1695688429876405,0.4,63.76000000000001,0.7006038724286053,0.7044929521254994,0,1,1,0.4,90.0,1.4616872600352717,3.9384026825780705,-131,38000
cf1_sim,5.739999999999966,0.18043315136807875,0.1838563746365409,0.4,66.38000000000002,0.7110561605506418,0.7143765824450202,0,1,1,0.4,90.0,1.3440465289068209,3.1333492725371808,-118,38000
cf1_sim,5.759999999999965,0.19482459295510396,0.19830363983600607,0.4,68.74000000000002,0.7195720793512607,0.7223632599732593,0,1,1,0.4,90.0,1.1690933653571849,2.4058241266778233,-106,38000
cf1_sim,5.779999999999965,0.2093503975252771,0.21287542626953063,0.4,70.86000000000003,0.7262902285086572,0.7285893216762281,0,1,1,0.4,90.0,0.9536128512131935,1.7509917768886964,-96,38000
cf1_sim,5.799999999999964,0.22397722056882738,0.22753908963467953,0.4,72.78000000000003,0.731341152177514,0.733183168257445,0,1,1,0.4,90.0,0.711635028707456,1.1629836805016533,-86,38000
cf1_sim,5.819999999999964,0.238674175894515,0.24226440334384094,0.4,74.50000000000001,0.7348477662843812,0.736265685458071,0,1,1,0.4,90.0,0.45326642253921934,0.6363272351106085,-77,38000
cf1_sim,5.839999999999963,0.2534126911797586,0.25702341622561886,0.4,76.04000000000002,0.7369257642621815,0.737950644088897,0,1,1,0.4,90.0,0.18709833352226313,0.165201823757549,-70,38000
cf1_sim,5.859999999999963,0.2681663712253406,0.27179031782232715,0.4,77.44000000000004,0.737684002279098,0.7383450798354138,0,1,1,0.4,90.0,-0.08035858251804888,-0.2558847563836815,-63,38000
cf1_sim,5.879999999999963,0.28291086852467,0.28654131089887186,0.4,78.70000000000005,0.7372248649664697,0.7375496538272343,0,1,1,0.4,90.0,-0.3443445127770157,-0.6318457667865284,-56,38000
cf1_sim,5.899999999999962,0.2976237607767117,0.3012544907971825,0.4,79.82000000000005,0.735644612602085,0.7356589949155294,0,1,1,0.4,90.0,-0.6009297869307987,-0.9674337747685464,-51,38000
cf1_sim,5.919999999999962,0.31228443498989805,0.3159097312883184,0.4,80.84000000000005,0.7330337106593171,0.7327620245567958,0,1,1,0.4,90.0,-0.8477959874996626,-1.2665888065312108,-46,38000
cf1_sim,5.939999999999961,0.3268739778416734,0.33048857659147984,0.4,81.76000000000005,0.7294771425887667,0.7289422651580713,0,1,1,0.4,90.0,-1.0829304090036933,-1.5330869848376132,-41,38000
cf1_sim,5.959999999999961,0.3413750719748211,0.3449741392454312,0.4,82.58000000000006,0.7250547066573858,0.7242781326975665,0,1,1,0.4,90.0,-1.3047428330100217,-1.770467571601958,-37,38000
cf1_sim,5.9799999999999605,0.3557718979274277,0.3593510035333408,0.4,83.32000000000004,0.7198412976303302,0.71884321439548,0,1,1,0.4,90.0,-1.5127005598025947,-1.9814946639476094,-33,38000
cf1_sim,5.99999999999996,0.37005004140828685,0.37360513417678937,0.4,83.98000000000003,0.7139071740429574,0.7127065321724262,0,1,1,0.4,90.0,-1.706090281619108,-2.1690062575760973,-30,38000
cf1_sim,6.01999999999996,0.3841964056437737,0.38772379002873614,0.4,84.58000000000003,0.7073182117743438,0.7059327925973398,0,1,1,0.4,90.0,-1.885238574843565,-2.334962015950967,-27,38000
cf1_sim,6.039999999999959,0.3981991285357611,0.40169544250859307,0.4,85.12000000000002,0.70013614459937,0.6985826239928453,0,1,1,0.4,90.0,-2.050002773675282,-2.4815915846897405,-24,38000
cf1_sim,6.059999999999959,0.4120475043830356,0.4155096985352693,0.4,85.60000000000004,0.6924187923637249,0.6907128013338124,0,1,1,0.4,90.0,-2.2003669879811714,-2.610945492860644,-22,38000
cf1_sim,6.079999999999958,0.4257319099309364,0.42915722772615106,0.4,86.04000000000003,0.6842202773950392,0.6823764595440869,0,1,1,0.4,90.0,-2.337373484131392,-2.724086634075262,-20,38000
cf1_sim,6.099999999999958,0.43924373452561033,0.4426296936414934,0.4,86.44000000000004,0.6755912297336967,0.6736232957671185,0,1,1,0.4,90.0,-2.4613071823571686,-2.8226007655493914,-18,38000
cf1_sim,6.1199999999999575,0.4525753141603829,0.45591968886466,0.4,86.80000000000004,0.6665789817386263,0.6644997611583306,0,1,1,0.4,90.0,-2.5725005455327112,-2.9079455279129025,-16,38000
cf1_sim,6.139999999999957,0.46571986921231234,0.4690206737190705,0.4,87.12000000000003,0.657227752596472,0.6550492427205263,0,1,1,0.4,90.0,-2.671324625675916,-2.981457625424019,-14,38000
cf1_sim,6.159999999999957,0.4786714456770507,0.48192691843263746,0.4,87.40000000000003,0.6475788232369186,0.6453122356783467,0,1,1,0.4,90.0,-2.7581811213715235,-3.0443599012670286,-13,38000
cf1_sim,6.179999999999956,0.49142485971970173,0.4946334485699118,0.4,87.66000000000004,0.6376707021325503,0.6353265068637167,0,1,1,0.4,90.0,-2.834576515390547,-3.096779000736431,-12,38000
cf1_sim,6.199999999999956,0.5039756453684694,0.5071359935611375,0.4,87.90000000000003,0.6275392824383855,0.6251272495612855,0,1,1,0.4,90.0,-2.9009995830858664,-3.1396622466292152,-10,38000
cf1_sim,6.219999999999955,0.5163200051865514,0.5194309381659582,0.4,88.10000000000004,0.6172179909041036,0.6147472302410377,0,1,1,0.4,90.0,-2.9568261179931064,-3.17491671700976,-9,38000
cf1_sim,6.239999999999955,0.5284547637659696,0.5315152767176473,0.4,88.28000000000004,0.606737928970909,0.6042169275844567,0,1,1,0.4,90.0,-3.0036225564661634,-3.2023500140617696,-9,38000
cf1_sim,6.2599999999999545,0.5403773238948679,0.5433865700014638,0.4,88.46000000000006,0.5961280064449187,0.5935646641908275,0,1,1,0.4,90.0,-3.0429899368497897,-3.221634571542318,-8,38000
cf1_sim,6.279999999999954,0.552085625257265,0.5550429046280921,0.4,88.62000000000005,0.5854150681198522,0.5828167313314165,0,1,1,0.4,90.0,-3.074278595813115,-3.234486773961329,-7,38000
cf1_sim,6.299999999999954,0.5635781055313374,0.5664828547701184,0.4,88.76000000000005,0.574624013703616,0.5719975071013143,0,1,1,0.4,90.0,-3.097936628523178,-3.2415357845899107,-6,38000
cf1_sim,6.319999999999953,0.5748536637590584,0.5777054461361513,0.4,88.88000000000005,0.5637779113860569,0.5611295683016442,0,1,1,0.4,90.0,-3.114400535531833,-3.243359245782385,-6,38000
cf1_sim,6.339999999999953,0.5859116258664319,0.5887101220635226,0.4,89.00000000000006,0.5528981053686682,0.550233796368566,0,1,1,0.4,90.0,-3.125225431210972,-3.2393961262214734,-5,38000
cf1_sim,6.359999999999952,0.5967517122196586,0.5994967116165228,0.4,89.10000000000005,0.5420043176613376,0.5393294776500156,0,1,1,0.4,90.0,-3.1296862693819922,-3.231219495192769,-4,38000
cf1_sim,6.379999999999952,0.6073740071083842,0.6100653995828504,0.4,89.18000000000004,0.531114744436277,0.5284343983163776,0,1,1,0.4,90.0,-3.128176962484213,-3.21927924314043,-4,38000
cf1_sim,6.3999999999999515,0.6177789300526852,0.6204166982663953,0.4,89.26000000000005,0.520246147215052,0.5175649341772461,0,1,1,0.4,90.0,-3.122196500889973,-3.202896616681745,-4,38000
cf1_sim,6.419999999999951,0.6279672088357069,0.6305514209796568,0.4,89.34000000000005,0.50941393915108,0.5067361356630692,0,1,1,0.4,90.0,-3.1120919823422524,-3.1824581034455,-3,38000
cf1_sim,6.439999999999951,0.6379398541688485,0.6404706571440117,0.4,89.40000000000005,0.498632266657077,0.49596180821774805,0,1,1,0.4,90.0,-3.097087635739937,-3.159407046920999,-3,38000
cf1_sim,6.45999999999995,0.6476981359011417,0.6501757489107349,0.4,89.46000000000005,0.48791408661465835,0.48525458833615714,0,1,1,0.4,90.0,-3.07861264503558,-3.1329886530509947,-3,38000
cf1_sim,6.47999999999995,0.657243560688974,0.6596682692201153,0.4,89.52000000000005,0.47727123939161836,0.47462601546902106,0,1,1,0.4,90.0,-3.056959747025057,-3.103516824437841,-2,38000
cf1_sim,6.499999999999949,0.6665778510466,0.6689500012202477,0.4,89.56000000000006,0.4667145178812935,0.4640866000066176,0,1,1,0.4,90.0,-3.0313317832658506,-3.072343630214334,-2,38000
cf1_sim,6.519999999999949,0.6757029257019566,0.6780229189710943,0.4,89.60000000000007,0.4562537327678324,0.4536458875423332,0,1,1,0.4,90.0,-3.003083307472974,-3.03866611911341,-2,38000
cf1_sim,6.5399999999999485,0.684620881186179,0.6868891693632375,0.4,89.64000000000007,0.44589777421112337,0.4433125196071594,0,1,1,0.4,90.0,-2.972459275892508,-3.0027385664422486,-2,38000
cf1_sim,6.559999999999948,0.6933339745888899,0.6955510551843728,0.4,89.68000000000008,0.4356546701355431,0.43309429105676267,0,1,1,0.4,90.0,-2.939689354392766,-2.964798634821867,-2,38000
cf1_sim,6.579999999999948,0.7018446074148413,0.7040110192700479,0.4,89.72000000000008,0.4255316412975696,0.42299820428375834,0,1,1,0.4,90.0,-2.90498874946792,-2.925068312374909,-1,38000
cf1_sim,6.599999999999947,0.7101553104808137,0.712271629678433,0.4,89.7400000000001,0.41553515329861956,0.41303052041925564,0,1,1,0.4,90.0,-2.8675522020141533,-2.884755941863755,-1,38000
cf1_sim,6.619999999999947,0.7182687297948379,0.7203355658320248,0.4,89.76000000000008,0.40567096570120964,0.40319680767958904,0,1,1,0.4,90.0,-2.8286045937288886,-2.8430267925319512,-1,38000
cf1_sim,6.639999999999946,0.7261876133628115,0.7282056055721527,0.4,89.78000000000007,0.39594417839867985,0.3935019870063976,0,1,1,0.4,90.0,-2.788323609211564,-2.8000595648315336,-1,38000
cf1_sim,6.659999999999946,0.7339147988704362,0.7358846130749694,0.4,89.80000000000007,0.386359275381238,0.38395037514083297,0,1,1,0.4,90.0,-2.7468751627852885,-2.7560207994024366,-1,38000
cf1_sim,6.6799999999999455,0.7414532021911155,0.7433755275802826,0.4,89.82000000000005,0.3769201660339666,0.37454572526565677,0,1,1,0.4,90.0,-2.7044140584776724,-2.711065573111048,-1,38000
cf1_sim,6.699999999999945,0.7488058066730288,0.7506813528871288,0.4,89.84000000000006,0.36763022409566215,0.36529126534230744,0,1,1,0.4,90.0,-2.661084615783757,-2.6653381583295075,-1,38000
cf1_sim,6.719999999999945,0.7559756531610474,0.757805147572402,0.4,89.86000000000006,0.35849232440093526,0.3561897342636613,0,1,1,0.4,90.0,-2.617021262908393,-2.6189726473110495,-1,38000
cf1_sim,6.739999999999944,0.7629658307114848,0.7647500158911453,0.4,89.88000000000005,0.3495088775218709,0.34724341593716707,0,1,1,0.4,90.0,-2.5723490991035454,-2.5720935434257823,-1,38000
cf1_sim,6.759999999999944,0.7697794679598792,0.771519099319291,0.4,89.90000000000005,0.3406818624197171,0.3384541714072811,0,1,1,0.4,90.0,-2.527184427637849,-2.524816320934474,0,38000
cf1_sim,6.779999999999943,0.7764197251041097,0.7781155687017042,0.4,89.90000000000005,0.3320128572115264,0.32982346912065974,0,1,1,0.4,90.0,-2.4807703870252533,-2.4781140580781145,0,38000
cf1_sim,6.799999999999943,0.7828897864671376,0.7845426169703514,0.4,89.90000000000005,0.3235030681513953,0.3213524134323606,0,1,1,0.4,90.0,-2.43410510312046,-2.431187340985162,0,38000
cf1_sim,6.8199999999999426,0.7891928536055562,0.7908034523992785,0.4,89.90000000000005,0.3151533569209328,0.31304177144635575,0,1,1,0.4,90.0,-2.387281539326655,-2.3841274409992517,0,38000
cf1_sim,6.839999999999942,0.7953321389319326,0.7969012923648575,0.4,89.90000000000005,0.30696426631881396,0.30489199827895036,0,1,1,0.4,90.0,-2.340385611715263,-2.3370186755328453,0,38000
cf1_sim,6.859999999999942,0.8013108598206272,0.802839357581442,0.4,89.90000000000005,0.29893604443473537,0.2969032608292243,0,1,1,0.4,90.0,-2.293496607246662,-2.2899388214671244,0,38000
cf1_sim,6.879999999999941,0.8071322331684027,0.8086208667841691,0.4,89.90000000000005,0.2910686673887745,0.2890754601363552,0,1,1,0.4,90.0,-2.2466875795740227,-2.242959506374308,0,38000
cf1_sim,6.899999999999941,0.8127994703826636,0.8142490318321618,0.4,89.90000000000005,0.28336186071304725,0.28140825239963246,0,1,1,0.4,90.0,-2.2000257235682357,-2.196146578688772,0,38000
cf1_sim,6.91999999999994,0.8183157727716368,0.8197270532068243,0.4,89.90000000000005,0.2758151194486559,0.27390106873312126,0,1,1,0.4,90.0,-2.1535727296460694,-2.1495604578980867,0,38000
cf1_sim,6.93999999999994,0.823684327312181,0.8250581158812897,0.4,89.90000000000005,0.2684277270272073,0.2665531337232743,0,1,1,0.4,90.0,-2.107385118930462,-2.1032564657723354,0,38000
cf1_sim,6.95999999999994,0.828908302772234,0.8302453855383759,0.4,89.90000000000005,0.2611987730026521,0.25936348285430816,0,1,1,0.4,90.0,-2.061514560221142,-2.0572851395999394,0,38000
cf1_sim,6.979999999999939,0.8339908461661508,0.835292005115633,0.4,89.90000000000005,0.25412716969583904,0.25233097886285033,0,1,1,0.4,90.0,-2.016008169705606,-2.011692528350437,0,38000
cf1_sim,6.999999999999939,0.8389350795223707,0.8402010916572373,0.4,89.90000000000005,0.24721166781099008,0.24545432708021897,0,1,1,0.4,90.0,-1.9709087942945605,-1.9665204726392955,0,38000
cf1_sim,7.019999999999938,0.843744096943976,0.8449757334535914,0.4,89.90000000000005,0.24045087108026791,0.23873208981770339,0,1,1,0.4,90.0,-1.9262552794222474,-1.9218068693265098,0,38000
cf1_sim,7.039999999999938,0.8484209619437705,0.8496189874505389,0.4,89.90000000000005,0.23384324998972525,0.23216269984737217,0,1,1,0.4,90.0,-1.8820827221105312,-1.877585921539617,0,38000
cf1_sim,7.059999999999937,0.8529687050365141,0.8541338769111035,0.4,89.90000000000005,0.2273871546371845,0.2257444730282321,0,1,1,0.4,90.0,-1.8384227100560144,-1.8338883748725903,0,38000
cf1_sim,7.079999999999937,0.857390321571914,0.8585233893136034,0.4,89.90000000000005,0.22108082676999263,0.21947562012499305,0,1,1,0.4,90.0,-1.7953035474618322,-1.7907417404747914,0,38000
cf1_sim,7.099999999999937,0.8616887697928763,0.8627904744708884,0.4,89.90000000000005,0.2149224110481198,0.213354257864252,0,1,1,0.4,90.0,-1.7527504682999457,-1.7481705057086823,0,38000
cf1_sim,7.119999999999936,0.8658669691043908,0.8669380428563002,0.4,89.90000000000005,0.20890996557571842,0.20737841927059017,0,1,1,0.4,90.0,-1.7107858376556424,-1.7061963330212557,0,38000
cf1_sim,7.139999999999936,0.8699277985392312,0.8709689641227576,0.4,89.90000000000005,0.20304147174202344,0.2015460633228718,0,1,1,0.4,90.0,-1.6694293417735173,-1.66483824764203,0,38000
cf1_sim,7.159999999999935,0.8738740954074382,0.8748860658021363,0.4,89.90000000000005,0.19731484341035058,0.1958550839689388,0,1,1,0.4,90.0,-1.6286981673933751,-1.6241128146898673,0,38000
cf1_sim,7.179999999999935,0.8777086541172768,0.8786921321728345,0.4,89.90000000000005,0.1917279354919305,0.19030331853490481,0,1,1,0.4,90.0,-1.588607170935045,-1.5840343062418532,0,38000
cf1_sim,7.1999999999999345,0.8814342251560648,0.8823899032841017,0.4,89.90000000000005,0.1862785519393999,0.18488855556336142,0,1,1,0.4,90.0,-1.5491690380632654,-1.5446148588897617,0,38000
cf1_sim,7.219999999999934,0.8850535142199238,0.885982074126362,0.4,89.90000000000005,0.18096445319294782,0.17960854211301253,0,1,1,0.4,90.0,-1.5103944341371196,-1.5058646222833498,0,38000
cf1_sim,7.239999999999934,0.8885691814821316,0.8894712939373729,0.4,89.90000000000005,0.17578336311038564,0.17446099055054642,0,1,1,0.4,90.0,-1.472292146023276,-1.467791899134672,0,38000
cf1_sim,7.259999999999933,0.8919838409903469,0.8928601656346515,0.4,89.90000000000005,0.1707329754107649,0.16944358486393452,0,1,1,0.4,90.0,-1.4348692157282088,-1.4304032771338204,0,38000
cf1_sim,7.279999999999933,0.895300060183539,0.8961512453651477,0.4,89.90000000000005,0.16581095965960566,0.1645539865248055,0,1,1,0.4,90.0,-1.398131066281691,-1.3937037532038077,0,38000
cf1_sim,7.299999999999932,0.8985203595199853,0.8993470421636693,0.4,89.90000000000005,0.16101496682231567,0.15978983992608198,0,1,1,0.4,90.0,-1.3620816202820998,-1.3576968505007938,0,38000
cf1_sim,7.319999999999932,0.9016472122082048,0.9024500177120629,0.4,89.90000000000005,0.15634263441097188,0.1551487774196783,0,1,1,0.4,90.0,-1.3267234114933617,-1.3223847285453658,0,38000
cf1_sim,7.3399999999999315,0.9046830440331708,0.9054625861916177,0.4,89.90000000000005,0.15179159124829888,0.15062842397773926,0,1,1,0.4,90.0,-1.2920576898636846,-1.2877682868510754,0,38000
cf1_sim,7.359999999999931,0.907630233270599,0.9083871142216107,0.4,89.90000000000005,0.14735946187140914,0.14622640149964813,0,1,1,0.4,90.0,-1.2580845203174946,-1.2538472623979113,0,38000
cf1_sim,7.379999999999931,0.9104911106825323,0.9112259208773276,0.4,89.90000000000005,0.14304387059666435,0.14194033278584375,0,1,1,0.4,90.0,-1.224802875654199,-1.2206203212807722,0,38000
cf1_sim,7.39999999999993,0.9132679595878498,0.9139812777812947,0.4,89.90000000000005,0.138842445265873,0.13776784519835808,0,1,1,0.4,90.0,-1.1922107238704522,-1.1880851448462222,0,38000
cf1_sim,7.41999999999993,0.9159630160017088,0.916655409261833,0.4,89.90000000000005,0.13475282069295283,0.13370657402691494,0,1,1,0.4,90.0,-1.1603051102065054,-1.1562385106149065,0,38000
cf1_sim,7.439999999999929,0.918578468838292,0.9192504925734013,0.4,89.90000000000005,0.1307726418291558,0.129754165578414,0,1,1,0.4,90.0,-1.129082234201927,-1.1250763682718028,0,38000
cf1_sim,7.459999999999929,0.9211164601715714,0.9217686581735345,0.4,89.90000000000005,0.1268995666639745,0.12590828000665952,0,1,1,0.4,90.0,-1.0985375220313838,-1.0945939109921459,0,38000
cf1_sim,7.4799999999999285,0.9235790855491298,0.9242119900515,0.4,89.90000000000005,0.12313126887792086,0.12216659389827789,0,1,1,0.4,90.0,-1.0686656943774024,-1.064785642357103,0,38000
cf1_sim,7.499999999999928,0.9259683943543795,0.926582526104098,0.4,89.90000000000005,0.11946544026248593,0.11852680262989931,0,1,1,0.4,90.0,-1.0394608300838113,-1.0356454391002943,0,38000
cf1_sim,7.519999999999928,0.9282863902128146,0.928882258554315,0.4,89.90000000000005,0.11589979292175433,0.1149866225108552,0,1,1,0.4,90.0,-1.0109164258210819,-1.0071666099138685,0,38000
cf1_sim,7.539999999999927,0.9305350314382016,0.9311131344088123,0.4,89.90000000000005,0.11243206126935336,0.11154379272486065,0,1,1,0.4,90.0,-0.9830254519829229,-0.9793419505310736,0,38000
cf1_sim,7.559999999999927,0.9327162315148749,0.9332770559504805,0.4,89.90000000000005,0.10906000383366445,0.10819607708340999,0,1,1,0.4,90.0,-0.9557804050221516,-0.9521637952910864,0,38000
cf1_sim,7.579999999999926,0.9348318596125451,0.9353758812625387,0.4,89.90000000000005,0.10578140488351108,0.10494126560291027,0,1,1,0.4,90.0,-0.929173356423137,-0.9256240653812445,0,38000
cf1_sim,7.599999999999926,0.9368837411302623,0.9374114247808769,0.4,89.90000000000005,0.10259407588586059,0.10177717591690984,0,1,1,0.4,90.0,-0.9031959984979319,-0.8997143139417054,0,38000
cf1_sim,7.6199999999999255,0.938873658266391,0.9393854578715599,0.4,89.90000000000005,0.09949585680643526,0.09870165453414753,0,1,1,0.4,90.0,-0.8778396871834552,-0.8744257682079788,0,38000
cf1_sim,7.639999999999925,0.9408033506116614,0.9412997094306109,0.4,89.90000000000005,0.09648461726351985,0.09571257795254762,0,1,1,0.4,90.0,-0.8530954820079355,-0.8497493688576563,0,38000
cf1_sim,7.659999999999925,0.9426745157625549,0.9431558665033852,0.4,89.90000000000005,0.09355825754467563,0.09280785363871734,0,1,1,0.4,90.0,-0.82895418338603,-0.8256758067189857,0,38000
cf1_sim,7.679999999999924,0.9444888099524654,0.9449555749210246,0.4,89.90000000000005,0.09071470949552418,0.08998542088196512,0,1,1,0.4,90.0,-0.8054063673937305,-0.802195556990733,0,38000
cf1_sim,7.699999999999924,0.9462478486982503,0.9467004399516514,0.4,89.90000000000005,0.08795193728924595,0.08724325153134649,0,1,1,0.4,90.0,-0.7824424181662434,-0.779298911114899,0,38000
cf1_sim,7.719999999999923,0.9479532074599493,0.9483920269641266,0.4,89.90000000000005,0.08526793808494725,0.08457935062376082,0,1,1,0.4,90.0,-0.7600525580545774,-0.7569760064365157,0,38000
cf1_sim,7.739999999999923,0.949606422311601,0.9500318621023399,0.4,89.90000000000005,0.08266074258258377,0.08199175691066342,0,1,1,0.4,90.0,-0.7382268756693526,-0.7352168537775906,0,38000
cf1_sim,7.7599999999999225,0.9512089906212348,0.9516214329681504,0.4,89.90000000000005,0.08012841548168816,0.07947854329052291,0,1,1,0.4,90.0,-0.71695535193367,-0.7140113630456473,0,38000
cf1_sim,7.779999999999922,0.9527623717382494,0.9531621893112252,0.4,89.90000000000005,0.07766905585073076,0.07703781715374224,0,1,1,0.4,90.0,-0.6962278842603679,-0.6933493669909105,0,38000
cf1_sim,7.799999999999922,0.9542679876865203,0.9546555437241526,0.4,89.90000000000005,0.0752807974135476,0.07466772064637159,0,1,1,0.4,90.0,-0.6760343089629307,-0.6732206432201204,0,38000
cf1_sim,7.819999999999921,0.9557272238616982,0.9561028723413241,0.4,89.90000000000005,0.07296180875889427,0.07236643085857285,0,1,1,0.4,90.0,-0.6563644220034881,-0.6536149345692635,0,38000
cf1_sim,7.839999999999921,0.9571414297312748,0.9575055155401929,0.4,89.90000000000005,0.07071029347883018,0.07013215994344493,0,1,1,0.4,90.0,-0.637207998175847,-0.6345219679320253,0,38000
cf1_sim,7.85999999999992,0.9585119195361008,0.9588647786436227,0.4,89.90000000000005,0.06852449024130114,0.06796315517148903,0,1,1,0.4,90.0,-0.6185548088162621,-0.6159314716356133,0,38000
cf1_sim,7.87999999999992,0.9598399729921402,0.9601819326221364,0.4,89.90000000000005,0.06640267280197064,0.06585769892567905,0,1,1,0.4,90.0,-0.600394638129698,-0.5978331914506647,0,38000
cf1_sim,7.8999999999999195,0.9611268359913412,0.9614582147949725,0.4,89.90000000000005,0.06434314996004882,0.0638141086418065,0,1,1,0.4,90.0,-0.5827172982146087,-0.5802169053173292,0,38000
cf1_sim,7.919999999999919,0.9623737213005928,0.9626948295289423,0.4,89.90000000000005,0.06234426546258373,0.06183073669848809,0,1,1,0.4,90.0,-0.5655126428647771,-0.563072436865151,0,38000
cf1_sim,7.939999999999919,0.963581809257821,0.9638929489341614,0.4,89.90000000000005,0.06040439786140964,0.05990597026095936,0,1,1,0.4,90.0,-0.5487705802225595,-0.546389667800197,0,38000
cf1_sim,7.959999999999918,0.9647522484643548,0.9650537135558119,0.4,89.90000000000005,0.058521960326692414,0.05803823108252628,0,1,1,0.4,90.0,-0.5324810843537855,-0.5301585492288801,0,38000
cf1_sim,7.979999999999918,0.9658861564727702,0.9661782330611581,0.4,89.90000000000005,0.05669540042077103,0.0562259752673095,0,1,1,0.4,90.0,-0.5166342058107916,-0.5143691119841719,0,38000
cf1_sim,7.999999999999917,0.9669846204694855,0.9672675869211119,0.4,89.90000000000005,0.054923199835765914,0.05446769299769136,0,1,1,0.4,90.0,-0.5012200812464119,-0.4990114760162566,0,38000
cf1_sim,8.019999999999918,0.9680486979514498,0.9683228250857052,0.4,89.90000000000005,0.05320387409820978,0.05276190822966368,0,1,1,0.4,90.0,-0.48622894213832124,-0.48407585890634997,0,38000
cf1_sim,8.039999999999917,0.9690794173963249,0.9693449686528867,0.4,89.90000000000005,0.0515359722437525,0.05110717835907353,0,1,1,0.4,90.0,-0.4716511226798531,-0.4695525835590881,0,38000
cf1_sim,8.059999999999917,0.9700777789256209,0.9703350105301182,0.4,89.90000000000005,0.049918076464799226,0.04950209386157489,0,1,1,0.4,90.0,-0.45747706689032674,-0.45543208512592576,0,38000
cf1_sim,8.079999999999917,0.9710447549602961,0.9712939160882965,0.4,89.90000000000005,0.04834880173375906,0.04794527790891482,0,1,1,0.4,90.0,-0.4436973349949719,-0.44170491720898525,0,38000
cf1_sim,8.099999999999916,0.9719812908683843,0.9722226238075767,0.4,89.90000000000005,0.04682679540440961,0.04643538596401367,0,1,1,0.4,90.0,-0.43030260912175494,-0.42836175739211246,0,38000
cf1_sim,8.119999999999916,0.9728883056042587,0.9731220459147195,0.4,89.90000000000005,0.045350736793720745,0.04497110535713925,0,1,1,0.4,90.0,-0.4172836983597908,-0.4153934121432663,0,38000
cf1_sim,8.139999999999915,0.9737666923391852,0.973993069011626,0.4,89.90000000000005,0.04391933674632732,0.04355115484532378,0,1,1,0.4,90.0,-0.404631543221481,-0.40279082112984943,0,38000
cf1_sim,8.159999999999915,0.9746173190828592,0.9748365546947666,0.4,89.90000000000005,0.0425313371836963,0.04217428415703036,0,1,1,0.4,90.0,-0.39233721954818573,-0.3905450609863209,0,38000
cf1_sim,8.179999999999914,0.9754410292956571,0.9756533401652454,0.4,89.90000000000005,0.04118551063989702,0.04083927352394134,0,1,1,0.4,90.0,-0.3803919418969664,-0.3786473485711318,0,38000
cf1_sim,8.199999999999914,0.9762386424913723,0.9764442388292777,0.4,89.90000000000005,0.03988065978575473,0.03954493320161396,0,1,1,0.4,90.0,-0.36878706644381476,-0.367089043747969,0,38000
cf1_sim,8.219999999999914,0.9770109548302331,0.9772100408888903,0.4,89.90000000000005,0.03861561694304581,0.038290102980629584,0,1,1,0.4,90.0,-0.3575140934367344,-0.35586165172426293,0,38000
cf1_sim,8.239999999999913,0.9777587397020387,0.9779515139226853,0.4,89.90000000000005,0.03738924359027888,0.037073651689749666,0,1,1,0.4,90.0,-0.34656466923019275,-0.3449568249780301,0,38000
cf1_sim,8.259999999999913,0.9784827482992687,0.9786694034565351,0.4,89.90000000000005,0.03620042986149779,0.03589447669248577,0,1,1,0.4,90.0,-0.3359305879305568,-0.3343663648023571,0,38000
cf1_sim,8.279999999999912,0.9791837101800576,0.9793644335241029,0.4,89.90000000000005,0.035048094039440834,0.034751503378390614,0,1,1,0.4,90.0,-0.3256037926805003,-0.32408222249507507,0,38000
cf1_sim,8.299999999999912,0.9798623338209435,0.9800373072171085,0.4,89.90000000000005,0.0339311820442946,0.033643684650282925,0,1,1,0.4,90.0,-0.31557637660867643,-0.3140965002196402,0,38000
cf1_sim,8.319999999999911,0.9805193071593272,0.9806887072252791,0.4,89.90000000000005,0.032848666919190715,0.032570000408530045,0,1,1,0.4,90.0,-0.30584058346944326,-0.3044014515616385,0,38000
cf1_sim,8.339999999999911,0.9811552981255974,0.9813192963659477,0.4,89.90000000000005,0.031799548313508626,0.0315294570334287,0,1,1,0.4,90.0,-0.2963888079959653,-0.2949894818039454,0,38000
cf1_sim,8.35999999999991,0.9817709551648968,0.9819297181032807,0.4,89.90000000000005,0.03078285196496758,0.03052108686664564,0,1,1,0.4,90.0,-0.2872135959886144,-0.2858531479421968,0,38000
cf1_sim,8.37999999999991,0.9823669077485251,0.9825205970571328,0.4,89.90000000000005,0.029797629181415826,0.029543947692605824,0,1,1,0.4,90.0,-0.278307644159337,-0.27698515846090727,0,38000
cf1_sim,8.39999999999991,0.9829437668749882,0.9830925395015457,0.4,89.90000000000005,0.028842956323154062,0.028597122220646337,0,1,1,0.4,90.0,-0.26966379975134935,-0.2683783728893895,0,38000
cf1_sim,8.41999999999991,0.9835021255607195,0.9836461338529195,0.4,89.90000000000005,0.027917934286563858,0.027679717568688703,0,1,1,0.4,90.0,-0.26127505995241046,-0.2600258011554377,0,38000
cf1_sim,8.439999999999909,0.9840425593205144,0.984181951147902,0.4,89.90000000000005,0.027021687989749063,0.026790864749120888,0,1,1,0.4,90.0,-0.25313457111879023,-0.25192060275367206,0,38000
cf1_sim,8.459999999999908,0.9845656266377312,0.9847005455110525,0.4,89.90000000000005,0.026153365860839585,0.025929718157522534,0,1,1,0.4,90.0,-0.24523562782600392,-0.24405608574439577,0,38000
cf1_sim,8.479999999999908,0.9850718694243222,0.9852024546123487,0.4,89.90000000000005,0.02531213932955175,0.02509545506481277,0,1,1,0.4,90.0,-0.23757167176140145,-0.23642570559782114,0,38000
cf1_sim,8.499999999999908,0.9855618134707732,0.9856882001146157,0.4,89.90000000000005,0.02449720232254772,0.02428727511334914,0,1,1,0.4,90.0,-0.2301362904727522,-0.22902306389764449,0,38000
cf1_sim,8.519999999999907,0.986035968886035,0.9861582881109648,0.4,89.90000000000005,0.023707770763087894,0.02350439981745846,0,1,1,0.4,90.0,-0.22292321598610937,-0.2218419069170039,0,38000
cf1_sim,8.539999999999907,0.9864948305275435,0.9866132095523416,0.4,89.90000000000005,0.022943082075424732,0.0227460720688358,0,1,1,0.4,90.0,-0.2159263233053679,-0.21487612407910672,0,38000
cf1_sim,8.559999999999906,0.9869388784214304,0.9870534406652857,0.4,89.90000000000005,0.022202394694343784,0.0220115556472058,0,1,1,0.4,90.0,-0.2091396288051493,-0.2081197463139733,0,38000
cf1_sim,8.579999999999906,0.9873685781730347,0.9874794433600177,0.4,89.90000000000005,0.02148498758021783,0.021300134736601473,0,1,1,0.4,90.0,-0.20255728852793536,-0.20156694432203323,0,38000
cf1_sim,8.599999999999905,0.9877843813678328,0.9878916656289692,0.4,89.90000000000005,0.020790159739902572,0.0206111134475788,0,1,1,0.4,90.0,-0.19617359639560442,-0.19521202675461197,0,38000
cf1_sim,8.619999999999905,0.9881867259629081,0.9882905419358823,0.4,89.90000000000005,0.020117229753767504,0.01994381534565131,0,1,1,0.4,90.0,-0.1899829823449165,-0.1890494383206889,0,38000
cf1_sim,8.639999999999905,0.9885760366690906,0.9886764935956062,0.4,89.90000000000005,0.0194655353091228,0.019297582986196552,0,1,1,0.4,90.0,-0.1839800103958367,-0.18307375782867058,0,38000
cf1_sim,8.659999999999904,0.988952725323896,0.9890499291447273,0.4,89.90000000000005,0.018834432740272616,0.018671777456056676,0,1,1,0.4,90.0,-0.17815937666100393,-0.17727969617137998,0,38000
cf1_sim,8.679999999999904,0.989317191255404,0.9894112447031679,0.4,89.90000000000005,0.018223296575396664,0.018065777922027147,0,1,1,0.4,90.0,-0.17251590730407476,-0.1716620942618421,0,38000
cf1_sim,8.699999999999903,0.9896698216372126,0.9897608243268959,0.4,89.90000000000005,0.01763151909043543,0.01747898118640184,0,1,1,0.4,90.0,-0.1670445564541709,-0.16621592092701165,0,38000
cf1_sim,8.719999999999903,0.9900109918346152,0.9900990403518903,0.4,89.90000000000005,0.017058509870129614,0.01691080124971823,0,1,1,0.4,90.0,-0.161740404083157,-0.1609362707660121,0,38000
cf1_sim,8.739999999999903,0.990341065742142,0.9904262537295068,0.4,89.90000000000005,0.016503695376341245,0.01636066888082399,0,1,1,0.4,90.0,-0.15659865385197252,-0.15581836197905152,0,38000
cf1_sim,8.759999999999902,0.9906603961126172,0.9907428143533941,0.4,89.90000000000005,0.01596651852376268,0.01582803119436523,0,1,1,0.4,90.0,-0.1516146309318457,-0.1508575341727303,0,38000
cf1_sim,8.779999999999902,0.9909693248778793,0.9910490613781096,0.4,89.90000000000005,0.015446438263099585,0.015312351235777082,0,1,1,0.4,90.0,-0.14678377980577992,-0.1460492461470106,0,38000
cf1_sim,8.799999999999901,0.9912681834613152,0.9913453235295864,0.4,89.90000000000005,0.014942929171795566,0.014813107573839258,0,1,1,0.4,90.0,-0.14210166205530445,-0.14138907366879902,0,38000
cf1_sim,8.8199999999999,0.9915572930823622,0.9916319194076032,0.4,89.90000000000005,0.014455481052349036,0.014329793900842415,0,1,1,0.4,90.0,-0.13756395413712458,-0.13687270723664566,0,38000
cf1_sim,8.8399999999999,0.9918369650531274,0.9919091577804111,0.4,89.90000000000005,0.013983598538256899,0.013861918640395602,0,1,1,0.4,90.0,-0.13316644515395007,-0.13249594984080945,0,38000
cf1_sim,8.8599999999999,0.9921075010672794,0.992177337871669,0.4,89.90000000000005,0.013526800707605063,0.013409004562890691,0,1,1,0.4,90.0,-0.12890503462345962,-0.12825471472252908,0,38000
cf1_sim,8.8799999999999,0.9923691934813657,0.9924367496398415,0.4,89.90000000000005,0.01308462070431213,0.01297058840862645,0,1,1,0.4,90.0,-0.12477573024905822,-0.1241450231361031,0,38000
cf1_sim,8.899999999999899,0.992622325588706,0.9926876740502132,0.4,89.90000000000005,0.012656605367020138,0.012546220518582684,0,1,1,0.4,90.0,-0.12077464569575964,-0.1201630021170648,0,38000
cf1_sim,8.919999999999899,0.9928671718860183,0.9929303833396697,0.4,89.90000000000005,0.01224231486561475,0.012135464472823584,0,1,1,0.4,90.0,-0.11689799837432006,-0.11630488225947727,0,38000
cf1_sim,8.939999999999898,0.9931039983329252,0.9931651412743996,0.4,89.90000000000005,0.011841322345346593,0.011737896736499115,0,1,1,0.4,90.0,-0.11314210723641954,-0.11256699550511777,0,38000
cf1_sim,8.959999999999898,0.9933330626044955,0.9933922034006677,0.4,89.90000000000005,0.011453213578515824,0.011353106313403784,0,1,1,0.4,90.0,-0.10950339058350354,-0.10894577294709734,0,38000
cf1_sim,8.979999999999897,0.993554614336969,0.9936118172888085,0.4,89.90000000000005,0.011077586623673096,0.010980694407043454,0,1,1,0.4,90.0,-0.10597836389164952,-0.1054377426502114,0,38000
cf1_sim,8.999999999999897,0.9937688953668147,0.9938242227705916,0.4,89.90000000000005,0.010714051492281903,0.01062027408915299,0,1,1,0.4,90.0,-0.10256363765460728,-0.10203952749016111,0,38000
cf1_sim,9.019999999999897,0.9939761399632703,0.9940296521701035,0.4,89.90000000000005,0.010362229822780004,0.010271469975600236,0,1,1,0.4,90.0,-0.099255915246985,-0.09874784301352263,0,38000
cf1_sim,9.039999999999896,0.9941765750545097,0.9942283305282956,0.4,89.90000000000005,0.010021754561970778,0.009933917909605405,0,1,1,0.4,90.0,-0.0960519908093421,-0.09555949532021746,0,38000
cf1_sim,9.059999999999896,0.9943704204475832,0.9944204758213396,0.4,89.90000000000005,0.009692269653669388,0.009607264652198933,0,1,1,0.4,90.0,-0.09294874715679112,-0.09247137897002934,0,38000
cf1_sim,9.079999999999895,0.9945578890422736,0.9946062991729363,0.4,89.90000000000005,0.009373429734523087,0.009291167579835627,0,1,1,0.4,90.0,-0.08994315371255333,-0.08948047491457094,0,38000
cf1_sim,9.099999999999895,0.994739187039012,0.9947860050607179,0.4,89.90000000000005,0.009064899836920083,0.008985294389078085,0,1,1,0.4,90.0,-0.08703226446775236,-0.08658384845596082,0,38000
cf1_sim,9.119999999999894,0.99491451414099,0.9949597915168831,0.4,89.90000000000005,0.008766355098896934,0.008689322808258095,0,1,1,0.4,90.0,-0.08421321596857623,-0.08377864723328522,0,38000
cf1_sim,9.139999999999894,0.995084063750609,0.9951278503232035,0.4,89.90000000000005,0.00847748048095061,0.008402940316021016,0,1,1,0.4,90.0,-0.08148322533183014,-0.08106209923786786,0,38000
cf1_sim,9.159999999999894,0.9952480231604022,0.9952903672005365,0.4,89.90000000000005,0.008197970489657813,0.008125843866654676,0,1,1,0.4,90.0,-0.07883958828977587,-0.07843151085816571,0,38000
cf1_sim,9.179999999999893,0.9954065737385622,0.9954475219929786,0.4,89.90000000000005,0.007927528908001105,0.007857739622101508,0,1,1,0.4,90.0,-0.07627967726500226,-0.07588426495506126,0,38000
cf1_sim,9.199999999999893,0.9955598911092082,0.9955994888467896,0.4,89.90000000000005,0.0076658685322988146,0.007598342690550022,0,1,1,0.4,90.0,-0.07380093947601635,-0.07341781896815906,0,38000
cf1_sim,9.219999999999892,0.9957081453275208,0.9957464363842196,0.4,89.90000000000005,0.007412710915633346,0.007347376871499607,0,1,1,0.4,90.0,-0.07140089507410903,-0.07102970305365489,0,38000
cf1_sim,9.239999999999892,0.9958515010498743,0.9958885278723634,0.4,89.90000000000005,0.0071677861176706065,0.007104574407190767,0,1,1,0.4,90.0,-0.06907713531195647,-0.06871751825420906,0,38000
cf1_sim,9.259999999999891,0.9959901176990895,0.9960259213871692,0.4,89.90000000000005,0.006930832460761682,0.006869675740291358,0,1,1,0.4,90.0,-0.06682732074435038,-0.06647893470117122,0,38000
cf1_sim,9.279999999999891,0.9961241496249339,0.9961587699727237,0.4,89.90000000000005,0.00670159629221656,0.006642429277728256,0,1,1,0.4,90.0,-0.06464917946137118,-0.0643116898494684,0,38000
cf1_sim,9.29999999999989,0.9962537462599866,0.9962872217959348,0.4,89.90000000000005,0.006479831752638592,0.006422591160552788,0,1,1,0.4,90.0,-0.06254050535419582,-0.06221358674534133,0,38000
cf1_sim,9.31999999999989,0.9963790522709908,0.9964114202967294,0.4,89.90000000000005,0.0062653005502077645,0.0062099250397276455,0,1,1,0.4,90.0,-0.06049915641374783,-0.06018249232707094,0,38000
cf1_sim,9.33999999999989,0.9965002077058068,0.9965315043338838,0.4,89.90000000000005,0.0060577717408001035,0.0060042018577225,0,1,1,0.4,90.0,-0.05852305306224089,-0.05821633575878928,0,38000
cf1_sim,9.35999999999989,0.9966173481360835,0.9966476083265999,0.4,89.90000000000005,0.005857021513830392,0.005805199635805235,0,1,1,0.4,90.0,-0.056610176517673784,-0.05631310679737912,0,38000
cf1_sim,9.379999999999889,0.9967306047957576,0.9967598623919383,0.4,89.90000000000005,0.00566283298370515,0.005612703266915678,0,1,1,0.4,90.0,-0.05475856719126076,-0.0544708541924314,0,38000
cf1_sim,9.399999999999888,0.996840104715493,0.9968683924782185,0.4,89.90000000000005,0.005474995986772914,0.005426504314008821,0,1,1,0.4,90.0,-0.05296632311772029,-0.052687684119179845,0,38000
cf1_sim,9.419999999999888,0.9969459708531662,0.9969733204944935,0.4,89.90000000000005,0.005293306883659085,0.005246400813754824,0,1,1,0.4,90.0,-0.05123159841830628,-0.050961758644281784,0,38000
cf1_sim,9.439999999999888,0.9970483222205037,0.9970747644362031,0.4,89.90000000000005,0.00511756836687304,0.005072197085483496,0,1,1,0.4,90.0,-0.049552601796426156,-0.049291294224286054,0,38000
cf1_sim,9.459999999999887,0.9971472740059751,0.9971728385071084,0.4,89.90000000000005,0.004947589273575717,0.004903703545261529,0,1,1,0.4,90.0,-0.04792759506564996,-0.047674560236558014,0,38000
cf1_sim,9.479999999999887,0.997242937694043,0.9972676532376082,0.4,89.90000000000005,0.004783184403396566,0.00474073652499154,0,1,1,0.4,90.0,-0.046354891709890184,-0.04610987754244074,0,38000
cf1_sim,9.499999999999886,0.9973354211808668,0.9973593155995367,0.4,89.90000000000005,0.004624174341189506,0.00458311809642271,0,1,1,0.4,90.0,-0.04483285547546299,-0.04459561708236659,0,38000
cf1_sim,9.519999999999886,0.9974248288865591,0.997447929117536,0.4,89.90000000000005,0.004470385284618526,0.004430675899963814,0,1,1,0.4,90.0,-0.04335989899475854,-0.043130198502625866,0,38000
cf1_sim,9.539999999999885,0.9975112618640884,0.9975335939770998,0.4,89.90000000000005,0.0043216488764645025,0.004283242978190429,0,1,1,0.4,90.0,-0.04193448244119899,-0.04171208881345454,0,38000
cf1_sim,9.559999999999885,0.9975948179049193,0.9976164071293786,0.4,89.90000000000005,0.004177802041545907,0.004140657613939249,0,1,1,0.4,90.0,-0.040555112215121834,-0.04033980107808628,0,38000
cf1_sim,9.579999999999885,0.9976755916414822,0.9976964623928363,0.4,89.90000000000005,0.004038686828147315,0.004002763172883664,0,1,1,0.4,90.0,-0.039220339660254226,-0.03901189313241801,0,38000
cf1_sim,9.599999999999884,0.9977536746465593,0.997773850551846,0.4,89.90000000000005,0.0039041502538507884,0.003869407950485964,0,1,1,0.4,90.0,-0.037928759810363886,-0.03772696633486492,0,38000
cf1_sim,9.619999999999884,0.9978291555296727,0.9978486594523104,0.4,89.90000000000005,0.0037740441556666057,0.0037404450232229533,0,1,1,0.4,90.0,-0.03667901016569467,-0.03648366434602375,0,38000
cf1_sim,9.639999999999883,0.9979021200305599,0.9979209740943901,0.4,89.90000000000005,0.00364822504436118,0.0036157321039830973,0,1,1,0.4,90.0,-0.03546976949878212,-0.03528067193771101,0,38000
cf1_sim,9.659999999999883,0.9979726511098175,0.9979908767224208,0.4,89.90000000000005,0.003526553962881374,0.0034951314015347714,0,1,1,0.4,90.0,-0.03429975668920249,-0.034116713830929936,0,38000
cf1_sim,9.679999999999882,0.998040829036793,0.9980584469121001,0.4,89.90000000000005,0.003408896348775968,0.003378509483966737,0,1,1,0.4,90.0,-0.03316772958682106,-0.032990553562337745,0,38000
cf1_sim,9.699999999999882,0.9981067314748033,0.9981237616550201,0.4,89.90000000000005,0.0032951219005165127,0.003265737146003411,0,1,1,0.4,90.0,-0.03207248390307357,-0.03190099237875365,0,38000
cf1_sim,9.719999999999882,0.9981704335637558,0.9981868954406221,0.4,89.90000000000005,0.003185104447621411,0.0031566892800990822,0,1,1,0.4,90.0,-0.031012852129853625,-0.030846868159219793,0,38000
cf1_sim,9.739999999999881,0.9982320080002456,0.9982479203356465,0.4,89.90000000000005,0.0030787218244885286,0.003051244751216883,0,1,1,0.4,90.0,-0.029987702485492967,-0.029827054364172944,0,38000
cf1_sim,9.75999999999988,0.9982915251152025,0.9983069060611505,0.4,89.90000000000005,0.002975855747843395,0.002949286275199847,0,1,1,0.4,90.0,-0.028995937887400285,-0.028840459011231133,0,38000
cf1_sim,9.77999999999988,0.9983490529491567,0.9983639200671633,0.4,89.90000000000005,0.0028763916977115555,0.0028507003006430745,0,1,1,0.4,90.0,-0.028036494950856382,-0.027886023677124446,0,38000
cf1_sim,9.79999999999988,0.9984046573251931,0.9984190276050469,0.4,89.90000000000005,0.002780218801825338,0.0027553768941776264,0,1,1,0.4,90.0,-0.027108343013497727,-0.026962722525273566,0,38000
cf1_sim,9.81999999999988,0.9984584019196606,0.9984722917976284,0.4,89.90000000000005,0.0026872297233769293,0.0026632096290784887,0,1,1,0.4,90.0,-0.02621048318498897,-0.02606956135854492,0,38000
cf1_sim,9.839999999999879,0.9985103483307013,0.9985237737071706,0.4,89.90000000000005,0.0025973205520313423,0.0025740954771105305,0,1,1,0.4,90.0,-0.025341947421416357,-0.025205576696672387,0,38000
cf1_sim,9.859999999999879,0.9985605561446635,0.9985735324012411,0.4,89.90000000000005,0.002510390698114485,0.002487934703528147,0,1,1,0.4,90.0,-0.024501797623894483,-0.02436983487788046,0,38000
cf1_sim,9.879999999999878,0.9986090830004614,0.9986216250165441,0.4,89.90000000000005,0.002426342789893265,0.0024046307651458534,0,1,1,0.4,90.0,-0.02368912476093129,-0.02356143118420372,0,38000
cf1_sim,9.899999999999878,0.9986559846519387,0.998668106820772,0.4,89.90000000000005,0.002345082573866234,0.0023240902113988294,0,1,1,0.4,90.0,-0.022903048014030675,-0.022779488990019327,0,38000
cf1_sim,9.919999999999877,0.9987013150282984,0.9987130312725383,0.4,89.90000000000005,0.002266518817985061,0.0022462225883140624,0,1,1,0.4,90.0,-0.022142713946062577,-0.022023158933316682,0,38000
cf1_sim,9.939999999999877,0.998745126292653,0.9987564500794446,0.4,89.90000000000005,0.002190563217728735,0.0021709403453143692,0,1,1,0.4,90.0,-0.021407295691940015,-0.02129161810920193,0,38000
cf1_sim,9.959999999999877,0.998787468898752,0.9987984132543402,0.4,89.90000000000005,0.002117130304953977,0.002098158744779287,0,1,1,0.4,90.0,-0.020695992171081305,-0.020584069285179418,0,38000
cf1_sim,9.979999999999876,0.998828391645941,0.998838969169826,0.4,89.90000000000005,0.0020461373594471296,0.002027795774288393,0,1,1,0.4,90.0,-0.02000802732122843,-0.019899740137717038,0,38000
cf1_sim,9.999999999999876,0.998867941732403,0.9988781646110554,0.4,89.90000000000005,0.001977504323104273,0.0019597720614742994,0,1,1,0.4,90.0,-0.019342649353108504,-0.019237882509625506,0,38000
cf1_sim,10.019999999999875,0.9989061648067363,0.9989160448268837,0.4,89.90000000000005,0.0019111537166680616,0.0018940107914141697,0,1,1,0.4,90.0,-0.01869913002550167,-0.018597771687800822,0,38000
cf1_sim,10.039999999999875,0.9989431050179154,0.9989526535794134,0.4,89.90000000000005,0.0018470105589512848,0.0018304376264901548,0,1,1,0.4,90.0,-0.018076763940239094,-0.017978705700830506,0,38000
cf1_sim,10.059999999999874,0.998978805063685,0.9989880331919865,0.4,89.90000000000005,0.0017850022884787883,0.0017689806286508415,0,1,1,0.4,90.0,-0.0174748678566667,-0.017380004636051476,0,38000
cf1_sim,10.079999999999874,0.9990133062374346,0.9990222245956666,0.4,89.90000000000005,0.0017250586874809765,0.0017095701840072245,0,1,1,0.4,90.0,-0.01689278002514443,-0.016801009975557918,0,38000
cf1_sim,10.099999999999874,0.999046648473598,0.9990552673742605,0.4,89.90000000000005,0.001667111808173605,0.0016521389296984238,0,1,1,0.4,90.0,-0.01632985953911316,-0.016241083950762722,0,38000
cf1_sim,10.119999999999873,0.9990788703916232,0.9990871998079198,0.4,89.90000000000005,0.001611095901260167,0.0015966216829637245,0,1,1,0.4,90.0,-0.01578548570529326,-0.015699608915025046,0,38000
cf1_sim,10.139999999999873,0.9991100093385551,0.999118058915367,0.4,89.90000000000005,0.0015569473465946772,0.0015429553723591838,0,1,1,0.4,90.0,-0.01525905743158741,-0.015175986733938126,0,38000
cf1_sim,10.159999999999872,0.999140101430274,0.9991478804947882,0.4,89.90000000000005,0.0015046045859441232,0.0014910789710584345,0,1,1,0.4,90.0,-0.014749992632258537,-0.014669638192847088,0,38000
cf1_sim,10.179999999999872,0.9991691815914299,0.9991766991634318,0.4,89.90000000000005,0.0014540080577913259,0.0014409334321787907,0,1,1,0.4,90.0,-0.01425772764994643,-0.01418000242115212,0,38000
cf1_sim,10.199999999999871,0.9991972835941123,0.9992045483959533,0.4,89.90000000000005,0.0014051001341204466,0.0013924616260752739,0,1,1,0.4,90.0,-0.013781716694126275,-0.013706536333020129,0,38000
cf1_sim,10.219999999999871,0.9992244400952949,0.9992314605615442,0.4,89.90000000000005,0.00135782505912874,0.0013456082795464718,0,1,1,0.4,90.0,-0.013321431295594932,-0.013248714084055726,0,38000
cf1_sim,10.23999999999987,0.999250682673091,0.9992574669598822,0.4,89.90000000000005,0.0013121288898095748,0.0013003199168976746,0,1,1,0.4,90.0,-0.012876359776578056,-0.01280602654356365,0,38000
cf1_sim,10.25999999999987,0.9992760418618581,0.9992825978559383,0.4,89.90000000000005,0.0012679594383531354,0.0012565448028079935,0,1,1,0.4,90.0,-0.012446006736070376,-0.012377980781986861,0,38000
cf1_sim,10.27999999999987,0.9993005471861844,0.9993068825136773,0.4,89.90000000000005,0.0012252662163125543,0.0012142328869495832,0,1,1,0.4,90.0,-0.01202989255000863,-0.011964099573142524,0,38000
cf1_sim,10.29999999999987,0.9993242271937941,0.9993303492286835,0.4,89.90000000000005,0.0011840003804845902,0.0011733357503083874,0,1,1,0.4,90.0,-0.011627552885920768,-0.011563920910879585,0,38000
cf1_sim,10.319999999999869,0.9993471094874032,0.9993530253597466,0.4,89.90000000000005,0.0011441146804551984,0.0011338065531571067,0,1,1,0.4,90.0,-0.011238538231662298,-0.011176997539767888,0,38000
cf1_sim,10.339999999999868,0.9993692207555585,0.9993749373594393,0.4,89.90000000000005,0.0011055634077616681,0.001095599984632426,0,1,1,0.4,90.0,-0.010862413437860301,-0.010802896499484724,0,38000
cf1_sim,10.359999999999868,0.9993905868024909,0.9993961108037167,0.4,89.90000000000005,0.0010683023466243051,0.001058672213869679,0,1,1,0.4,90.0,-0.010498757273744205,-0.010441198682497075,0,38000
cf1_sim,10.379999999999868,0.9994112325770149,0.9994165704205697,0.4,89.90000000000005,0.0010322887262017412,0.0010229808426494994,0,1,1,0.4,90.0,-0.01014716199597008,-0.010091498404734818,0,38000
cf1_sim,10.399999999999867,0.9994311822005014,0.99943634011776,0.4,89.90000000000005,0.0009974811743252978,0.0009884848595120527,0,1,1,0.4,90.0,-0.00980723293012786,-0.009753402988873089,0,38000
cf1_sim,10.419999999999867,0.9994504589939548,0.9994554430096658,0.4,89.90000000000005,0.0009638396726688968,0.0009551445952957461,0,1,1,0.4,90.0,-0.0094785880645657,-0.009426532359916962,0,38000
cf1_sim,10.439999999999866,0.9994690855042211,0.999473901443267,0.4,89.90000000000005,0.0009313255133122696,0.0009229216800583622,0,1,1,0.4,90.0,-0.009160857656228016,-0.009110518652729783,0,38000
cf1_sim,10.459999999999866,0.9994870835293542,0.9994917370232937,0.4,89.90000000000005,0.0008999012566562516,0.0008917790013397896,0,1,1,0.4,90.0,-0.008853683848158586,-0.00880500583120505,0,38000
cf1_sim,10.479999999999865,0.9995044741431672,0.9995089706365683,0.4,89.90000000000005,0.0008695306906501494,0.0008616806637265496,0,1,1,0.4,90.0,-0.00855672029837818,-0.008509649318761883,0,38000
cf1_sim,10.499999999999865,0.9995212777189931,0.9995256224755619,0.4,89.90000000000005,0.0008401787912921613,0.0008325919496794102,0,1,1,0.4,90.0,-0.008269631819805355,-0.008224115639843852,0,38000
cf1_sim,10.519999999999865,0.9995375139526804,0.9995417120611936,0.4,89.90000000000005,0.0008118116843649717,0.0008044792815864745,0,1,1,0.4,90.0,-0.007992094030925222,-0.007948082072138778,0,38000
cf1_sim,10.539999999999864,0.9995532018848479,0.9995572582648937,0.4,89.90000000000005,0.0007843966083696491,0.000777310185005096,0,1,1,0.4,90.0,-0.007723793016926668,-0.007681236309208285,0,38000
cf1_sim,10.559999999999864,0.9995683599224203,0.9995722793299548,0.4,89.90000000000005,0.0007579018786219386,0.0007510532530570368,0,1,1,0.4,90.0,-0.007464425000986748,-0.007423276133240342,0,38000
cf1_sim,10.579999999999863,0.9995830058594698,0.9995867928921937,0.4,89.90000000000005,0.0007322968524761418,0.0007256781119422639,0,1,1,0.4,90.0,-0.00721369602545462,-0.007173909097663008,0,38000
cf1_sim,10.599999999999863,0.9995971568973826,0.9996008159999444,0.4,89.90000000000005,0.0007075518956426245,0.000701155387537677,0,1,1,0.4,90.0,-0.006971321642640671,-0.006932852219319682,0,38000
cf1_sim,10.619999999999862,0.9996108296643739,0.9996143651334054,0.4,89.90000000000005,0.0006836383495660049,0.0006774566730480808,0,1,1,0.4,90.0,-0.00673702661493965,-0.006699831679944734,0,38000
cf1_sim,10.639999999999862,0.9996240402343705,0.9996274562233589,0.4,89.90000000000005,0.0006605284998320037,0.0006545544976776115,0,1,1,0.4,90.0,-0.0065105446240378605,-0.006474582536694018,0,38000
cf1_sim,10.659999999999862,0.9996368041452819,0.9996401046692848,0.4,89.90000000000005,0.0006381955455717944,0.0006324222962906651,0,1,1,0.4,90.0,-0.006291617988941105,-0.0062568484414579715,0,38000
cf1_sim,10.679999999999861,0.9996491364166785,0.9996523253568854,0.4,89.90000000000005,0.0006166135698335974,0.0006110343800323051,0,1,1,0.4,90.0,-0.006079997392570532,-0.006046381368701459,0,38000
cf1_sim,10.69999999999986,0.9996610515668963,0.999664132675043,0.4,89.90000000000005,0.0005957575108921266,0.0005903659078790022,0,1,1,0.4,90.0,-0.005875441616695977,-0.005842941351617334,0,38000
cf1_sim,10.71999999999986,0.9996725636295857,0.9996755405322247,0.4,89.90000000000005,0.0005756031344672885,0.0005703928590912874,0,1,1,0.4,90.0,-0.005677717284951178,-0.005646296226328762,0,38000
cf1_sim,10.73999999999986,0.9996836861697221,0.9996865623723555,0.4,89.90000000000005,0.0005561270068244119,0.0005510920065408058,0,1,1,0.4,90.0,-0.00548659861371075,-0.005456221383916424,0,38000
cf1_sim,10.75999999999986,0.9996944322990967,0.9996972111901732,0.4,89.90000000000005,0.0005373064687290384,0.0005324408908850208,0,1,1,0.4,100.0,-0.00530186717060552,-0.005272499530051641,-50,38000
cf1_sim,10.779999999999859,0.9997048146913013,0.9997074995460845,0.4,90.90000000000006,0.0005191196102300734,0.0005144177955635728,0,1,1,0.4,100.0,-0.005211449957761211,-0.005004730353901659,-45,38000
cf1_sim,10.799999999999859,0.9997148455962263,0.9997174395805364,0.4,91.80000000000005,0.0005015452462458876,0.0004970017225910312,0,1,1,0.4,100.0,-0.005111238020174604,-0.0047564317949171635,-41,38000
cf1_sim,10.819999999999858,0.9997245368540848,0.9997270430279188,0.4,92.62000000000005,0.00048456289292867394,0.0004801723691215918,0,1,1,0.4,100.0,-0.005004289839214304,-0.004525002626777265,-37,38000
cf1_sim,10.839999999999858,0.9997338999089804,0.9997363212300141,0.4,93.36000000000004,0.0004681527447830565,0.00046391010476186064,0,1,1,0.4,100.0,-0.004891702177441342,-0.00430967253596625,-33,38000
cf1_sim,10.859999999999857,0.9997429458220307,0.9997452851490063,0.4,94.02000000000004,0.0004522956525156983,0.00044819594960864305,0,1,1,0.4,100.0,-0.004774458262219661,-0.004109659496131713,-30,38000
cf1_sim,10.879999999999857,0.9997516852840626,0.9997539453800661,0.4,94.62000000000003,0.00043697310159329574,0.00043301155298934303,0,1,1,0.4,100.0,-0.004654805275791824,-0.003922552399782134,-27,38000
cf1_sim,10.899999999999856,0.9997601286278923,0.9997623121635237,0.4,95.16000000000005,0.0004221671914870248,0.0004183391728831501,0,1,1,0.4,100.0,-0.004533341679985684,-0.0037476949448575674,-24,38000
cf1_sim,10.919999999999856,0.9997682858402039,0.9997703953966438,0.4,95.64000000000003,0.00040786061558213384,0.00040416165600193766,0,1,1,0.4,110.0,-0.004410601554503094,-0.0035844414583622243,-72,38000
cf1_sim,10.939999999999856,0.9997761665730386,0.999778204645014,0.4,97.08000000000004,0.00039403664173204273,0.0003904624185102996,0,1,1,0.4,110.0,-0.004347477503863676,-0.003355299750636637,-65,38000
cf1_sim,10.959999999999855,0.9997837801549073,0.9997857491535613,0.4,98.38000000000004,0.00038067909343684407,0.00037722542736491334,0,1,1,0.4,110.0,-0.004273231556758952,-0.003145919477519707,-58,38000
cf1_sim,10.979999999999855,0.9997911356015399,0.9997930378572064,0.4,99.54000000000002,0.00036777233162679405,0.0003644351822538216,0,1,1,0.4,110.0,-0.0041896789135928555,-0.0029555093722256117,-52,38000
cf1_sim,10.999999999999854,0.9997982416262805,0.9998000793911688,0.4,100.58000000000004,0.0003553012370318742,0.0003520766981169824,0,1,1,0.4,110.0,-0.004099390828335978,-0.0027817702868772644,-47,38000
cf1_sim,11.019999999999854,0.9998051066501429,0.9998068821009334,0.4,101.52000000000004,0.00034325119311911877,0.00034013548822983637,0,1,1,0.4,110.0,-0.0040045180460593485,-0.0026224825009530644,-42,38000
cf1_sim,11.039999999999853,0.9998117388115345,0.99981345405189,0.4,102.36000000000003,0.00033160806957991686,0.0003285975478323071,0,1,1,0.4,110.0,-0.003905991085900531,-0.002476901813777516,-38,38000
cf1_sim,11.059999999999853,0.9998181459756615,0.9998198030386558,0.4,103.12000000000006,0.00032035820635005653,0.00031744933828609746,0,1,1,0.4,110.0,-0.0038054451995159617,-0.002342948381175491,-34,38000
cf1_sim,11.079999999999853,0.9998243357436245,0.9998259365940907,0.4,103.80000000000005,0.0003094883981457862,0.0003066777717436967,0,1,1,0.4,119.99999999999999,-0.003703465683051721,-0.0022199781804061124,-81,38000
cf1_sim,11.099999999999852,0.9998303154612145,0.999831861998017,0.4,105.42000000000006,0.00029898587949965386,0.0002962701963130139,0,1,1,0.4,119.99999999999999,-0.003637508313994252,-0.0020429268706110065,-73,38000
cf1_sim,11.119999999999852,0.9998360922274201,0.999837586285651,0.4,106.88000000000005,0.0002888383102804086,0.0002862143817019952,0,1,1,0.4,119.99999999999999,-0.003563698491318245,-0.0018836758056074946,-66,38000
cf1_sim,11.139999999999851,0.9998416729026537,0.9998431162557576,0.4,108.20000000000005,0.0002790337616816733,0.00027649850532813185,0,1,1,0.4,119.99999999999999,-0.0034842210782686585,-0.0017401822315285334,-59,38000
cf1_sim,11.159999999999851,0.999847064116707,0.9998484584785352,0.4,109.38000000000005,0.00026956070266463407,0.00026711113887812254,0,1,1,0.4,119.99999999999999,-0.0034003067122648045,-0.0016116487715325625,-53,38000
cf1_sim,11.17999999999985,0.9998522722764438,0.9998536193032412,0.4,110.44000000000004,0.0002604079868403494,0.0002580412353035244,0,1,1,0.4,119.99999999999999,-0.00331354172829409,-0.0014960913819066757,-48,38000
cf1_sim,11.19999999999985,0.9998573035732393,0.999858604865566,0.4,111.40000000000005,0.00025156483977780943,0.00024927811623853157,0,1,1,0.4,119.99999999999999,-0.0032252152865279043,-0.001391634755784408,-43,38000
cf1_sim,11.21999999999985,0.9998621639901738,0.9998634210947626,0.4,112.26000000000003,0.00024302084672422512,0.00024081145982651257,0,1,1,0.4,119.99999999999999,-0.0031359177307444994,-0.0012976228403923983,-39,38000
cf1_sim,11.23999999999985,0.9998668593089883,0.9998680737205414,0.4,113.04000000000005,0.00023476594072446792,0.00023263128894236208,0,1,1,0.4,119.99999999999999,-0.0030465788609427514,-0.0012123445529254862,-35,38000
cf1_sim,11.259999999999849,0.9998713951168109,0.9998725682797374,0.4,113.74000000000004,0.0002267903911270074,0.00022472795979807422,0,1,1,0.4,119.99999999999999,-0.0029575489492748557,-0.0011352585841059592,-31,38000
cf1_sim,11.279999999999848,0.9998757768126602,0.9998769101227557,0.4,114.36000000000004,0.00021908479246404117,0.00021709215091933324,0,1,1,0.4,119.99999999999999,-0.0028691258695406788,-0.0010658389014529775,-28,38000
cf1_sim,11.299999999999848,0.999880009613734,0.9998811044198054,0.4,114.92000000000006,0.00021164005369389425,0.00020971485248131647,0,1,1,0.4,119.99999999999999,-0.0027819100892232784,-0.0010026054795562209,-25,38000
cf1_sim,11.319999999999848,0.9998840985614899,0.9998851561669252,0.4,115.42000000000006,0.00020444738779415138,0.00020258735599225673,0,1,1,0.4,119.99999999999999,-0.002696049776186419,-0.0009451578648083646,-23,38000
cf1_sim,11.339999999999847,0.9998880485275238,0.9998890701918115,0.4,115.88000000000005,0.00019749830169434266,0.00019570124431369525,0,1,1,0.4,119.99999999999999,-0.0026119781907265292,-0.0008922002960128439,-21,38000
cf1_sim,11.359999999999847,0.9998918642192545,0.9998928511594516,0.4,116.30000000000005,0.0001907845865373047,0.00018904838200658976,0,1,1,0.4,119.99999999999999,-0.002529742972345673,-0.0008434516920512145,-18,38000
cf1_sim,11.379999999999846,0.9998955501854196,0.9998965035775714,0.4,116.66000000000005,0.00018429830825876644,0.0001826209059929518,0,1,1,0.4,119.99999999999999,-0.002449100424331414,-0.0007994988185189243,-17,38000
cf1_sim,11.399999999999846,0.9998991108213892,0.9999000318019019,0.4,117.00000000000006,0.00017803179847488464,0.00017641121652281936,0,1,1,0.4,119.99999999999999,-0.0023706468360600187,-0.0007583488688789738,-15,38000
cf1_sim,11.419999999999845,0.9999025503743025,0.9999034400412706,0.4,117.30000000000007,0.0001719776456679545,0.00017041196843684732,0,1,1,0.4,119.99999999999999,-0.0022941017941951014,-0.000720641685235545,-13,38000
cf1_sim,11.439999999999845,0.9999058729480358,0.9999067323625249,0.4,117.56000000000006,0.00016612868666067052,0.00016461606271500447,0,1,1,0.4,119.99999999999999,-0.002219470536871623,-0.0006861461615481697,-12,38000
cf1_sim,11.459999999999845,0.9999090825080031,0.999909912695291,0.4,117.80000000000005,0.0001604779983696923,0.00015901663830217525,0,1,1,0.4,119.99999999999999,-0.0021469787611032923,-0.0006538934984458609,-11,38000
cf1_sim,11.479999999999844,0.9999121828857997,0.999912984836575,0.4,118.02000000000004,0.0001550188898295521,0.00015360706420178695,0,1,1,0.4,119.99999999999999,-0.0020765859603848404,-0.0006237495712138206,-10,38000
cf1_sim,11.499999999999844,0.9999151777836893,0.9999159524552116,0.4,118.22000000000006,0.0001497448944781645,0.00014838093182882622,0,1,1,0.4,119.99999999999999,-0.0020082502642324402,-0.0005955870850118453,-9,38000
cf1_sim,11.519999999999843,0.9999180707789432,0.9999188190961639,0.4,118.40000000000008,0.00014464976269557998,0.00014333204761389455,0,1,1,0.4,119.99999999999999,-0.0019419286864594918,-0.0005692852941835024,-8,38000
cf1_sim,11.539999999999843,0.999920865328035,0.9999215881846809,0.4,118.56000000000006,0.00013972745458776576,0.00013845442585021567,0,1,1,0.4,119.99999999999999,-0.0018775773527718324,-0.0005447297280403731,-7,38000
